{"Response":{"MetaInfo":{"Timestamp":"2020-03-28T11:20:00.820+0000","NextPageInformation":"2"},"View":[{"_type":"SearchResultsViewType","ViewId":0,"Result":[{"Relevance":1.0,"Distance":0.0,"Direction":0.0,"MatchLevel":"district","MatchQuality":{"Country":1.0,"State":1.0,"County":1.0,"City":1.0,"District":1.0,"PostalCode":1.0},"Location":{"LocationId":"NT_77ag5ts5b8l9M1qiuyHq0B","LocationType":"point","DisplayPosition":{"Latitude":53.7704807,"Longitude":-0.3773486},"MapView":{"TopLeft":{"Latitude":53.81215,"Longitude":-0.42255},"BottomRight":{"Latitude":53.71955,"Longitude":-0.24288}},"Address":{"Label":"Hull, England, United Kingdom","Country":"GBR","State":"England","County":"North Humberside","City":"Hull","District":"Hull","PostalCode":"HU1 2","AdditionalData":[{"value":"United Kingdom","key":"CountryName"},{"value":"England","key":"StateName"},{"value":"North Humberside","key":"CountyName"}]},"MapReference":{"ReferenceId":"1208800402","SideOfStreet":"neither","StateId":"20248595","CountyId":"20344500","CityId":"20344678","DistrictId":"20344679"}}},{"Relevance":1.0,"Distance":7.7,"MatchLevel":"street","MatchQuality":{"Country":1.0,"State":1.0,"County":1.0,"City":1.0,"District":1.0,"Street":[1.0],"PostalCode":1.0},"Location":{"LocationId":"NT_ZBiy2dU1zD4REkHHDedHWC_l_78755865_R","LocationType":"point","DisplayPosition":{"Latitude":53.7704127,"Longitude":-0.3773705},"MapView":{"TopLeft":{"Latitude":53.77068,"Longitude":-0.37758},"BottomRight":{"Latitude":53.77036,"Longitude":-0.37705}},"Address":{"Label":"Townend Court, Hull, HU6 8, United Kingdom","Country":"GBR","State":"England","County":"North Humberside","City":"Hull","District":"Hull","Street":"Townend Court","PostalCode":"HU6 8","AdditionalData":[{"value":"United Kingdom","key":"CountryName"},{"value":"England","key":"StateName"},{"value":"North Humberside","key":"CountyName"}]},"MapReference":{"ReferenceId":"78755865","Spot":0.38,"SideOfStreet":"right","StateId":"20248595","CountyId":"20344500","CityId":"20344678","DistrictId":"20344679"}}},{"Relevance":1.0,"Distance":23.8,"MatchLevel":"street","MatchQuality":{"Country":1.0,"State":1.0,"County":1.0,"City":1.0,"District":1.0,"Street":[1.0],"PostalCode":1.0},"Location":{"LocationId":"NT_ZBiy2dU1zD4REkHHDedHWC_l_78755863_L","LocationType":"point","DisplayPosition":{"Latitude":53.77036,"Longitude":-0.37705},"MapView":{"TopLeft":{"Latitude":53.77071,"Longitude":-0.37705},"BottomRight":{"Latitude":53.77036,"Longitude":-0.37637}},"Address":{"Label":"Townend Court, Hull, HU6 8, United Kingdom","Country":"GBR","State":"England","County":"North Humberside","City":"Hull","District":"Hull","Street":"Townend Court","PostalCode":"HU6 8","AdditionalData":[{"value":"United Kingdom","key":"CountryName"},{"value":"England","key":"StateName"},{"value":"North Humberside","key":"CountyName"}]},"MapReference":{"ReferenceId":"78755863","Spot":0.0,"SideOfStreet":"left","StateId":"20248595","CountyId":"20344500","CityId":"20344678","DistrictId":"20344679"}}},{"Relevance":1.0,"Distance":23.8,"MatchLevel":"street","MatchQuality":{"Country":1.0,"State":1.0,"County":1.0,"City":1.0,"District":1.0,"Street":[1.0],"PostalCode":1.0},"Location":{"LocationId":"NT_ZBiy2dU1zD4REkHHDedHWC_l_78755864_L","LocationType":"point","DisplayPosition":{"Latitude":53.77036,"Longitude":-0.37705},"MapView":{"TopLeft":{"Latitude":53.77036,"Longitude":-0.3771},"BottomRight":{"Latitude":53.76969,"Longitude":-0.37696}},"Address":{"Label":"Townend Court, Hull, HU6 8, United Kingdom","Country":"GBR","State":"England","County":"North Humberside","City":"Hull","District":"Hull","Street":"Townend Court","PostalCode":"HU6 8","AdditionalData":[{"value":"United Kingdom","key":"CountryName"},{"value":"England","key":"StateName"},{"value":"North Humberside","key":"CountyName"}]},"MapReference":{"ReferenceId":"78755864","Spot":1.0,"SideOfStreet":"left","StateId":"20248595","CountyId":"20344500","CityId":"20344678","DistrictId":"20344679"}}},{"Relevance":1.0,"Distance":29.8,"MatchLevel":"postalCode","MatchQuality":{"PostalCode":1.0},"Location":{"LocationId":"NT_ZBiy2dU1zD4REkHHDedHWC_l_78755863_L","LocationType":"point","DisplayPosition":{"Latitude":53.77044,"Longitude":-0.3769},"MapView":{"TopLeft":{"Latitude":53.7794332,"Longitude":-0.3921164},"BottomRight":{"Latitude":53.7614468,"Longitude":-0.3616836}},"Address":{"Label":"HU6 8QG, Hull, England, United Kingdom","Country":"GBR","State":"England","County":"North Humberside","City":"Hull","PostalCode":"HU6 8QG","AdditionalData":[{"value":"United Kingdom","key":"CountryName"},{"value":"England","key":"StateName"},{"value":"North Humberside","key":"CountyName"}]},"MapReference":{"ReferenceId":"78755863","Spot":0.0,"SideOfStreet":"neither","StateId":"20248595","CountyId":"20344500","CityId":"20344678"}}},{"Relevance":1.0,"Distance":54.4,"MatchLevel":"houseNumber","MatchQuality":{"Country":1.0,"State":1.0,"County":1.0,"City":1.0,"District":1.0,"Street":[1.0],"HouseNumber":1.0,"PostalCode":1.0},"MatchType":"interpolated","Location":{"LocationId":"NT_dwyJa765.u23b-RubQ019C_l_26964115_R_zEDN","LocationType":"point","DisplayPosition":{"Latitude":53.7699825,"Longitude":-0.3779111},"MapView":{"TopLeft":{"Latitude":53.7711066,"Longitude":-0.3798131},"BottomRight":{"Latitude":53.7688583,"Longitude":-0.376009}},"Address":{"Label":"314 Cottingham Road, Hull, HU6 8, United Kingdom","Country":"GBR","State":"England","County":"North Humberside","City":"Hull","District":"Hull","Street":"Cottingham Road","HouseNumber":"314","PostalCode":"HU6 8","AdditionalData":[{"value":"United Kingdom","key":"CountryName"},{"value":"England","key":"StateName"},{"value":"North Humberside","key":"CountyName"}]},"MapReference":{"ReferenceId":"26964115","Spot":0.24,"SideOfStreet":"right","StateId":"20248595","CountyId":"20344500","CityId":"20344678","DistrictId":"20344679"}}},{"Relevance":1.0,"Distance":63.2,"MatchLevel":"houseNumber","MatchQuality":{"Country":1.0,"State":1.0,"County":1.0,"City":1.0,"District":1.0,"Street":[1.0],"HouseNumber":1.0,"PostalCode":1.0},"MatchType":"interpolated","Location":{"LocationId":"NT_0PSpMIcdgcmSXxX-dXxBPD_l_26964039_R_xAD","LocationType":"point","DisplayPosition":{"Latitude":53.7707832,"Longitude":-0.378383},"MapView":{"TopLeft":{"Latitude":53.7719074,"Longitude":-0.380285},"BottomRight":{"Latitude":53.7696591,"Longitude":-0.3764809}},"Address":{"Label":"10 Bentley Grove, Hull, HU6 8NP, United Kingdom","Country":"GBR","State":"England","County":"North Humberside","City":"Hull","District":"Hull","Street":"Bentley Grove","HouseNumber":"10","PostalCode":"HU6 8NP","AdditionalData":[{"value":"United Kingdom","key":"CountryName"},{"value":"England","key":"StateName"},{"value":"North Humberside","key":"CountyName"}]},"MapReference":{"ReferenceId":"26964039","Spot":0.18,"SideOfStreet":"right","StateId":"20248595","CountyId":"20344500","CityId":"20344678","DistrictId":"20344679"}}},{"Relevance":1.0,"Distance":69.8,"MatchLevel":"houseNumber","MatchQuality":{"Country":1.0,"State":1.0,"County":1.0,"City":1.0,"District":1.0,"Street":[1.0],"HouseNumber":1.0,"PostalCode":1.0},"MatchType":"interpolated","Location":{"LocationId":"NT_qWluAlgy0ex-17VXAdKzpA_l_78755862_R_zAjN","LocationType":"point","DisplayPosition":{"Latitude":53.7697216,"Longitude":-0.3774593},"MapView":{"TopLeft":{"Latitude":53.7708457,"Longitude":-0.3793613},"BottomRight":{"Latitude":53.7685974,"Longitude":-0.3755573}},"Address":{"Label":"306 Cottingham Road, Hull, HU5 4, United Kingdom","Country":"GBR","State":"England","County":"North Humberside","City":"Hull","District":"Hull","Street":"Cottingham Road","HouseNumber":"306","PostalCode":"HU5 4","AdditionalData":[{"value":"United Kingdom","key":"CountryName"},{"value":"England","key":"StateName"},{"value":"North Humberside","key":"CountyName"}]},"MapReference":{"ReferenceId":"78755862","Spot":0.53,"SideOfStreet":"right","StateId":"20248595","CountyId":"20344500","CityId":"20344678","DistrictId":"20344679"}}},{"Relevance":1.0,"Distance":82.6,"MatchLevel":"houseNumber","MatchQuality":{"Country":1.0,"State":1.0,"County":1.0,"City":1.0,"District":1.0,"Street":[1.0],"HouseNumber":1.0,"PostalCode":1.0},"MatchType":"interpolated","Location":{"LocationId":"NT_WXfa9D9yQly8icUs0KamwA_l_26964097_R_4A","LocationType":"point","DisplayPosition":{"Latitude":53.770335,"Longitude":-0.3788125},"MapView":{"TopLeft":{"Latitude":53.7714592,"Longitude":-0.3807145},"BottomRight":{"Latitude":53.7692109,"Longitude":-0.3769105}},"Address":{"Label":"8 Cottingham Grove, Hull, HU6 8NN, United Kingdom","Country":"GBR","State":"England","County":"North Humberside","City":"Hull","District":"Hull","Street":"Cottingham Grove","HouseNumber":"8","PostalCode":"HU6 8NN","AdditionalData":[{"value":"United Kingdom","key":"CountryName"},{"value":"England","key":"StateName"},{"value":"North Humberside","key":"CountyName"}]},"MapReference":{"ReferenceId":"26964097","Spot":0.6,"SideOfStreet":"right","StateId":"20248595","CountyId":"20344500","CityId":"20344678","DistrictId":"20344679"}}},{"Relevance":1.0,"Distance":89.1,"MatchLevel":"houseNumber","MatchQuality":{"Country":1.0,"State":1.0,"County":1.0,"City":1.0,"District":1.0,"Street":[1.0],"HouseNumber":1.0,"PostalCode":1.0},"MatchType":"interpolated","Location":{"LocationId":"NT_nCzxmVL09RY2lut5osiJUC_l_763750241_R_ykjN","LocationType":"point","DisplayPosition":{"Latitude":53.7696647,"Longitude":-0.376646},"MapView":{"TopLeft":{"Latitude":53.7707888,"Longitude":-0.3785481},"BottomRight":{"Latitude":53.7685405,"Longitude":-0.374744}},"Address":{"Label":"296 Cottingham Road, Hull, HU5 4, United Kingdom","Country":"GBR","State":"England","County":"North Humberside","City":"Hull","District":"Hull","Street":"Cottingham Road","HouseNumber":"296","PostalCode":"HU5 4","AdditionalData":[{"value":"United Kingdom","key":"CountryName"},{"value":"England","key":"StateName"},{"value":"North Humberside","key":"CountyName"}]},"MapReference":{"ReferenceId":"763750241","Spot":0.67,"SideOfStreet":"right","StateId":"20248595","CountyId":"20344500","CityId":"20344678","DistrictId":"20344679"}}}]}]}}