{"Response":{"MetaInfo":{"Timestamp":"2020-03-28T11:17:44.162+0000","NextPageInformation":"2"},"View":[{"_type":"SearchResultsViewType","ViewId":0,"Result":[{"Relevance":1.0,"Distance":0.0,"Direction":0.0,"MatchLevel":"district","MatchQuality":{"Country":1.0,"State":1.0,"County":1.0,"City":1.0,"District":1.0,"PostalCode":1.0},"Location":{"LocationId":"NT_lDByJwe9f6uwQru1QtHFbC","LocationType":"point","DisplayPosition":{"Latitude":53.7431937,"Longitude":-1.5475037},"MapView":{"TopLeft":{"Latitude":53.7538,"Longitude":-1.56781},"BottomRight":{"Latitude":53.73723,"Longitude":-1.52596}},"Address":{"Label":"Middleton, Leeds, England, United Kingdom","Country":"GBR","State":"England","County":"West Yorkshire","City":"Leeds","District":"Middleton","PostalCode":"LS10 4","AdditionalData":[{"value":"United Kingdom","key":"CountryName"},{"value":"England","key":"StateName"},{"value":"West Yorkshire","key":"CountyName"}]},"MapReference":{"ReferenceId":"585762995","SideOfStreet":"neither","StateId":"20248595","CountyId":"20345050","CityId":"20345325","DistrictId":"20345364"}}},{"Relevance":1.0,"Distance":12.6,"MatchLevel":"street","MatchQuality":{"Country":1.0,"State":1.0,"County":1.0,"City":1.0,"District":1.0,"Street":[1.0],"PostalCode":1.0},"Location":{"LocationId":"NT_Q4bcEIbvzdjO4NiKa52fJC_l_1203540017_R","LocationType":"point","DisplayPosition":{"Latitude":53.7431868,"Longitude":-1.5476946},"MapView":{"TopLeft":{"Latitude":53.74361,"Longitude":-1.54771},"BottomRight":{"Latitude":53.7428,"Longitude":-1.54768}},"Address":{"Label":"Middleton Park Avenue, Leeds, LS10 4, United Kingdom","Country":"GBR","State":"England","County":"West Yorkshire","City":"Leeds","District":"Middleton","Street":"Middleton Park Avenue","PostalCode":"LS10 4","AdditionalData":[{"value":"United Kingdom","key":"CountryName"},{"value":"England","key":"StateName"},{"value":"West Yorkshire","key":"CountyName"}]},"MapReference":{"ReferenceId":"1203540017","Spot":0.48,"SideOfStreet":"right","StateId":"20248595","CountyId":"20345050","CityId":"20345325","DistrictId":"20345364"}}},{"Relevance":1.0,"Distance":43.4,"MatchLevel":"street","MatchQuality":{"Country":1.0,"State":1.0,"County":1.0,"City":1.0,"District":1.0,"Street":[1.0],"PostalCode":1.0},"Location":{"LocationId":"NT_2WekP0rD2vtOFNmrzAA4.A_l_27423151_L","LocationType":"point","DisplayPosition":{"Latitude":53.7428036,"Longitude":-1.5474961},"MapView":{"TopLeft":{"Latitude":53.74282,"Longitude":-1.54768},"BottomRight":{"Latitude":53.7428,"Longitude":-1.54666}},"Address":{"Label":"Acre Close, Leeds, LS10 4, United Kingdom","Country":"GBR","State":"England","County":"West Yorkshire","City":"Leeds","District":"Middleton","Street":"Acre Close","PostalCode":"LS10 4","AdditionalData":[{"value":"United Kingdom","key":"CountryName"},{"value":"England","key":"StateName"},{"value":"West Yorkshire","key":"CountyName"}]},"MapReference":{"ReferenceId":"27423151","Spot":0.18,"SideOfStreet":"left","StateId":"20248595","CountyId":"20345050","CityId":"20345325","DistrictId":"20345364"}}},{"Relevance":1.0,"Distance":45.3,"MatchLevel":"street","MatchQuality":{"Country":1.0,"State":1.0,"County":1.0,"City":1.0,"District":1.0,"Street":[1.0],"PostalCode":1.0},"Location":{"LocationId":"NT_Q4bcEIbvzdjO4NiKa52fJC_l_1049354807_R","LocationType":"point","DisplayPosition":{"Latitude":53.7428,"Longitude":-1.54768},"MapView":{"TopLeft":{"Latitude":53.7428,"Longitude":-1.54768},"BottomRight":{"Latitude":53.7427,"Longitude":-1.54768}},"Address":{"Label":"Middleton Park Avenue, Leeds, LS10 4, United Kingdom","Country":"GBR","State":"England","County":"West Yorkshire","City":"Leeds","District":"Middleton","Street":"Middleton Park Avenue","PostalCode":"LS10 4","AdditionalData":[{"value":"United Kingdom","key":"CountryName"},{"value":"England","key":"StateName"},{"value":"West Yorkshire","key":"CountyName"}]},"MapReference":{"ReferenceId":"1049354807","Spot":1.0,"SideOfStreet":"right","StateId":"20248595","CountyId":"20345050","CityId":"20345325","DistrictId":"20345364"}}},{"Relevance":1.0,"Distance":48.2,"MatchLevel":"street","MatchQuality":{"Country":1.0,"State":1.0,"County":1.0,"City":1.0,"District":1.0,"Street":[1.0],"PostalCode":1.0},"Location":{"LocationId":"NT_Q4bcEIbvzdjO4NiKa52fJC_l_1203540018_R","LocationType":"point","DisplayPosition":{"Latitude":53.74361,"Longitude":-1.54771},"MapView":{"TopLeft":{"Latitude":53.74372,"Longitude":-1.54772},"BottomRight":{"Latitude":53.74361,"Longitude":-1.54771}},"Address":{"Label":"Middleton Park Avenue, Leeds, LS10 4, United Kingdom","Country":"GBR","State":"England","County":"West Yorkshire","City":"Leeds","District":"Middleton","Street":"Middleton Park Avenue","PostalCode":"LS10 4","AdditionalData":[{"value":"United Kingdom","key":"CountryName"},{"value":"England","key":"StateName"},{"value":"West Yorkshire","key":"CountyName"}]},"MapReference":{"ReferenceId":"1203540018","Spot":0.0,"SideOfStreet":"right","StateId":"20248595","CountyId":"20345050","CityId":"20345325","DistrictId":"20345364"}}},{"Relevance":1.0,"Distance":56.1,"MatchLevel":"street","MatchQuality":{"Country":1.0,"State":1.0,"County":1.0,"City":1.0,"District":1.0,"Street":[1.0],"PostalCode":1.0},"Location":{"LocationId":"NT_Q4bcEIbvzdjO4NiKa52fJC_l_1049354806_R","LocationType":"point","DisplayPosition":{"Latitude":53.7427,"Longitude":-1.54768},"MapView":{"TopLeft":{"Latitude":53.7427,"Longitude":-1.54768},"BottomRight":{"Latitude":53.74193,"Longitude":-1.54765}},"Address":{"Label":"Middleton Park Avenue, Leeds, LS10 4, United Kingdom","Country":"GBR","State":"England","County":"West Yorkshire","City":"Leeds","District":"Middleton","Street":"Middleton Park Avenue","PostalCode":"LS10 4","AdditionalData":[{"value":"United Kingdom","key":"CountryName"},{"value":"England","key":"StateName"},{"value":"West Yorkshire","key":"CountyName"}]},"MapReference":{"ReferenceId":"1049354806","Spot":1.0,"SideOfStreet":"right","StateId":"20248595","CountyId":"20345050","CityId":"20345325","DistrictId":"20345364"}}},{"Relevance":1.0,"Distance":60.2,"MatchLevel":"street","MatchQuality":{"Country":1.0,"State":1.0,"County":1.0,"City":1.0,"District":1.0,"Street":[1.0],"PostalCode":1.0},"Location":{"LocationId":"NT_Q4bcEIbvzdjO4NiKa52fJC_l_1050449537_R","LocationType":"point","DisplayPosition":{"Latitude":53.74372,"Longitude":-1.54772},"MapView":{"TopLeft":{"Latitude":53.74383,"Longitude":-1.54772},"BottomRight":{"Latitude":53.74372,"Longitude":-1.54772}},"Address":{"Label":"Middleton Park Avenue, Leeds, LS10 4, United Kingdom","Country":"GBR","State":"England","County":"West Yorkshire","City":"Leeds","District":"Middleton","Street":"Middleton Park Avenue","PostalCode":"LS10 4","AdditionalData":[{"value":"United Kingdom","key":"CountryName"},{"value":"England","key":"StateName"},{"value":"West Yorkshire","key":"CountyName"}]},"MapReference":{"ReferenceId":"1050449537","Spot":0.0,"SideOfStreet":"right","StateId":"20248595","CountyId":"20345050","CityId":"20345325","DistrictId":"20345364"}}},{"Relevance":1.0,"Distance":66.7,"MatchLevel":"postalCode","MatchQuality":{"PostalCode":1.0},"Location":{"LocationId":"NT_2WekP0rD2vtOFNmrzAA4.A_l_27423151_L","LocationType":"point","DisplayPosition":{"Latitude":53.74287,"Longitude":-1.54665},"MapView":{"TopLeft":{"Latitude":53.7518632,"Longitude":-1.5618564},"BottomRight":{"Latitude":53.7338768,"Longitude":-1.5314436}},"Address":{"Label":"LS10 4HX, Leeds, England, United Kingdom","Country":"GBR","State":"England","County":"West Yorkshire","City":"Leeds","PostalCode":"LS10 4HX","AdditionalData":[{"value":"United Kingdom","key":"CountryName"},{"value":"England","key":"StateName"},{"value":"West Yorkshire","key":"CountyName"}]},"MapReference":{"ReferenceId":"27423151","Spot":0.18,"SideOfStreet":"neither","StateId":"20248595","CountyId":"20345050","CityId":"20345325"}}},{"Relevance":1.0,"Distance":68.6,"MatchLevel":"street","MatchQuality":{"Country":1.0,"State":1.0,"County":1.0,"City":1.0,"District":1.0,"Street":[1.0],"PostalCode":1.0},"Location":{"LocationId":"NT_nUw0OnjAOLqFbW3bHcC9.D_l_565924483_L","LocationType":"point","DisplayPosition":{"Latitude":53.74348,"Longitude":-1.54658},"MapView":{"TopLeft":{"Latitude":53.74384,"Longitude":-1.54661},"BottomRight":{"Latitude":53.74348,"Longitude":-1.54658}},"Address":{"Label":"Acre Court, Leeds, LS10 4, United Kingdom","Country":"GBR","State":"England","County":"West Yorkshire","City":"Leeds","District":"Middleton","Street":"Acre Court","PostalCode":"LS10 4","AdditionalData":[{"value":"United Kingdom","key":"CountryName"},{"value":"England","key":"StateName"},{"value":"West Yorkshire","key":"CountyName"}]},"MapReference":{"ReferenceId":"565924483","Spot":0.0,"SideOfStreet":"left","StateId":"20248595","CountyId":"20345050","CityId":"20345325","DistrictId":"20345364"}}},{"Relevance":1.0,"Distance":69.7,"MatchLevel":"postalCode","MatchQuality":{"PostalCode":1.0},"Location":{"LocationId":"NT_Q4bcEIbvzdjO4NiKa52fJC_l_1049354806_R","LocationType":"point","DisplayPosition":{"Latitude":53.74258,"Longitude":-1.54772},"MapView":{"TopLeft":{"Latitude":53.7515732,"Longitude":-1.5629263},"BottomRight":{"Latitude":53.7335868,"Longitude":-1.5325137}},"Address":{"Label":"LS10 4HU, Leeds, England, United Kingdom","Country":"GBR","State":"England","County":"West Yorkshire","City":"Leeds","PostalCode":"LS10 4HU","AdditionalData":[{"value":"United Kingdom","key":"CountryName"},{"value":"England","key":"StateName"},{"value":"West Yorkshire","key":"CountyName"}]},"MapReference":{"ReferenceId":"1049354806","Spot":1.0,"SideOfStreet":"neither","StateId":"20248595","CountyId":"20345050","CityId":"20345325"}}}]}]}}