{"Response":{"MetaInfo":{"Timestamp":"2020-03-28T11:29:47.428+0000","NextPageInformation":"2"},"View":[{"_type":"SearchResultsViewType","ViewId":0,"Result":[{"Relevance":1.0,"Distance":-3069.6,"MatchLevel":"landmark","MatchQuality":{"Country":1.0,"Name":1.0},"Location":{"LocationId":"NT_jwPj2PKdMX1KIs1zHMTifD","LocationType":"woodland","Name":"Bory Tucholskie","DisplayPosition":{"Latitude":53.74471,"Longitude":18.01814},"MapView":{"TopLeft":{"Latitude":54.14862,"Longitude":17.38068},"BottomRight":{"Latitude":53.34079,"Longitude":18.63619}},"Address":{"Label":"Polska","Country":"POL","AdditionalData":[{"value":"Polska","key":"CountryName"}]},"MapReference":{"CountryId":"20624059","PlaceId":"561250401"}}},{"Relevance":1.0,"Distance":0.0,"Direction":0.0,"MatchLevel":"district","MatchQuality":{"Country":1.0,"State":1.0,"County":1.0,"City":1.0,"District":1.0,"PostalCode":1.0},"Location":{"LocationId":"NT_a-vOsZV5mMIFMTzHt2Q9AC","LocationType":"point","DisplayPosition":{"Latitude":53.7266247,"Longitude":17.6275143},"MapView":{"TopLeft":{"Latitude":53.72974,"Longitude":17.61778},"BottomRight":{"Latitude":53.72136,"Longitude":17.63958}},"Address":{"Label":"Krojanty, Chojnice (Gmina), Woj. Pomorskie, Polska","Country":"POL","State":"Woj. Pomorskie","County":"Powiat Chojnicki","City":"Chojnice (Gmina)","District":"Krojanty","PostalCode":"89-641","AdditionalData":[{"value":"Polska","key":"CountryName"},{"value":"Woj. Pomorskie","key":"StateName"},{"value":"Powiat Chojnicki","key":"CountyName"}]},"MapReference":{"ReferenceId":"957774322","SideOfStreet":"neither","CountryId":"20624059","StateId":"20628728","CountyId":"20628758","CityId":"20628761","DistrictId":"20692407"}}},{"Relevance":1.0,"Distance":15.5,"MatchLevel":"houseNumber","MatchQuality":{"Country":1.0,"State":1.0,"County":1.0,"City":1.0,"District":1.0,"Street":[1.0],"HouseNumber":1.0,"PostalCode":1.0},"MatchType":"interpolated","Location":{"LocationId":"NT_FEm4cLy.Ov68zV663cCXzB_0ID","LocationType":"point","DisplayPosition":{"Latitude":53.72671,"Longitude":17.6277},"MapView":{"TopLeft":{"Latitude":53.7278342,"Longitude":17.6257999},"BottomRight":{"Latitude":53.7255858,"Longitude":17.6296001}},"Address":{"Label":"ulica 18 Pułku Ułanów Pomorskich 42, 89-641 Krojanty, Polska","Country":"POL","State":"Woj. Pomorskie","County":"Powiat Chojnicki","City":"Chojnice (Gmina)","District":"Krojanty","Street":"ulica 18 Pułku Ułanów Pomorskich","HouseNumber":"42","PostalCode":"89-641","AdditionalData":[{"value":"Polska","key":"CountryName"},{"value":"Woj. Pomorskie","key":"StateName"},{"value":"Powiat Chojnicki","key":"CountyName"}]},"MapReference":{"ReferenceId":"1264162401","Spot":0.26,"SideOfStreet":"left","CountryId":"20624059","StateId":"20628728","CountyId":"20628758","CityId":"20628761","DistrictId":"20692407","AddressId":"689033448","RoadLinkId":"590196416"}}},{"Relevance":1.0,"Distance":79.1,"MatchLevel":"houseNumber","MatchQuality":{"Country":1.0,"State":1.0,"County":1.0,"City":1.0,"District":1.0,"Street":[1.0],"HouseNumber":1.0,"PostalCode":1.0},"MatchType":"interpolated","Location":{"LocationId":"NT_FEm4cLy.Ov68zV663cCXzB_0QD","LocationType":"point","DisplayPosition":{"Latitude":53.72677,"Longitude":17.62647},"MapView":{"TopLeft":{"Latitude":53.7278942,"Longitude":17.6245699},"BottomRight":{"Latitude":53.7256458,"Longitude":17.6283701}},"Address":{"Label":"ulica 18 Pułku Ułanów Pomorskich 44, 89-641 Krojanty, Polska","Country":"POL","State":"Woj. Pomorskie","County":"Powiat Chojnicki","City":"Chojnice (Gmina)","District":"Krojanty","Street":"ulica 18 Pułku Ułanów Pomorskich","HouseNumber":"44","PostalCode":"89-641","AdditionalData":[{"value":"Polska","key":"CountryName"},{"value":"Woj. Pomorskie","key":"StateName"},{"value":"Powiat Chojnicki","key":"CountyName"}]},"MapReference":{"ReferenceId":"1264162402","Spot":0.31,"SideOfStreet":"right","CountryId":"20624059","StateId":"20628728","CountyId":"20628758","CityId":"20628761","DistrictId":"20692407","AddressId":"689311734","RoadLinkId":"590196417"}}},{"Relevance":1.0,"Distance":81.2,"MatchLevel":"street","MatchQuality":{"Country":1.0,"State":1.0,"County":1.0,"City":1.0,"District":1.0,"Street":[1.0],"PostalCode":1.0},"Location":{"LocationId":"NT_FEm4cLy.Ov68zV663cCXzB_l_875054859_L","LocationType":"point","DisplayPosition":{"Latitude":53.72678,"Longitude":17.62872},"MapView":{"TopLeft":{"Latitude":53.72678,"Longitude":17.62872},"BottomRight":{"Latitude":53.72674,"Longitude":17.62904}},"Address":{"Label":"ulica 18 Pułku Ułanów Pomorskich, 89-641 Krojanty, Polska","Country":"POL","State":"Woj. Pomorskie","County":"Powiat Chojnicki","City":"Chojnice (Gmina)","District":"Krojanty","Street":"ulica 18 Pułku Ułanów Pomorskich","PostalCode":"89-641","AdditionalData":[{"value":"Polska","key":"CountryName"},{"value":"Woj. Pomorskie","key":"StateName"},{"value":"Powiat Chojnicki","key":"CountyName"}]},"MapReference":{"ReferenceId":"875054859","Spot":1.0,"SideOfStreet":"left","CountryId":"20624059","StateId":"20628728","CountyId":"20628758","CityId":"20628761","DistrictId":"20692407"}}},{"Relevance":1.0,"Distance":94.2,"MatchLevel":"houseNumber","MatchQuality":{"Country":1.0,"State":1.0,"County":1.0,"City":1.0,"District":1.0,"Street":[1.0],"HouseNumber":1.0,"PostalCode":1.0},"MatchType":"interpolated","Location":{"LocationId":"NT_EB9hb1u1Ixbz740lkQClJC_xA","LocationType":"point","DisplayPosition":{"Latitude":53.72749,"Longitude":17.62822},"MapView":{"TopLeft":{"Latitude":53.7286142,"Longitude":17.6263199},"BottomRight":{"Latitude":53.7263658,"Longitude":17.6301201}},"Address":{"Label":"ulica Szkolna 1, 89-641 Krojanty, Polska","Country":"POL","State":"Woj. Pomorskie","County":"Powiat Chojnicki","City":"Chojnice (Gmina)","District":"Krojanty","Street":"ulica Szkolna","HouseNumber":"1","PostalCode":"89-641","AdditionalData":[{"value":"Polska","key":"CountryName"},{"value":"Woj. Pomorskie","key":"StateName"},{"value":"Powiat Chojnicki","key":"CountyName"}]},"MapReference":{"ReferenceId":"1161111845","Spot":0.99,"SideOfStreet":"left","CountryId":"20624059","StateId":"20628728","CountyId":"20628758","CityId":"20628761","DistrictId":"20692407","AddressId":"689719940","RoadLinkId":"467377444"}}},{"Relevance":1.0,"Distance":101.2,"MatchLevel":"street","MatchQuality":{"Country":1.0,"State":1.0,"County":1.0,"City":1.0,"District":1.0,"Street":[1.0],"PostalCode":1.0},"Location":{"LocationId":"NT_pwU5.JUtpMxy6CvpQTM4jC_l_875054865_L","LocationType":"point","DisplayPosition":{"Latitude":53.72674,"Longitude":17.62904},"MapView":{"TopLeft":{"Latitude":53.72674,"Longitude":17.62904},"BottomRight":{"Latitude":53.72669,"Longitude":17.62923}},"Address":{"Label":"ulica Dworcowa, 89-641 Krojanty, Polska","Country":"POL","State":"Woj. Pomorskie","County":"Powiat Chojnicki","City":"Chojnice (Gmina)","District":"Krojanty","Street":"ulica Dworcowa","PostalCode":"89-641","AdditionalData":[{"value":"Polska","key":"CountryName"},{"value":"Woj. Pomorskie","key":"StateName"},{"value":"Powiat Chojnicki","key":"CountyName"}]},"MapReference":{"ReferenceId":"875054865","Spot":1.0,"SideOfStreet":"left","CountryId":"20624059","StateId":"20628728","CountyId":"20628758","CityId":"20628761","DistrictId":"20692407"}}},{"Relevance":1.0,"Distance":112.4,"MatchLevel":"houseNumber","MatchQuality":{"Country":1.0,"State":1.0,"County":1.0,"City":1.0,"District":1.0,"Street":[1.0],"HouseNumber":1.0,"PostalCode":1.0},"MatchType":"interpolated","Location":{"LocationId":"NT_EB9hb1u1Ixbz740lkQClJC_0A","LocationType":"point","DisplayPosition":{"Latitude":53.72762,"Longitude":17.62781},"MapView":{"TopLeft":{"Latitude":53.7287442,"Longitude":17.6259099},"BottomRight":{"Latitude":53.7264958,"Longitude":17.6297101}},"Address":{"Label":"ulica Szkolna 4, 89-641 Krojanty, Polska","Country":"POL","State":"Woj. Pomorskie","County":"Powiat Chojnicki","City":"Chojnice (Gmina)","District":"Krojanty","Street":"ulica Szkolna","HouseNumber":"4","PostalCode":"89-641","AdditionalData":[{"value":"Polska","key":"CountryName"},{"value":"Woj. Pomorskie","key":"StateName"},{"value":"Powiat Chojnicki","key":"CountyName"}]},"MapReference":{"ReferenceId":"1161111846","Spot":1.0,"SideOfStreet":"right","CountryId":"20624059","StateId":"20628728","CountyId":"20628758","CityId":"20628761","DistrictId":"20692407","AddressId":"210265641","RoadLinkId":"467377445"}}},{"Relevance":1.0,"Distance":113.1,"MatchLevel":"street","MatchQuality":{"Country":1.0,"State":1.0,"County":1.0,"City":1.0,"District":1.0,"PostalCode":1.0},"Location":{"LocationId":"NT_klO0WgCEdKiRTxX37OOvYD_l_1226654589_L","LocationType":"point","DisplayPosition":{"Latitude":53.72669,"Longitude":17.62923},"MapView":{"TopLeft":{"Latitude":53.72669,"Longitude":17.62923},"BottomRight":{"Latitude":53.7266,"Longitude":17.62943}},"Address":{"Label":"89-641 Krojanty, Polska","Country":"POL","State":"Woj. Pomorskie","County":"Powiat Chojnicki","City":"Chojnice (Gmina)","District":"Krojanty","PostalCode":"89-641","AdditionalData":[{"value":"Polska","key":"CountryName"},{"value":"Woj. Pomorskie","key":"StateName"},{"value":"Powiat Chojnicki","key":"CountyName"}]},"MapReference":{"ReferenceId":"1226654589","Spot":1.0,"SideOfStreet":"left","CountryId":"20624059","StateId":"20628728","CountyId":"20628758","CityId":"20628761","DistrictId":"20692407"}}},{"Relevance":1.0,"Distance":113.1,"MatchLevel":"street","MatchQuality":{"Country":1.0,"State":1.0,"County":1.0,"City":1.0,"District":1.0,"PostalCode":1.0},"Location":{"LocationId":"NT_klO0WgCEdKiRTxX37OOvYD_l_1226654590_L","LocationType":"point","DisplayPosition":{"Latitude":53.72669,"Longitude":17.62923},"MapView":{"TopLeft":{"Latitude":53.72676,"Longitude":17.62923},"BottomRight":{"Latitude":53.72669,"Longitude":17.62943}},"Address":{"Label":"89-641 Krojanty, Polska","Country":"POL","State":"Woj. Pomorskie","County":"Powiat Chojnicki","City":"Chojnice (Gmina)","District":"Krojanty","PostalCode":"89-641","AdditionalData":[{"value":"Polska","key":"CountryName"},{"value":"Woj. Pomorskie","key":"StateName"},{"value":"Powiat Chojnicki","key":"CountyName"}]},"MapReference":{"ReferenceId":"1226654590","Spot":0.0,"SideOfStreet":"left","CountryId":"20624059","StateId":"20628728","CountyId":"20628758","CityId":"20628761","DistrictId":"20692407"}}}]}]}}