{"Response":{"MetaInfo":{"Timestamp":"2020-03-28T10:25:06.892+0000","NextPageInformation":"2"},"View":[{"_type":"SearchResultsViewType","ViewId":0,"Result":[{"Relevance":1.0,"Distance":0.0,"Direction":0.0,"MatchLevel":"district","MatchQuality":{"Country":1.0,"State":1.0,"County":1.0,"City":1.0,"District":1.0,"PostalCode":1.0},"Location":{"LocationId":"NT_PhMjytnWyUhIJWQ5Kvq3dB","LocationType":"point","DisplayPosition":{"Latitude":53.7482513,"Longitude":9.6768232},"MapView":{"TopLeft":{"Latitude":53.77939,"Longitude":9.63208},"BottomRight":{"Latitude":53.72676,"Longitude":9.70701}},"Address":{"Label":"Elmshorn, Schleswig-Holstein, Deutschland","Country":"DEU","State":"Schleswig-Holstein","County":"Pinneberg","City":"Elmshorn","District":"Elmshorn","PostalCode":"25335","AdditionalData":[{"value":"Deutschland","key":"CountryName"},{"value":"Schleswig-Holstein","key":"StateName"},{"value":"Pinneberg","key":"CountyName"}]},"MapReference":{"ReferenceId":"1268032370","SideOfStreet":"neither","CountryId":"20147700","StateId":"20147701","CountyId":"20149202","CityId":"20149237","DistrictId":"20149239"}}},{"Relevance":1.0,"Distance":42.6,"MatchLevel":"houseNumber","MatchQuality":{"Country":1.0,"State":1.0,"County":1.0,"City":1.0,"District":1.0,"Street":[1.0],"HouseNumber":1.0,"PostalCode":1.0},"MatchType":"interpolated","Location":{"LocationId":"NT_.Tjf5gmpjomvt.YeQsaI5D_0A","LocationType":"point","DisplayPosition":{"Latitude":53.74765,"Longitude":9.67724},"MapView":{"TopLeft":{"Latitude":53.7487742,"Longitude":9.675339},"BottomRight":{"Latitude":53.7465258,"Longitude":9.679141}},"Address":{"Label":"Hermann-Ehlers-Weg 4, 25337 Elmshorn, Deutschland","Country":"DEU","State":"Schleswig-Holstein","County":"Pinneberg","City":"Elmshorn","District":"Elmshorn","Street":"Hermann-Ehlers-Weg","HouseNumber":"4","PostalCode":"25337","AdditionalData":[{"value":"Deutschland","key":"CountryName"},{"value":"Schleswig-Holstein","key":"StateName"},{"value":"Pinneberg","key":"CountyName"}]},"MapReference":{"ReferenceId":"51704737","Spot":0.47,"SideOfStreet":"left","CountryId":"20147700","StateId":"20147701","CountyId":"20149202","CityId":"20149237","DistrictId":"20149239","AddressId":"194298843","RoadLinkId":"37262334"}}},{"Relevance":1.0,"Distance":43.1,"MatchLevel":"street","MatchQuality":{"Country":1.0,"State":1.0,"County":1.0,"City":1.0,"District":1.0,"Street":[1.0],"PostalCode":1.0},"Location":{"LocationId":"NT_DE95ecWObTHbmp4FU.QeSD_l_1190655412_R","LocationType":"point","DisplayPosition":{"Latitude":53.7486204,"Longitude":9.676624},"MapView":{"TopLeft":{"Latitude":53.74871,"Longitude":9.67616},"BottomRight":{"Latitude":53.74837,"Longitude":9.67679}},"Address":{"Label":"Hamburger Straße, 25337 Elmshorn, Deutschland","Country":"DEU","State":"Schleswig-Holstein","County":"Pinneberg","City":"Elmshorn","District":"Elmshorn","Street":"Hamburger Straße","PostalCode":"25337","AdditionalData":[{"value":"Deutschland","key":"CountryName"},{"value":"Schleswig-Holstein","key":"StateName"},{"value":"Pinneberg","key":"CountyName"}]},"MapReference":{"ReferenceId":"1190655412","Spot":0.74,"SideOfStreet":"right","CountryId":"20147700","StateId":"20147701","CountyId":"20149202","CityId":"20149237","DistrictId":"20149239"}}},{"Relevance":1.0,"Distance":45.6,"MatchLevel":"street","MatchQuality":{"Country":1.0,"State":1.0,"County":1.0,"City":1.0,"District":1.0,"Street":[1.0],"PostalCode":1.0},"Location":{"LocationId":"NT_YJh-Cpxsxe6LvWSLrnx3SB_l_1067505737_R","LocationType":"point","DisplayPosition":{"Latitude":53.74837,"Longitude":9.67616},"MapView":{"TopLeft":{"Latitude":53.74837,"Longitude":9.67428},"BottomRight":{"Latitude":53.74758,"Longitude":9.67616}},"Address":{"Label":"Hamburger Straße, 25337 Elmshorn, Deutschland","Country":"DEU","State":"Schleswig-Holstein","County":"Pinneberg","City":"Elmshorn","District":"Elmshorn","Street":"Hamburger Straße","PostalCode":"25337","AdditionalData":[{"value":"Deutschland","key":"CountryName"},{"value":"Schleswig-Holstein","key":"StateName"},{"value":"Pinneberg","key":"CountyName"}]},"MapReference":{"ReferenceId":"1067505737","Spot":1.0,"SideOfStreet":"right","CountryId":"20147700","StateId":"20147701","CountyId":"20149202","CityId":"20149237","DistrictId":"20149239"}}},{"Relevance":1.0,"Distance":51.1,"MatchLevel":"street","MatchQuality":{"Country":1.0,"State":1.0,"County":1.0,"City":1.0,"District":1.0,"Street":[1.0],"PostalCode":1.0},"Location":{"LocationId":"NT_DE95ecWObTHbmp4FU.QeSD_l_1190655413_R","LocationType":"point","DisplayPosition":{"Latitude":53.74871,"Longitude":9.67679},"MapView":{"TopLeft":{"Latitude":53.74889,"Longitude":9.67679},"BottomRight":{"Latitude":53.74871,"Longitude":9.67709}},"Address":{"Label":"Hamburger Straße, 25337 Elmshorn, Deutschland","Country":"DEU","State":"Schleswig-Holstein","County":"Pinneberg","City":"Elmshorn","District":"Elmshorn","Street":"Hamburger Straße","PostalCode":"25337","AdditionalData":[{"value":"Deutschland","key":"CountryName"},{"value":"Schleswig-Holstein","key":"StateName"},{"value":"Pinneberg","key":"CountyName"}]},"MapReference":{"ReferenceId":"1190655413","Spot":0.0,"SideOfStreet":"right","CountryId":"20147700","StateId":"20147701","CountyId":"20149202","CityId":"20149237","DistrictId":"20149239"}}},{"Relevance":1.0,"Distance":62.9,"MatchLevel":"houseNumber","MatchQuality":{"Country":1.0,"State":1.0,"County":1.0,"City":1.0,"District":1.0,"Street":[1.0],"HouseNumber":1.0,"PostalCode":1.0},"MatchType":"interpolated","Location":{"LocationId":"NT_MqLnQB04nV1X0RrHV-469D_xA","LocationType":"point","DisplayPosition":{"Latitude":53.74849,"Longitude":9.67769},"MapView":{"TopLeft":{"Latitude":53.7496142,"Longitude":9.6757889},"BottomRight":{"Latitude":53.7473658,"Longitude":9.6795911}},"Address":{"Label":"Adenauerdamm 1, 25337 Elmshorn, Deutschland","Country":"DEU","State":"Schleswig-Holstein","County":"Pinneberg","City":"Elmshorn","District":"Elmshorn","Street":"Adenauerdamm","HouseNumber":"1","PostalCode":"25337","AdditionalData":[{"value":"Deutschland","key":"CountryName"},{"value":"Schleswig-Holstein","key":"StateName"},{"value":"Pinneberg","key":"CountyName"}]},"MapReference":{"ReferenceId":"1187984134","Spot":0.31,"SideOfStreet":"right","CountryId":"20147700","StateId":"20147701","CountyId":"20149202","CityId":"20149237","DistrictId":"20149239","AddressId":"194578587","RoadLinkId":"496769453"}}},{"Relevance":1.0,"Distance":68.3,"MatchLevel":"street","MatchQuality":{"Country":1.0,"State":1.0,"County":1.0,"City":1.0,"District":1.0,"Street":[1.0],"PostalCode":1.0},"Location":{"LocationId":"NT_MqLnQB04nV1X0RrHV-469D_l_1187984135_L","LocationType":"point","DisplayPosition":{"Latitude":53.7488255,"Longitude":9.6771907},"MapView":{"TopLeft":{"Latitude":53.74889,"Longitude":9.67709},"BottomRight":{"Latitude":53.74873,"Longitude":9.67734}},"Address":{"Label":"Adenauerdamm, 25337 Elmshorn, Deutschland","Country":"DEU","State":"Schleswig-Holstein","County":"Pinneberg","City":"Elmshorn","District":"Elmshorn","Street":"Adenauerdamm","PostalCode":"25337","AdditionalData":[{"value":"Deutschland","key":"CountryName"},{"value":"Schleswig-Holstein","key":"StateName"},{"value":"Pinneberg","key":"CountyName"}]},"MapReference":{"ReferenceId":"1187984135","Spot":0.6,"SideOfStreet":"left","CountryId":"20147700","StateId":"20147701","CountyId":"20149202","CityId":"20149237","DistrictId":"20149239"}}},{"Relevance":1.0,"Distance":69.3,"MatchLevel":"street","MatchQuality":{"Country":1.0,"State":1.0,"County":1.0,"City":1.0,"District":1.0,"Street":[1.0],"PostalCode":1.0},"Location":{"LocationId":"NT_MqLnQB04nV1X0RrHV-469D_l_51643225_L","LocationType":"point","DisplayPosition":{"Latitude":53.74839,"Longitude":9.67785},"MapView":{"TopLeft":{"Latitude":53.74839,"Longitude":9.67785},"BottomRight":{"Latitude":53.74819,"Longitude":9.67817}},"Address":{"Label":"Adenauerdamm, 25337 Elmshorn, Deutschland","Country":"DEU","State":"Schleswig-Holstein","County":"Pinneberg","City":"Elmshorn","District":"Elmshorn","Street":"Adenauerdamm","PostalCode":"25337","AdditionalData":[{"value":"Deutschland","key":"CountryName"},{"value":"Schleswig-Holstein","key":"StateName"},{"value":"Pinneberg","key":"CountyName"}]},"MapReference":{"ReferenceId":"51643225","Spot":1.0,"SideOfStreet":"left","CountryId":"20147700","StateId":"20147701","CountyId":"20149202","CityId":"20149237","DistrictId":"20149239"}}},{"Relevance":1.0,"Distance":73.2,"MatchLevel":"street","MatchQuality":{"Country":1.0,"State":1.0,"County":1.0,"City":1.0,"District":1.0,"Street":[1.0],"PostalCode":1.0},"Location":{"LocationId":"NT_YJh-Cpxsxe6LvWSLrnx3SB_l_1067596135_R","LocationType":"point","DisplayPosition":{"Latitude":53.74889,"Longitude":9.67709},"MapView":{"TopLeft":{"Latitude":53.74903,"Longitude":9.67709},"BottomRight":{"Latitude":53.74889,"Longitude":9.67735}},"Address":{"Label":"Hamburger Straße, 25337 Elmshorn, Deutschland","Country":"DEU","State":"Schleswig-Holstein","County":"Pinneberg","City":"Elmshorn","District":"Elmshorn","Street":"Hamburger Straße","PostalCode":"25337","AdditionalData":[{"value":"Deutschland","key":"CountryName"},{"value":"Schleswig-Holstein","key":"StateName"},{"value":"Pinneberg","key":"CountyName"}]},"MapReference":{"ReferenceId":"1067596135","Spot":0.0,"SideOfStreet":"right","CountryId":"20147700","StateId":"20147701","CountyId":"20149202","CityId":"20149237","DistrictId":"20149239"}}},{"Relevance":1.0,"Distance":89.3,"MatchLevel":"houseNumber","MatchQuality":{"Country":1.0,"State":1.0,"County":1.0,"City":1.0,"District":1.0,"Street":[1.0],"HouseNumber":1.0,"PostalCode":1.0},"MatchType":"interpolated","Location":{"LocationId":"NT_vRQyc90FaoywKkiwfmVo0D_5YD","LocationType":"point","DisplayPosition":{"Latitude":53.74914,"Longitude":9.6766},"MapView":{"TopLeft":{"Latitude":53.7502642,"Longitude":9.6746989},"BottomRight":{"Latitude":53.7480158,"Longitude":9.6785011}},"Address":{"Label":"Langelohe 96, 25337 Elmshorn, Deutschland","Country":"DEU","State":"Schleswig-Holstein","County":"Pinneberg","City":"Elmshorn","District":"Elmshorn","Street":"Langelohe","HouseNumber":"96","PostalCode":"25337","AdditionalData":[{"value":"Deutschland","key":"CountryName"},{"value":"Schleswig-Holstein","key":"StateName"},{"value":"Pinneberg","key":"CountyName"}]},"MapReference":{"ReferenceId":"51643208","Spot":0.63,"SideOfStreet":"left","CountryId":"20147700","StateId":"20147701","CountyId":"20149202","CityId":"20149237","DistrictId":"20149239","AddressId":"195175471","RoadLinkId":"36863782"}}}]}]}}