{"Response":{"MetaInfo":{"Timestamp":"2020-03-28T10:32:09.422+0000","NextPageInformation":"2"},"View":[{"_type":"SearchResultsViewType","ViewId":0,"Result":[{"Relevance":1.0,"Distance":0.0,"Direction":0.0,"MatchLevel":"district","MatchQuality":{"Country":1.0,"State":1.0,"County":1.0,"City":1.0,"District":1.0,"PostalCode":1.0},"Location":{"LocationId":"NT_qbpb3F-uGUYeCLjM.T1rPA","LocationType":"point","DisplayPosition":{"Latitude":53.797027,"Longitude":-1.6213202},"MapView":{"TopLeft":{"Latitude":53.86674,"Longitude":-1.69971},"BottomRight":{"Latitude":53.73097,"Longitude":-1.41768}},"Address":{"Label":"Leeds, England, United Kingdom","Country":"GBR","State":"England","County":"West Yorkshire","City":"Leeds","District":"Leeds","PostalCode":"LS1 5","AdditionalData":[{"value":"United Kingdom","key":"CountryName"},{"value":"England","key":"StateName"},{"value":"West Yorkshire","key":"CountyName"}]},"MapReference":{"ReferenceId":"1079042341","SideOfStreet":"neither","StateId":"20248595","CountyId":"20345050","CityId":"20345325","DistrictId":"20345326"}}},{"Relevance":1.0,"Distance":5.9,"MatchLevel":"houseNumber","MatchQuality":{"Country":1.0,"State":1.0,"County":1.0,"City":1.0,"District":1.0,"Street":[1.0],"HouseNumber":1.0,"PostalCode":1.0},"MatchType":"interpolated","Location":{"LocationId":"NT_v-dOlsPsEsYzS6Lp5DnEgC_l_759954364_L_xYjN","LocationType":"point","DisplayPosition":{"Latitude":53.7970177,"Longitude":-1.6210237},"MapView":{"TopLeft":{"Latitude":53.7981418,"Longitude":-1.622927},"BottomRight":{"Latitude":53.7958935,"Longitude":-1.6191205}},"Address":{"Label":"166 Henconner Lane, Leeds, LS13 4, United Kingdom","Country":"GBR","State":"England","County":"West Yorkshire","City":"Leeds","District":"Leeds","Street":"Henconner Lane","HouseNumber":"166","PostalCode":"LS13 4","AdditionalData":[{"value":"United Kingdom","key":"CountryName"},{"value":"England","key":"StateName"},{"value":"West Yorkshire","key":"CountyName"}]},"MapReference":{"ReferenceId":"759954364","Spot":0.54,"SideOfStreet":"left","StateId":"20248595","CountyId":"20345050","CityId":"20345325","DistrictId":"20345326"}}},{"Relevance":1.0,"Distance":17.3,"MatchLevel":"postalCode","MatchQuality":{"PostalCode":1.0},"MatchType":"interpolated","Location":{"LocationId":"NT_v-dOlsPsEsYzS6Lp5DnEgC_l_759954364_L_xYjN","LocationType":"point","DisplayPosition":{"Latitude":53.79705,"Longitude":-1.62106},"MapView":{"TopLeft":{"Latitude":53.8060432,"Longitude":-1.636286},"BottomRight":{"Latitude":53.7880568,"Longitude":-1.605834}},"Address":{"Label":"LS13 4JH, Leeds, England, United Kingdom","Country":"GBR","State":"England","County":"West Yorkshire","City":"Leeds","PostalCode":"LS13 4JH","AdditionalData":[{"value":"United Kingdom","key":"CountryName"},{"value":"England","key":"StateName"},{"value":"West Yorkshire","key":"CountyName"}]},"MapReference":{"ReferenceId":"759954364","Spot":0.54,"SideOfStreet":"neither","StateId":"20248595","CountyId":"20345050","CityId":"20345325"}}},{"Relevance":1.0,"Distance":42.5,"MatchLevel":"houseNumber","MatchQuality":{"Country":1.0,"State":1.0,"County":1.0,"City":1.0,"District":1.0,"Street":[1.0],"HouseNumber":1.0,"PostalCode":1.0},"MatchType":"interpolated","Location":{"LocationId":"NT_Q8x5FUppNGHQyQDpCT8ijC_l_943341286_R_zED","LocationType":"point","DisplayPosition":{"Latitude":53.7974534,"Longitude":-1.6216812},"MapView":{"TopLeft":{"Latitude":53.7985776,"Longitude":-1.6235845},"BottomRight":{"Latitude":53.7963293,"Longitude":-1.6197779}},"Address":{"Label":"31 Gamble Hill, Leeds, LS13 4HZ, United Kingdom","Country":"GBR","State":"England","County":"West Yorkshire","City":"Leeds","District":"Leeds","Street":"Gamble Hill","HouseNumber":"31","PostalCode":"LS13 4HZ","AdditionalData":[{"value":"United Kingdom","key":"CountryName"},{"value":"England","key":"StateName"},{"value":"West Yorkshire","key":"CountyName"}]},"MapReference":{"ReferenceId":"943341286","Spot":0.61,"SideOfStreet":"right","StateId":"20248595","CountyId":"20345050","CityId":"20345325","DistrictId":"20345326"}}},{"Relevance":1.0,"Distance":64.7,"MatchLevel":"houseNumber","MatchQuality":{"Country":1.0,"State":1.0,"County":1.0,"City":1.0,"District":1.0,"Street":[1.0],"HouseNumber":1.0,"PostalCode":1.0},"MatchType":"interpolated","Location":{"LocationId":"NT_OQgGYjf0S9ZyXkqt.t-fPC_l_1066155655_R_xYDO","LocationType":"point","DisplayPosition":{"Latitude":53.7964089,"Longitude":-1.6219132},"MapView":{"TopLeft":{"Latitude":53.797533,"Longitude":-1.6238164},"BottomRight":{"Latitude":53.7952847,"Longitude":-1.62001}},"Address":{"Label":"168 Pudsey Road, Leeds, LS13 4, United Kingdom","Country":"GBR","State":"England","County":"West Yorkshire","City":"Leeds","District":"Leeds","Street":"Pudsey Road","HouseNumber":"168","PostalCode":"LS13 4","AdditionalData":[{"value":"United Kingdom","key":"CountryName"},{"value":"England","key":"StateName"},{"value":"West Yorkshire","key":"CountyName"}]},"MapReference":{"ReferenceId":"1066155655","Spot":0.55,"SideOfStreet":"right","StateId":"20248595","CountyId":"20345050","CityId":"20345325","DistrictId":"20345326"}}},{"Relevance":1.0,"Distance":68.6,"MatchLevel":"postalCode","MatchQuality":{"PostalCode":1.0},"MatchType":"interpolated","Location":{"LocationId":"NT_Q8x5FUppNGHQyQDpCT8ijC_l_943341286_R_zED","LocationType":"point","DisplayPosition":{"Latitude":53.79734,"Longitude":-1.62222},"MapView":{"TopLeft":{"Latitude":53.8063332,"Longitude":-1.6374461},"BottomRight":{"Latitude":53.7883468,"Longitude":-1.6069939}},"Address":{"Label":"LS13 4HZ, Leeds, England, United Kingdom","Country":"GBR","State":"England","County":"West Yorkshire","City":"Leeds","PostalCode":"LS13 4HZ","AdditionalData":[{"value":"United Kingdom","key":"CountryName"},{"value":"England","key":"StateName"},{"value":"West Yorkshire","key":"CountyName"}]},"MapReference":{"ReferenceId":"943341286","Spot":0.61,"SideOfStreet":"neither","StateId":"20248595","CountyId":"20345050","CityId":"20345325"}}},{"Relevance":1.0,"Distance":74.6,"MatchLevel":"street","MatchQuality":{"Country":1.0,"State":1.0,"County":1.0,"City":1.0,"District":1.0,"Street":[1.0],"PostalCode":1.0},"Location":{"LocationId":"NT_v-dOlsPsEsYzS6Lp5DnEgC_l_27404177_L","LocationType":"point","DisplayPosition":{"Latitude":53.79638,"Longitude":-1.62102},"MapView":{"TopLeft":{"Latitude":53.79638,"Longitude":-1.62108},"BottomRight":{"Latitude":53.79604,"Longitude":-1.62102}},"Address":{"Label":"Henconner Lane, Leeds, LS13 4, United Kingdom","Country":"GBR","State":"England","County":"West Yorkshire","City":"Leeds","District":"Leeds","Street":"Henconner Lane","PostalCode":"LS13 4","AdditionalData":[{"value":"United Kingdom","key":"CountryName"},{"value":"England","key":"StateName"},{"value":"West Yorkshire","key":"CountyName"}]},"MapReference":{"ReferenceId":"27404177","Spot":1.0,"SideOfStreet":"left","StateId":"20248595","CountyId":"20345050","CityId":"20345325","DistrictId":"20345326"}}},{"Relevance":1.0,"Distance":74.6,"MatchLevel":"street","MatchQuality":{"Country":1.0,"State":1.0,"County":1.0,"City":1.0,"District":1.0,"Street":[1.0],"PostalCode":1.0},"Location":{"LocationId":"NT_8djNW5jltyTU76gGq0FDJC_l_1171064111_R","LocationType":"point","DisplayPosition":{"Latitude":53.79638,"Longitude":-1.62102},"MapView":{"TopLeft":{"Latitude":53.79638,"Longitude":-1.62102},"BottomRight":{"Latitude":53.79637,"Longitude":-1.62062}},"Address":{"Label":"Greenthorpe Street, Leeds, LS13 4, United Kingdom","Country":"GBR","State":"England","County":"West Yorkshire","City":"Leeds","District":"Leeds","Street":"Greenthorpe Street","PostalCode":"LS13 4","AdditionalData":[{"value":"United Kingdom","key":"CountryName"},{"value":"England","key":"StateName"},{"value":"West Yorkshire","key":"CountyName"}]},"MapReference":{"ReferenceId":"1171064111","Spot":1.0,"SideOfStreet":"right","StateId":"20248595","CountyId":"20345050","CityId":"20345325","DistrictId":"20345326"}}},{"Relevance":1.0,"Distance":76.4,"MatchLevel":"houseNumber","MatchQuality":{"Country":1.0,"State":1.0,"County":1.0,"City":1.0,"District":1.0,"Street":[1.0],"HouseNumber":1.0,"PostalCode":1.0},"MatchType":"interpolated","Location":{"LocationId":"NT_v-dOlsPsEsYzS6Lp5DnEgC_l_759954365_L_xUDO","LocationType":"point","DisplayPosition":{"Latitude":53.79769,"Longitude":-1.62088},"MapView":{"TopLeft":{"Latitude":53.7988142,"Longitude":-1.6227833},"BottomRight":{"Latitude":53.7965659,"Longitude":-1.6189767}},"Address":{"Label":"158 Henconner Lane, Leeds, LS13 4JH, United Kingdom","Country":"GBR","State":"England","County":"West Yorkshire","City":"Leeds","District":"Leeds","Street":"Henconner Lane","HouseNumber":"158","PostalCode":"LS13 4JH","AdditionalData":[{"value":"United Kingdom","key":"CountryName"},{"value":"England","key":"StateName"},{"value":"West Yorkshire","key":"CountyName"}]},"MapReference":{"ReferenceId":"759954365","Spot":0.36,"SideOfStreet":"left","StateId":"20248595","CountyId":"20345050","CityId":"20345325","DistrictId":"20345326"}}},{"Relevance":1.0,"Distance":82.7,"MatchLevel":"street","MatchQuality":{"Country":1.0,"State":1.0,"County":1.0,"City":1.0,"District":1.0,"Street":[1.0],"PostalCode":1.0},"Location":{"LocationId":"NT_Q8x5FUppNGHQyQDpCT8ijC_l_943341287_R","LocationType":"point","DisplayPosition":{"Latitude":53.79741,"Longitude":-1.6224},"MapView":{"TopLeft":{"Latitude":53.79754,"Longitude":-1.62265},"BottomRight":{"Latitude":53.79741,"Longitude":-1.6224}},"Address":{"Label":"Gamble Hill, Leeds, LS13 4, United Kingdom","Country":"GBR","State":"England","County":"West Yorkshire","City":"Leeds","District":"Leeds","Street":"Gamble Hill","PostalCode":"LS13 4","AdditionalData":[{"value":"United Kingdom","key":"CountryName"},{"value":"England","key":"StateName"},{"value":"West Yorkshire","key":"CountyName"}]},"MapReference":{"ReferenceId":"943341287","Spot":0.0,"SideOfStreet":"right","StateId":"20248595","CountyId":"20345050","CityId":"20345325","DistrictId":"20345326"}}}]}]}}