{"Response":{"MetaInfo":{"Timestamp":"2020-03-28T10:09:16.359+0000","NextPageInformation":"2"},"View":[{"_type":"SearchResultsViewType","ViewId":0,"Result":[{"Relevance":1.0,"Distance":0.0,"Direction":0.0,"MatchLevel":"district","MatchQuality":{"Country":1.0,"State":1.0,"County":1.0,"City":1.0,"District":1.0,"PostalCode":1.0},"Location":{"LocationId":"NT_qbpb3F-uGUYeCLjM.T1rPA","LocationType":"point","DisplayPosition":{"Latitude":53.7772823,"Longitude":-1.5451552},"MapView":{"TopLeft":{"Latitude":53.86674,"Longitude":-1.69971},"BottomRight":{"Latitude":53.73097,"Longitude":-1.41768}},"Address":{"Label":"Leeds, England, United Kingdom","Country":"GBR","State":"England","County":"West Yorkshire","City":"Leeds","District":"Leeds","PostalCode":"LS1 5","AdditionalData":[{"value":"United Kingdom","key":"CountryName"},{"value":"England","key":"StateName"},{"value":"West Yorkshire","key":"CountyName"}]},"MapReference":{"ReferenceId":"1079042341","SideOfStreet":"neither","StateId":"20248595","CountyId":"20345050","CityId":"20345325","DistrictId":"20345326"}}},{"Relevance":1.0,"Distance":2.8,"MatchLevel":"houseNumber","MatchQuality":{"Country":1.0,"State":1.0,"County":1.0,"City":1.0,"District":1.0,"Street":[1.0],"HouseNumber":1.0,"PostalCode":1.0},"MatchType":"interpolated","Location":{"LocationId":"NT_OMK532BZCA6CRbDSGUoZdB_l_27412500_L_zA","LocationType":"point","DisplayPosition":{"Latitude":53.7773923,"Longitude":-1.5451417},"MapView":{"TopLeft":{"Latitude":53.7785165,"Longitude":-1.5470441},"BottomRight":{"Latitude":53.7762682,"Longitude":-1.5432394}},"Address":{"Label":"3 Linden Grove, Leeds, LS11 6EY, United Kingdom","Country":"GBR","State":"England","County":"West Yorkshire","City":"Leeds","District":"Leeds","Street":"Linden Grove","HouseNumber":"3","PostalCode":"LS11 6EY","AdditionalData":[{"value":"United Kingdom","key":"CountryName"},{"value":"England","key":"StateName"},{"value":"West Yorkshire","key":"CountyName"}]},"MapReference":{"ReferenceId":"27412500","Spot":0.23,"SideOfStreet":"left","StateId":"20248595","CountyId":"20345050","CityId":"20345325","DistrictId":"20345326"}}},{"Relevance":1.0,"Distance":16.6,"MatchLevel":"street","MatchQuality":{"Country":1.0,"State":1.0,"County":1.0,"City":1.0,"District":1.0,"Street":[1.0],"PostalCode":1.0},"Location":{"LocationId":"NT_0n5-RdU.Ji0Jc.HGMuHpDD_l_27412558_R","LocationType":"point","DisplayPosition":{"Latitude":53.777133,"Longitude":-1.5451623},"MapView":{"TopLeft":{"Latitude":53.77718,"Longitude":-1.54615},"BottomRight":{"Latitude":53.77712,"Longitude":-1.54489}},"Address":{"Label":"Back Linden Grove, Leeds, LS11 6, United Kingdom","Country":"GBR","State":"England","County":"West Yorkshire","City":"Leeds","District":"Leeds","Street":"Back Linden Grove","PostalCode":"LS11 6","AdditionalData":[{"value":"United Kingdom","key":"CountryName"},{"value":"England","key":"StateName"},{"value":"West Yorkshire","key":"CountyName"}]},"MapReference":{"ReferenceId":"27412558","Spot":0.22,"SideOfStreet":"right","StateId":"20248595","CountyId":"20345050","CityId":"20345325","DistrictId":"20345326"}}},{"Relevance":1.0,"Distance":18.8,"MatchLevel":"street","MatchQuality":{"Country":1.0,"State":1.0,"County":1.0,"City":1.0,"District":1.0,"Street":[1.0],"PostalCode":1.0},"Location":{"LocationId":"NT_MP5uN.CZxszDqYNcCOKWWD_l_30084185_L","LocationType":"point","DisplayPosition":{"Latitude":53.77725,"Longitude":-1.544875},"MapView":{"TopLeft":{"Latitude":53.77738,"Longitude":-1.54489},"BottomRight":{"Latitude":53.77712,"Longitude":-1.54486}},"Address":{"Label":"Dewsbury Road, Leeds, LS11 6, United Kingdom","Country":"GBR","State":"England","County":"West Yorkshire","City":"Leeds","District":"Leeds","Street":"Dewsbury Road","PostalCode":"LS11 6","AdditionalData":[{"value":"United Kingdom","key":"CountryName"},{"value":"England","key":"StateName"},{"value":"West Yorkshire","key":"CountyName"}]},"MapReference":{"ReferenceId":"30084185","Spot":0.5,"SideOfStreet":"left","StateId":"20248595","CountyId":"20345050","CityId":"20345325","DistrictId":"20345326"}}},{"Relevance":1.0,"Distance":19.7,"MatchLevel":"houseNumber","MatchQuality":{"Country":1.0,"State":1.0,"County":1.0,"City":1.0,"District":1.0,"Street":[1.0],"HouseNumber":1.0,"PostalCode":1.0},"MatchType":"interpolated","Location":{"LocationId":"NT_.o5T2TeMAbRLlMweT2Q53A_l_27412636_R_0A","LocationType":"point","DisplayPosition":{"Latitude":53.77697,"Longitude":-1.5451561},"MapView":{"TopLeft":{"Latitude":53.7780942,"Longitude":-1.5470584},"BottomRight":{"Latitude":53.7758458,"Longitude":-1.5432537}},"Address":{"Label":"4 Linden Road, Leeds, LS11 6HA, United Kingdom","Country":"GBR","State":"England","County":"West Yorkshire","City":"Leeds","District":"Leeds","Street":"Linden Road","HouseNumber":"4","PostalCode":"LS11 6HA","AdditionalData":[{"value":"United Kingdom","key":"CountryName"},{"value":"England","key":"StateName"},{"value":"West Yorkshire","key":"CountyName"}]},"MapReference":{"ReferenceId":"27412636","Spot":0.41,"SideOfStreet":"right","StateId":"20248595","CountyId":"20345050","CityId":"20345325","DistrictId":"20345326"}}},{"Relevance":1.0,"Distance":21.8,"MatchLevel":"houseNumber","MatchQuality":{"Country":1.0,"State":1.0,"County":1.0,"City":1.0,"District":1.0,"Street":[1.0],"HouseNumber":1.0,"PostalCode":1.0},"MatchType":"interpolated","Location":{"LocationId":"NT_9xYMzzxozL.SobODeITyPD_l_27412499_L_yEDO","LocationType":"point","DisplayPosition":{"Latitude":53.7774581,"Longitude":-1.5448548},"MapView":{"TopLeft":{"Latitude":53.7785823,"Longitude":-1.5467572},"BottomRight":{"Latitude":53.776334,"Longitude":-1.5429524}},"Address":{"Label":"218 Dewsbury Road, Leeds, LS11 6ER, United Kingdom","Country":"GBR","State":"England","County":"West Yorkshire","City":"Leeds","District":"Leeds","Street":"Dewsbury Road","HouseNumber":"218","PostalCode":"LS11 6ER","AdditionalData":[{"value":"United Kingdom","key":"CountryName"},{"value":"England","key":"StateName"},{"value":"West Yorkshire","key":"CountyName"}]},"MapReference":{"ReferenceId":"27412499","Spot":0.52,"SideOfStreet":"left","StateId":"20248595","CountyId":"20345050","CityId":"20345325","DistrictId":"20345326"}}},{"Relevance":1.0,"Distance":25.5,"MatchLevel":"houseNumber","MatchQuality":{"Country":1.0,"State":1.0,"County":1.0,"City":1.0,"District":1.0,"Street":[1.0],"HouseNumber":1.0,"PostalCode":1.0},"MatchType":"interpolated","Location":{"LocationId":"NT_KdYEPkpFhX69h1806jniED_l_30084184_L_yIDM","LocationType":"point","DisplayPosition":{"Latitude":53.77704,"Longitude":-1.544895},"MapView":{"TopLeft":{"Latitude":53.7781642,"Longitude":-1.5467973},"BottomRight":{"Latitude":53.7759159,"Longitude":-1.5429927}},"Address":{"Label":"220 Dewsbury Road, Leeds, LS11 6ER, United Kingdom","Country":"GBR","State":"England","County":"West Yorkshire","City":"Leeds","District":"Leeds","Street":"Dewsbury Road","HouseNumber":"220","PostalCode":"LS11 6ER","AdditionalData":[{"value":"United Kingdom","key":"CountryName"},{"value":"England","key":"StateName"},{"value":"West Yorkshire","key":"CountyName"}]},"MapReference":{"ReferenceId":"30084184","Spot":0.5,"SideOfStreet":"left","StateId":"20248595","CountyId":"20345050","CityId":"20345325","DistrictId":"20345326"}}},{"Relevance":1.0,"Distance":29.6,"MatchLevel":"houseNumber","MatchQuality":{"Country":1.0,"State":1.0,"County":1.0,"City":1.0,"District":1.0,"Street":[1.0],"HouseNumber":1.0,"PostalCode":1.0},"MatchType":"interpolated","Location":{"LocationId":"NT_sspMqIh-D.PINHSjK542eA_l_565950421_L_xA","LocationType":"point","DisplayPosition":{"Latitude":53.77767,"Longitude":-1.54521},"MapView":{"TopLeft":{"Latitude":53.7787942,"Longitude":-1.5471124},"BottomRight":{"Latitude":53.7765459,"Longitude":-1.5433077}},"Address":{"Label":"1 Crossland Terrace, Leeds, LS11 6EU, United Kingdom","Country":"GBR","State":"England","County":"West Yorkshire","City":"Leeds","District":"Leeds","Street":"Crossland Terrace","HouseNumber":"1","PostalCode":"LS11 6EU","AdditionalData":[{"value":"United Kingdom","key":"CountryName"},{"value":"England","key":"StateName"},{"value":"West Yorkshire","key":"CountyName"}]},"MapReference":{"ReferenceId":"565950421","Spot":0.27,"SideOfStreet":"left","StateId":"20248595","CountyId":"20345050","CityId":"20345325","DistrictId":"20345326"}}},{"Relevance":1.0,"Distance":29.8,"MatchLevel":"houseNumber","MatchQuality":{"Country":1.0,"State":1.0,"County":1.0,"City":1.0,"District":1.0,"Street":[1.0],"HouseNumber":1.0,"PostalCode":1.0},"MatchType":"interpolated","Location":{"LocationId":"NT_.o5T2TeMAbRLlMweT2Q53A_l_27412624_R_xID","LocationType":"point","DisplayPosition":{"Latitude":53.77699,"Longitude":-1.5455301},"MapView":{"TopLeft":{"Latitude":53.7781142,"Longitude":-1.5474324},"BottomRight":{"Latitude":53.7758659,"Longitude":-1.5436277}},"Address":{"Label":"12 Linden Road, Leeds, LS11 6HA, United Kingdom","Country":"GBR","State":"England","County":"West Yorkshire","City":"Leeds","District":"Leeds","Street":"Linden Road","HouseNumber":"12","PostalCode":"LS11 6HA","AdditionalData":[{"value":"United Kingdom","key":"CountryName"},{"value":"England","key":"StateName"},{"value":"West Yorkshire","key":"CountyName"}]},"MapReference":{"ReferenceId":"27412624","Spot":0.0,"SideOfStreet":"right","StateId":"20248595","CountyId":"20345050","CityId":"20345325","DistrictId":"20345326"}}},{"Relevance":1.0,"Distance":31.2,"MatchLevel":"street","MatchQuality":{"Country":1.0,"State":1.0,"County":1.0,"City":1.0,"District":1.0,"Street":[1.0],"PostalCode":1.0},"Location":{"LocationId":"NT_pvqBVp4DYhKq6kVwbrC1LC_l_27412390_L","LocationType":"point","DisplayPosition":{"Latitude":53.777561,"Longitude":-1.5452044},"MapView":{"TopLeft":{"Latitude":53.7776,"Longitude":-1.54609},"BottomRight":{"Latitude":53.77756,"Longitude":-1.54504}},"Address":{"Label":"Back Crossland Terrace, Leeds, LS11 6, United Kingdom","Country":"GBR","State":"England","County":"West Yorkshire","City":"Leeds","District":"Leeds","Street":"Back Crossland Terrace","PostalCode":"LS11 6","AdditionalData":[{"value":"United Kingdom","key":"CountryName"},{"value":"England","key":"StateName"},{"value":"West Yorkshire","key":"CountyName"}]},"MapReference":{"ReferenceId":"27412390","Spot":0.16,"SideOfStreet":"left","StateId":"20248595","CountyId":"20345050","CityId":"20345325","DistrictId":"20345326"}}}]}]}}