{"Response":{"MetaInfo":{"Timestamp":"2020-03-28T11:19:29.653+0000","NextPageInformation":"2"},"View":[{"_type":"SearchResultsViewType","ViewId":0,"Result":[{"Relevance":1.0,"Distance":0.0,"Direction":0.0,"MatchLevel":"district","MatchQuality":{"Country":1.0,"State":1.0,"County":1.0,"City":1.0,"District":1.0,"PostalCode":1.0},"Location":{"LocationId":"NT_ed2-nhPnKbMPexnw4NQ4cA","LocationType":"point","DisplayPosition":{"Latitude":53.7854143,"Longitude":-1.7597959},"MapView":{"TopLeft":{"Latitude":53.84648,"Longitude":-1.83738},"BottomRight":{"Latitude":53.72256,"Longitude":-1.69455}},"Address":{"Label":"Bradford, England, United Kingdom","Country":"GBR","State":"England","County":"West Yorkshire","City":"Bradford","District":"Bradford","PostalCode":"BD1 2","AdditionalData":[{"value":"United Kingdom","key":"CountryName"},{"value":"England","key":"StateName"},{"value":"West Yorkshire","key":"CountyName"}]},"MapReference":{"ReferenceId":"30085644","SideOfStreet":"neither","StateId":"20248595","CountyId":"20345050","CityId":"20345069","DistrictId":"20345070"}}},{"Relevance":1.0,"Distance":9.9,"MatchLevel":"street","MatchQuality":{"Country":1.0,"State":1.0,"County":1.0,"City":1.0,"District":1.0,"Street":[1.0],"PostalCode":1.0},"Location":{"LocationId":"NT_BlK8GrbWRZssEABrs-zixA_l_1048242631_R","LocationType":"point","DisplayPosition":{"Latitude":53.7855008,"Longitude":-1.759832},"MapView":{"TopLeft":{"Latitude":53.78553,"Longitude":-1.75993},"BottomRight":{"Latitude":53.78546,"Longitude":-1.75978}},"Address":{"Label":"Little Horton Lane, Bradford, BD5 0, United Kingdom","Country":"GBR","State":"England","County":"West Yorkshire","City":"Bradford","District":"Bradford","Street":"Little Horton Lane","PostalCode":"BD5 0","AdditionalData":[{"value":"United Kingdom","key":"CountryName"},{"value":"England","key":"StateName"},{"value":"West Yorkshire","key":"CountyName"}]},"MapReference":{"ReferenceId":"1048242631","Spot":0.64,"SideOfStreet":"right","StateId":"20248595","CountyId":"20345050","CityId":"20345069","DistrictId":"20345070"}}},{"Relevance":1.0,"Distance":10.2,"MatchLevel":"street","MatchQuality":{"Country":1.0,"State":1.0,"County":1.0,"City":1.0,"District":1.0,"Street":[1.0],"PostalCode":1.0},"Location":{"LocationId":"NT_BlK8GrbWRZssEABrs-zixA_l_1048242635_R","LocationType":"point","DisplayPosition":{"Latitude":53.78546,"Longitude":-1.75993},"MapView":{"TopLeft":{"Latitude":53.78546,"Longitude":-1.76153},"BottomRight":{"Latitude":53.78487,"Longitude":-1.75993}},"Address":{"Label":"Little Horton Lane, Bradford, BD5 0, United Kingdom","Country":"GBR","State":"England","County":"West Yorkshire","City":"Bradford","District":"Bradford","Street":"Little Horton Lane","PostalCode":"BD5 0","AdditionalData":[{"value":"United Kingdom","key":"CountryName"},{"value":"England","key":"StateName"},{"value":"West Yorkshire","key":"CountyName"}]},"MapReference":{"ReferenceId":"1048242635","Spot":1.0,"SideOfStreet":"right","StateId":"20248595","CountyId":"20345050","CityId":"20345069","DistrictId":"20345070"}}},{"Relevance":1.0,"Distance":11.5,"MatchLevel":"street","MatchQuality":{"Country":1.0,"State":1.0,"County":1.0,"City":1.0,"District":1.0,"PostalCode":1.0},"Location":{"LocationId":"NT_AgvllPcrn-2nFaPCaqSDLA_l_1228484924_L","LocationType":"point","DisplayPosition":{"Latitude":53.7855132,"Longitude":-1.7597464},"MapView":{"TopLeft":{"Latitude":53.78553,"Longitude":-1.75978},"BottomRight":{"Latitude":53.7855,"Longitude":-1.75964}},"Address":{"Label":"Bradford, BD5 0, United Kingdom","Country":"GBR","State":"England","County":"West Yorkshire","City":"Bradford","District":"Bradford","PostalCode":"BD5 0","AdditionalData":[{"value":"United Kingdom","key":"CountryName"},{"value":"England","key":"StateName"},{"value":"West Yorkshire","key":"CountyName"}]},"MapReference":{"ReferenceId":"1228484924","Spot":0.74,"SideOfStreet":"left","StateId":"20248595","CountyId":"20345050","CityId":"20345069","DistrictId":"20345070"}}},{"Relevance":1.0,"Distance":12.9,"MatchLevel":"street","MatchQuality":{"Country":1.0,"State":1.0,"County":1.0,"City":1.0,"District":1.0,"PostalCode":1.0},"Location":{"LocationId":"NT_AgvllPcrn-2nFaPCaqSDLA_l_1228484923_L","LocationType":"point","DisplayPosition":{"Latitude":53.78553,"Longitude":-1.75978},"MapView":{"TopLeft":{"Latitude":53.78562,"Longitude":-1.75979},"BottomRight":{"Latitude":53.78553,"Longitude":-1.75964}},"Address":{"Label":"Bradford, BD5 0, United Kingdom","Country":"GBR","State":"England","County":"West Yorkshire","City":"Bradford","District":"Bradford","PostalCode":"BD5 0","AdditionalData":[{"value":"United Kingdom","key":"CountryName"},{"value":"England","key":"StateName"},{"value":"West Yorkshire","key":"CountyName"}]},"MapReference":{"ReferenceId":"1228484923","Spot":0.0,"SideOfStreet":"left","StateId":"20248595","CountyId":"20345050","CityId":"20345069","DistrictId":"20345070"}}},{"Relevance":1.0,"Distance":14.5,"MatchLevel":"houseNumber","MatchQuality":{"Country":1.0,"State":1.0,"County":1.0,"City":1.0,"District":1.0,"Street":[1.0],"HouseNumber":1.0,"PostalCode":1.0},"MatchType":"interpolated","Location":{"LocationId":"NT_wWatdqR62duQgHZBmXaTuA_l_27409982_R_xA","LocationType":"point","DisplayPosition":{"Latitude":53.7854335,"Longitude":-1.7595778},"MapView":{"TopLeft":{"Latitude":53.7865577,"Longitude":-1.7614806},"BottomRight":{"Latitude":53.7843093,"Longitude":-1.7576751}},"Address":{"Label":"1 Park Lane, Bradford, BD5 0JL, United Kingdom","Country":"GBR","State":"England","County":"West Yorkshire","City":"Bradford","District":"Bradford","Street":"Park Lane","HouseNumber":"1","PostalCode":"BD5 0JL","AdditionalData":[{"value":"United Kingdom","key":"CountryName"},{"value":"England","key":"StateName"},{"value":"West Yorkshire","key":"CountyName"}]},"MapReference":{"ReferenceId":"27409982","Spot":0.47,"SideOfStreet":"right","StateId":"20248595","CountyId":"20345050","CityId":"20345069","DistrictId":"20345070"}}},{"Relevance":1.0,"Distance":14.8,"MatchLevel":"street","MatchQuality":{"Country":1.0,"State":1.0,"County":1.0,"City":1.0,"District":1.0,"PostalCode":1.0},"Location":{"LocationId":"NT_AgvllPcrn-2nFaPCaqSDLA_l_1228484925_R","LocationType":"point","DisplayPosition":{"Latitude":53.78551,"Longitude":-1.75964},"MapView":{"TopLeft":{"Latitude":53.78561,"Longitude":-1.75964},"BottomRight":{"Latitude":53.78551,"Longitude":-1.75959}},"Address":{"Label":"Bradford, BD5 0, United Kingdom","Country":"GBR","State":"England","County":"West Yorkshire","City":"Bradford","District":"Bradford","PostalCode":"BD5 0","AdditionalData":[{"value":"United Kingdom","key":"CountryName"},{"value":"England","key":"StateName"},{"value":"West Yorkshire","key":"CountyName"}]},"MapReference":{"ReferenceId":"1228484925","Spot":0.0,"SideOfStreet":"right","StateId":"20248595","CountyId":"20345050","CityId":"20345069","DistrictId":"20345070"}}},{"Relevance":1.0,"Distance":17.7,"MatchLevel":"street","MatchQuality":{"Country":1.0,"State":1.0,"County":1.0,"City":1.0,"District":1.0,"Street":[1.0],"PostalCode":1.0},"Location":{"LocationId":"NT_LGRa4CpNJysuYuSpRfhNzB_l_743516531_R","LocationType":"point","DisplayPosition":{"Latitude":53.78535,"Longitude":-1.75955},"MapView":{"TopLeft":{"Latitude":53.78537,"Longitude":-1.75955},"BottomRight":{"Latitude":53.7852,"Longitude":-1.75885}},"Address":{"Label":"Mary Seacole Close, Bradford, BD5 0, United Kingdom","Country":"GBR","State":"England","County":"West Yorkshire","City":"Bradford","District":"Bradford","Street":"Mary Seacole Close","PostalCode":"BD5 0","AdditionalData":[{"value":"United Kingdom","key":"CountryName"},{"value":"England","key":"StateName"},{"value":"West Yorkshire","key":"CountyName"}]},"MapReference":{"ReferenceId":"743516531","Spot":1.0,"SideOfStreet":"right","StateId":"20248595","CountyId":"20345050","CityId":"20345069","DistrictId":"20345070"}}},{"Relevance":1.0,"Distance":24.1,"MatchLevel":"street","MatchQuality":{"Country":1.0,"State":1.0,"County":1.0,"City":1.0,"District":1.0,"Street":[1.0],"PostalCode":1.0},"Location":{"LocationId":"NT_BlK8GrbWRZssEABrs-zixA_l_27409917_R","LocationType":"point","DisplayPosition":{"Latitude":53.78561,"Longitude":-1.75964},"MapView":{"TopLeft":{"Latitude":53.78572,"Longitude":-1.75964},"BottomRight":{"Latitude":53.78561,"Longitude":-1.7595}},"Address":{"Label":"Little Horton Lane, Bradford, BD5 0, United Kingdom","Country":"GBR","State":"England","County":"West Yorkshire","City":"Bradford","District":"Bradford","Street":"Little Horton Lane","PostalCode":"BD5 0","AdditionalData":[{"value":"United Kingdom","key":"CountryName"},{"value":"England","key":"StateName"},{"value":"West Yorkshire","key":"CountyName"}]},"MapReference":{"ReferenceId":"27409917","Spot":0.0,"SideOfStreet":"right","StateId":"20248595","CountyId":"20345050","CityId":"20345069","DistrictId":"20345070"}}},{"Relevance":1.0,"Distance":36.7,"MatchLevel":"houseNumber","MatchQuality":{"Country":1.0,"State":1.0,"County":1.0,"City":1.0,"District":1.0,"Street":[1.0],"HouseNumber":1.0,"PostalCode":1.0},"MatchType":"interpolated","Location":{"LocationId":"NT_wWatdqR62duQgHZBmXaTuA_l_27410308_R_3A","LocationType":"point","DisplayPosition":{"Latitude":53.7851275,"Longitude":-1.75952},"MapView":{"TopLeft":{"Latitude":53.7862517,"Longitude":-1.7614227},"BottomRight":{"Latitude":53.7840034,"Longitude":-1.7576173}},"Address":{"Label":"7 Park Lane, Bradford, BD5 0JL, United Kingdom","Country":"GBR","State":"England","County":"West Yorkshire","City":"Bradford","District":"Bradford","Street":"Park Lane","HouseNumber":"7","PostalCode":"BD5 0JL","AdditionalData":[{"value":"United Kingdom","key":"CountryName"},{"value":"England","key":"StateName"},{"value":"West Yorkshire","key":"CountyName"}]},"MapReference":{"ReferenceId":"27410308","Spot":0.76,"SideOfStreet":"right","StateId":"20248595","CountyId":"20345050","CityId":"20345069","DistrictId":"20345070"}}}]}]}}