{"Response":{"MetaInfo":{"Timestamp":"2020-03-28T11:59:47.565+0000","NextPageInformation":"2"},"View":[{"_type":"SearchResultsViewType","ViewId":0,"Result":[{"Relevance":1.0,"Distance":0.0,"Direction":0.0,"MatchLevel":"district","MatchQuality":{"Country":1.0,"State":1.0,"County":1.0,"City":1.0,"District":1.0,"PostalCode":1.0},"Location":{"LocationId":"NT_-BgVs0xr.RGp8gYhtITOXC","LocationType":"point","DisplayPosition":{"Latitude":53.7073424,"Longitude":-1.5043891},"MapView":{"TopLeft":{"Latitude":53.71583,"Longitude":-1.51106},"BottomRight":{"Latitude":53.70394,"Longitude":-1.48518}},"Address":{"Label":"Outwood, Wakefield, England, United Kingdom","Country":"GBR","State":"England","County":"West Yorkshire","City":"Wakefield","District":"Outwood","PostalCode":"WF1 3","AdditionalData":[{"value":"United Kingdom","key":"CountryName"},{"value":"England","key":"StateName"},{"value":"West Yorkshire","key":"CountyName"}]},"MapReference":{"ReferenceId":"837789904","SideOfStreet":"neither","StateId":"20248595","CountyId":"20345050","CityId":"20345470","DistrictId":"20345507"}}},{"Relevance":1.0,"Distance":3.2,"MatchLevel":"houseNumber","MatchQuality":{"Country":1.0,"State":1.0,"County":1.0,"City":1.0,"District":1.0,"Street":[1.0],"HouseNumber":1.0,"PostalCode":1.0},"MatchType":"interpolated","Location":{"LocationId":"NT_LT4kxfZ1T12LaxqeqwbNAD_l_841792818_R_0cDM","LocationType":"point","DisplayPosition":{"Latitude":53.7074718,"Longitude":-1.5045423},"MapView":{"TopLeft":{"Latitude":53.7085959,"Longitude":-1.5064415},"BottomRight":{"Latitude":53.7063476,"Longitude":-1.5026431}},"Address":{"Label":"470 Leeds Road, Wakefield, WF1 2, United Kingdom","Country":"GBR","State":"England","County":"West Yorkshire","City":"Wakefield","District":"Outwood","Street":"Leeds Road","HouseNumber":"470","PostalCode":"WF1 2","AdditionalData":[{"value":"United Kingdom","key":"CountryName"},{"value":"England","key":"StateName"},{"value":"West Yorkshire","key":"CountyName"}]},"MapReference":{"ReferenceId":"841792818","Spot":0.46,"SideOfStreet":"right","StateId":"20248595","CountyId":"20345050","CityId":"20345470","DistrictId":"20345507"}}},{"Relevance":1.0,"Distance":28.2,"MatchLevel":"houseNumber","MatchQuality":{"Country":1.0,"State":1.0,"County":1.0,"City":1.0,"District":1.0,"Street":[1.0],"HouseNumber":1.0,"PostalCode":1.0},"MatchType":"interpolated","Location":{"LocationId":"NT_qJvFTGgCAWr5d-J8Z7E0SC_l_27058503_L_5A","LocationType":"point","DisplayPosition":{"Latitude":53.7069538,"Longitude":-1.5043686},"MapView":{"TopLeft":{"Latitude":53.7080779,"Longitude":-1.5062678},"BottomRight":{"Latitude":53.7058296,"Longitude":-1.5024694}},"Address":{"Label":"9 Newton Lane, Wakefield, WF1 3, United Kingdom","Country":"GBR","State":"England","County":"West Yorkshire","City":"Wakefield","District":"Outwood","Street":"Newton Lane","HouseNumber":"9","PostalCode":"WF1 3","AdditionalData":[{"value":"United Kingdom","key":"CountryName"},{"value":"England","key":"StateName"},{"value":"West Yorkshire","key":"CountyName"}]},"MapReference":{"ReferenceId":"27058503","Spot":0.17,"SideOfStreet":"left","StateId":"20248595","CountyId":"20345050","CityId":"20345470","DistrictId":"20345507"}}},{"Relevance":1.0,"Distance":32.6,"MatchLevel":"postalCode","MatchQuality":{"PostalCode":1.0},"MatchType":"interpolated","Location":{"LocationId":"NT_LT4kxfZ1T12LaxqeqwbNAD_l_841792818_R_0cDM","LocationType":"point","DisplayPosition":{"Latitude":53.70763,"Longitude":-1.50429},"MapView":{"TopLeft":{"Latitude":53.7166232,"Longitude":-1.5194837},"BottomRight":{"Latitude":53.6986368,"Longitude":-1.4890963}},"Address":{"Label":"WF1 2DU, Wakefield, England, United Kingdom","Country":"GBR","State":"England","County":"West Yorkshire","City":"Wakefield","PostalCode":"WF1 2DU","AdditionalData":[{"value":"United Kingdom","key":"CountryName"},{"value":"England","key":"StateName"},{"value":"West Yorkshire","key":"CountyName"}]},"MapReference":{"ReferenceId":"841792818","Spot":0.46,"SideOfStreet":"neither","StateId":"20248595","CountyId":"20345050","CityId":"20345470"}}},{"Relevance":1.0,"Distance":44.7,"MatchLevel":"houseNumber","MatchQuality":{"Country":1.0,"State":1.0,"County":1.0,"City":1.0,"District":1.0,"Street":[1.0],"HouseNumber":1.0,"PostalCode":1.0},"MatchType":"interpolated","Location":{"LocationId":"NT_LT4kxfZ1T12LaxqeqwbNAD_l_841792817_R_0UjN","LocationType":"point","DisplayPosition":{"Latitude":53.70709,"Longitude":-1.5049175},"MapView":{"TopLeft":{"Latitude":53.7082142,"Longitude":-1.5068167},"BottomRight":{"Latitude":53.7059659,"Longitude":-1.5030183}},"Address":{"Label":"456 Leeds Road, Wakefield, WF1 2DU, United Kingdom","Country":"GBR","State":"England","County":"West Yorkshire","City":"Wakefield","District":"Outwood","Street":"Leeds Road","HouseNumber":"456","PostalCode":"WF1 2DU","AdditionalData":[{"value":"United Kingdom","key":"CountryName"},{"value":"England","key":"StateName"},{"value":"West Yorkshire","key":"CountyName"}]},"MapReference":{"ReferenceId":"841792817","Spot":0.75,"SideOfStreet":"right","StateId":"20248595","CountyId":"20345050","CityId":"20345470","DistrictId":"20345507"}}},{"Relevance":1.0,"Distance":55.6,"MatchLevel":"houseNumber","MatchQuality":{"Country":1.0,"State":1.0,"County":1.0,"City":1.0,"District":1.0,"Street":[1.0],"HouseNumber":1.0,"PostalCode":1.0},"MatchType":"interpolated","Location":{"LocationId":"NT_QuICQp4iRa6FLmdJ88ANyC_l_27058211_L_xA","LocationType":"point","DisplayPosition":{"Latitude":53.707968,"Longitude":-1.5044107},"MapView":{"TopLeft":{"Latitude":53.7090922,"Longitude":-1.5063099},"BottomRight":{"Latitude":53.7068439,"Longitude":-1.5025115}},"Address":{"Label":"1 Annie Street, Wakefield, WF1 2PL, United Kingdom","Country":"GBR","State":"England","County":"West Yorkshire","City":"Wakefield","District":"Outwood","Street":"Annie Street","HouseNumber":"1","PostalCode":"WF1 2PL","AdditionalData":[{"value":"United Kingdom","key":"CountryName"},{"value":"England","key":"StateName"},{"value":"West Yorkshire","key":"CountyName"}]},"MapReference":{"ReferenceId":"27058211","Spot":0.5,"SideOfStreet":"left","StateId":"20248595","CountyId":"20345050","CityId":"20345470","DistrictId":"20345507"}}},{"Relevance":1.0,"Distance":57.2,"MatchLevel":"houseNumber","MatchQuality":{"Country":1.0,"State":1.0,"County":1.0,"City":1.0,"District":1.0,"Street":[1.0],"HouseNumber":1.0,"PostalCode":1.0},"MatchType":"interpolated","Location":{"LocationId":"NT_.eMxeN2G04fKvEdAdoUMeB_l_837789889_R_0gDN","LocationType":"point","DisplayPosition":{"Latitude":53.7079093,"Longitude":-1.5040753},"MapView":{"TopLeft":{"Latitude":53.7090335,"Longitude":-1.5059746},"BottomRight":{"Latitude":53.7067852,"Longitude":-1.5021761}},"Address":{"Label":"484 Leeds Road, Wakefield, WF1 2DU, United Kingdom","Country":"GBR","State":"England","County":"West Yorkshire","City":"Wakefield","District":"Outwood","Street":"Leeds Road","HouseNumber":"484","PostalCode":"WF1 2DU","AdditionalData":[{"value":"United Kingdom","key":"CountryName"},{"value":"England","key":"StateName"},{"value":"West Yorkshire","key":"CountyName"}]},"MapReference":{"ReferenceId":"837789889","Spot":0.53,"SideOfStreet":"right","StateId":"20248595","CountyId":"20345050","CityId":"20345470","DistrictId":"20345507"}}},{"Relevance":1.0,"Distance":67.7,"MatchLevel":"houseNumber","MatchQuality":{"Country":1.0,"State":1.0,"County":1.0,"City":1.0,"District":1.0,"Street":[1.0],"HouseNumber":1.0,"PostalCode":1.0},"MatchType":"interpolated","Location":{"LocationId":"NT_.eMxeN2G04fKvEdAdoUMeB_l_27058553_R_0QDO","LocationType":"point","DisplayPosition":{"Latitude":53.7069,"Longitude":-1.505095},"MapView":{"TopLeft":{"Latitude":53.7080242,"Longitude":-1.5069942},"BottomRight":{"Latitude":53.7057759,"Longitude":-1.5031958}},"Address":{"Label":"448 Leeds Road, Wakefield, WF1 2JB, United Kingdom","Country":"GBR","State":"England","County":"West Yorkshire","City":"Wakefield","District":"Outwood","Street":"Leeds Road","HouseNumber":"448","PostalCode":"WF1 2JB","AdditionalData":[{"value":"United Kingdom","key":"CountryName"},{"value":"England","key":"StateName"},{"value":"West Yorkshire","key":"CountyName"}]},"MapReference":{"ReferenceId":"27058553","Spot":0.75,"SideOfStreet":"right","StateId":"20248595","CountyId":"20345050","CityId":"20345470","DistrictId":"20345507"}}},{"Relevance":1.0,"Distance":73.2,"MatchLevel":"postalCode","MatchQuality":{"PostalCode":1.0},"MatchType":"interpolated","Location":{"LocationId":"NT_.eMxeN2G04fKvEdAdoUMeB_l_837789889_R_0gDN","LocationType":"point","DisplayPosition":{"Latitude":53.708,"Longitude":-1.50435},"MapView":{"TopLeft":{"Latitude":53.7169932,"Longitude":-1.5195438},"BottomRight":{"Latitude":53.6990068,"Longitude":-1.4891562}},"Address":{"Label":"WF1 2PN, Wakefield, England, United Kingdom","Country":"GBR","State":"England","County":"West Yorkshire","City":"Wakefield","PostalCode":"WF1 2PN","AdditionalData":[{"value":"United Kingdom","key":"CountryName"},{"value":"England","key":"StateName"},{"value":"West Yorkshire","key":"CountyName"}]},"MapReference":{"ReferenceId":"837789889","Spot":0.53,"SideOfStreet":"neither","StateId":"20248595","CountyId":"20345050","CityId":"20345470"}}},{"Relevance":1.0,"Distance":74.1,"MatchLevel":"street","MatchQuality":{"Country":1.0,"State":1.0,"County":1.0,"City":1.0,"District":1.0,"Street":[1.0],"PostalCode":1.0},"Location":{"LocationId":"NT_ENFRGsxlIplQwQVp9nS96C_l_837789891_L","LocationType":"point","DisplayPosition":{"Latitude":53.70797,"Longitude":-1.50401},"MapView":{"TopLeft":{"Latitude":53.70797,"Longitude":-1.50401},"BottomRight":{"Latitude":53.70784,"Longitude":-1.50333}},"Address":{"Label":"Brandon Court, Wakefield, WF1 2, United Kingdom","Country":"GBR","State":"England","County":"West Yorkshire","City":"Wakefield","District":"Outwood","Street":"Brandon Court","PostalCode":"WF1 2","AdditionalData":[{"value":"United Kingdom","key":"CountryName"},{"value":"England","key":"StateName"},{"value":"West Yorkshire","key":"CountyName"}]},"MapReference":{"ReferenceId":"837789891","Spot":1.0,"SideOfStreet":"left","StateId":"20248595","CountyId":"20345050","CityId":"20345470","DistrictId":"20345507"}}}]}]}}