{"Response":{"MetaInfo":{"Timestamp":"2020-03-28T10:03:31.424+0000","NextPageInformation":"2"},"View":[{"_type":"SearchResultsViewType","ViewId":0,"Result":[{"Relevance":1.0,"Distance":0.0,"Direction":0.0,"MatchLevel":"district","MatchQuality":{"Country":1.0,"State":1.0,"County":1.0,"City":1.0,"District":1.0,"PostalCode":1.0},"Location":{"LocationId":"NT_2nhPvtUK.K8n4ZiwUlz22C","LocationType":"point","DisplayPosition":{"Latitude":53.7867369,"Longitude":10.0067504},"MapView":{"TopLeft":{"Latitude":53.7954,"Longitude":9.99017},"BottomRight":{"Latitude":53.78308,"Longitude":10.0166}},"Address":{"Label":"Henstedt, Henstedt-Ulzburg, Schleswig-Holstein, Deutschland","Country":"DEU","State":"Schleswig-Holstein","County":"Segeberg","City":"Henstedt-Ulzburg","District":"Henstedt","PostalCode":"24558","AdditionalData":[{"value":"Deutschland","key":"CountryName"},{"value":"Schleswig-Holstein","key":"StateName"},{"value":"Segeberg","key":"CountyName"}]},"MapReference":{"ReferenceId":"83753281","SideOfStreet":"neither","CountryId":"20147700","StateId":"20147701","CountyId":"20150653","CityId":"20150763","DistrictId":"20150768"}}},{"Relevance":1.0,"Distance":15.5,"MatchLevel":"houseNumber","MatchQuality":{"Country":1.0,"State":1.0,"County":1.0,"City":1.0,"District":1.0,"Street":[1.0],"HouseNumber":1.0,"PostalCode":1.0},"MatchType":"interpolated","Location":{"LocationId":"NT_SEAHLOjNgLKLe-gZyy-vDA_yA","LocationType":"point","DisplayPosition":{"Latitude":53.78665,"Longitude":10.00723},"MapView":{"TopLeft":{"Latitude":53.7877742,"Longitude":10.0053272},"BottomRight":{"Latitude":53.7855258,"Longitude":10.0091328}},"Address":{"Label":"Wohldweg 2, 24558 Henstedt-Ulzburg, Deutschland","Country":"DEU","State":"Schleswig-Holstein","County":"Segeberg","City":"Henstedt-Ulzburg","District":"Henstedt","Street":"Wohldweg","HouseNumber":"2","PostalCode":"24558","AdditionalData":[{"value":"Deutschland","key":"CountryName"},{"value":"Schleswig-Holstein","key":"StateName"},{"value":"Segeberg","key":"CountyName"}]},"MapReference":{"ReferenceId":"83753488","Spot":0.79,"SideOfStreet":"left","CountryId":"20147700","StateId":"20147701","CountyId":"20150653","CityId":"20150763","DistrictId":"20150768","AddressId":"196291978","RoadLinkId":"36656636"}}},{"Relevance":1.0,"Distance":23.8,"MatchLevel":"houseNumber","MatchQuality":{"Country":1.0,"State":1.0,"County":1.0,"City":1.0,"District":1.0,"Street":[1.0],"HouseNumber":1.0,"PostalCode":1.0},"MatchType":"interpolated","Location":{"LocationId":"NT_gHIUD3wYwanxhCmSbtJarB_ygTR","LocationType":"point","DisplayPosition":{"Latitude":53.78681,"Longitude":10.00641},"MapView":{"TopLeft":{"Latitude":53.7879342,"Longitude":10.0045072},"BottomRight":{"Latitude":53.7856858,"Longitude":10.0083128}},"Address":{"Label":"Dorfstraße 28E, 24558 Henstedt-Ulzburg, Deutschland","Country":"DEU","State":"Schleswig-Holstein","County":"Segeberg","City":"Henstedt-Ulzburg","District":"Henstedt","Street":"Dorfstraße","HouseNumber":"28E","PostalCode":"24558","AdditionalData":[{"value":"Deutschland","key":"CountryName"},{"value":"Schleswig-Holstein","key":"StateName"},{"value":"Segeberg","key":"CountyName"}]},"MapReference":{"ReferenceId":"833433705","Spot":0.7,"SideOfStreet":"right","CountryId":"20147700","StateId":"20147701","CountyId":"20150653","CityId":"20150763","DistrictId":"20150768","AddressId":"196028344","RoadLinkId":"216743703"}}},{"Relevance":1.0,"Distance":35.3,"MatchLevel":"street","MatchQuality":{"Country":1.0,"State":1.0,"County":1.0,"City":1.0,"District":1.0,"Street":[1.0],"PostalCode":1.0},"Location":{"LocationId":"NT_gHIUD3wYwanxhCmSbtJarB_l_540643770_L","LocationType":"point","DisplayPosition":{"Latitude":53.78692,"Longitude":10.00719},"MapView":{"TopLeft":{"Latitude":53.78732,"Longitude":10.00719},"BottomRight":{"Latitude":53.78692,"Longitude":10.00758}},"Address":{"Label":"Dorfstraße, 24558 Henstedt-Ulzburg, Deutschland","Country":"DEU","State":"Schleswig-Holstein","County":"Segeberg","City":"Henstedt-Ulzburg","District":"Henstedt","Street":"Dorfstraße","PostalCode":"24558","AdditionalData":[{"value":"Deutschland","key":"CountryName"},{"value":"Schleswig-Holstein","key":"StateName"},{"value":"Segeberg","key":"CountyName"}]},"MapReference":{"ReferenceId":"540643770","Spot":0.0,"SideOfStreet":"left","CountryId":"20147700","StateId":"20147701","CountyId":"20150653","CityId":"20150763","DistrictId":"20150768"}}},{"Relevance":1.0,"Distance":49.0,"MatchLevel":"houseNumber","MatchQuality":{"Country":1.0,"State":1.0,"County":1.0,"City":1.0,"District":1.0,"Street":[1.0],"HouseNumber":1.0,"PostalCode":1.0},"MatchType":"interpolated","Location":{"LocationId":"NT_JYUOQDMKTo3lycb0WSpkoC_zID","LocationType":"point","DisplayPosition":{"Latitude":53.78738,"Longitude":10.00664},"MapView":{"TopLeft":{"Latitude":53.7885042,"Longitude":10.0047372},"BottomRight":{"Latitude":53.7862558,"Longitude":10.0085428}},"Address":{"Label":"Am Wöddel 32, 24558 Henstedt-Ulzburg, Deutschland","Country":"DEU","State":"Schleswig-Holstein","County":"Segeberg","City":"Henstedt-Ulzburg","District":"Henstedt","Street":"Am Wöddel","HouseNumber":"32","PostalCode":"24558","AdditionalData":[{"value":"Deutschland","key":"CountryName"},{"value":"Schleswig-Holstein","key":"StateName"},{"value":"Segeberg","key":"CountyName"}]},"MapReference":{"ReferenceId":"83753463","Spot":0.05,"SideOfStreet":"left","CountryId":"20147700","StateId":"20147701","CountyId":"20150653","CityId":"20150763","DistrictId":"20150768","AddressId":"194293676","RoadLinkId":"36589647"}}},{"Relevance":1.0,"Distance":60.5,"MatchLevel":"houseNumber","MatchQuality":{"Country":1.0,"State":1.0,"County":1.0,"City":1.0,"District":1.0,"Street":[1.0],"HouseNumber":1.0,"PostalCode":1.0},"MatchType":"interpolated","Location":{"LocationId":"NT_r4jzhT1MN.bn2E44PDpBrD_yA","LocationType":"point","DisplayPosition":{"Latitude":53.78691,"Longitude":10.00769},"MapView":{"TopLeft":{"Latitude":53.7880342,"Longitude":10.0057872},"BottomRight":{"Latitude":53.7857858,"Longitude":10.0095928}},"Address":{"Label":"Prunstwiete 2, 24558 Henstedt-Ulzburg, Deutschland","Country":"DEU","State":"Schleswig-Holstein","County":"Segeberg","City":"Henstedt-Ulzburg","District":"Henstedt","Street":"Prunstwiete","HouseNumber":"2","PostalCode":"24558","AdditionalData":[{"value":"Deutschland","key":"CountryName"},{"value":"Schleswig-Holstein","key":"StateName"},{"value":"Segeberg","key":"CountyName"}]},"MapReference":{"ReferenceId":"83753493","Spot":0.91,"SideOfStreet":"left","CountryId":"20147700","StateId":"20147701","CountyId":"20150653","CityId":"20150763","DistrictId":"20150768","AddressId":"196371944","RoadLinkId":"37272999"}}},{"Relevance":1.0,"Distance":70.0,"MatchLevel":"street","MatchQuality":{"Country":1.0,"State":1.0,"County":1.0,"City":1.0,"District":1.0,"Street":[1.0],"PostalCode":1.0},"Location":{"LocationId":"NT_JYUOQDMKTo3lycb0WSpkoC_l_83753465_L","LocationType":"point","DisplayPosition":{"Latitude":53.7873657,"Longitude":10.0067976},"MapView":{"TopLeft":{"Latitude":53.78737,"Longitude":10.00674},"BottomRight":{"Latitude":53.78734,"Longitude":10.00714}},"Address":{"Label":"Am Wöddel, 24558 Henstedt-Ulzburg, Deutschland","Country":"DEU","State":"Schleswig-Holstein","County":"Segeberg","City":"Henstedt-Ulzburg","District":"Henstedt","Street":"Am Wöddel","PostalCode":"24558","AdditionalData":[{"value":"Deutschland","key":"CountryName"},{"value":"Schleswig-Holstein","key":"StateName"},{"value":"Segeberg","key":"CountyName"}]},"MapReference":{"ReferenceId":"83753465","Spot":0.86,"SideOfStreet":"left","CountryId":"20147700","StateId":"20147701","CountyId":"20150653","CityId":"20150763","DistrictId":"20150768"}}},{"Relevance":1.0,"Distance":70.4,"MatchLevel":"street","MatchQuality":{"Country":1.0,"State":1.0,"County":1.0,"City":1.0,"District":1.0,"PostalCode":1.0},"Location":{"LocationId":"NT_Xvx0KrhdEN2YDnr1PaGhbA_l_83753462_L","LocationType":"point","DisplayPosition":{"Latitude":53.78737,"Longitude":10.00674},"MapView":{"TopLeft":{"Latitude":53.78843,"Longitude":10.00639},"BottomRight":{"Latitude":53.78737,"Longitude":10.00674}},"Address":{"Label":"24558 Henstedt-Ulzburg, Deutschland","Country":"DEU","State":"Schleswig-Holstein","County":"Segeberg","City":"Henstedt-Ulzburg","District":"Henstedt","PostalCode":"24558","AdditionalData":[{"value":"Deutschland","key":"CountryName"},{"value":"Schleswig-Holstein","key":"StateName"},{"value":"Segeberg","key":"CountyName"}]},"MapReference":{"ReferenceId":"83753462","Spot":0.0,"SideOfStreet":"left","CountryId":"20147700","StateId":"20147701","CountyId":"20150653","CityId":"20150763","DistrictId":"20150768"}}},{"Relevance":1.0,"Distance":76.9,"MatchLevel":"houseNumber","MatchQuality":{"Country":1.0,"State":1.0,"County":1.0,"City":1.0,"District":1.0,"Street":[1.0],"HouseNumber":1.0,"PostalCode":1.0},"MatchType":"interpolated","Location":{"LocationId":"NT_JYUOQDMKTo3lycb0WSpkoC_yUD","LocationType":"point","DisplayPosition":{"Latitude":53.78732,"Longitude":10.00738},"MapView":{"TopLeft":{"Latitude":53.7884442,"Longitude":10.0054772},"BottomRight":{"Latitude":53.7861958,"Longitude":10.0092828}},"Address":{"Label":"Am Wöddel 25, 24558 Henstedt-Ulzburg, Deutschland","Country":"DEU","State":"Schleswig-Holstein","County":"Segeberg","City":"Henstedt-Ulzburg","District":"Henstedt","Street":"Am Wöddel","HouseNumber":"25","PostalCode":"24558","AdditionalData":[{"value":"Deutschland","key":"CountryName"},{"value":"Schleswig-Holstein","key":"StateName"},{"value":"Segeberg","key":"CountyName"}]},"MapReference":{"ReferenceId":"83753467","Spot":0.45,"SideOfStreet":"right","CountryId":"20147700","StateId":"20147701","CountyId":"20150653","CityId":"20150763","DistrictId":"20150768","AddressId":"195966568","RoadLinkId":"36662754"}}},{"Relevance":1.0,"Distance":85.6,"MatchLevel":"houseNumber","MatchQuality":{"Country":1.0,"State":1.0,"County":1.0,"City":1.0,"District":1.0,"Street":[1.0],"HouseNumber":1.0,"PostalCode":1.0},"MatchType":"interpolated","Location":{"LocationId":"NT_foGiXp4yN9EgJU6LGZ3mCB_xAD","LocationType":"point","DisplayPosition":{"Latitude":53.78749,"Longitude":10.00714},"MapView":{"TopLeft":{"Latitude":53.7886142,"Longitude":10.0052372},"BottomRight":{"Latitude":53.7863658,"Longitude":10.0090428}},"Address":{"Label":"Schultwiete 10, 24558 Henstedt-Ulzburg, Deutschland","Country":"DEU","State":"Schleswig-Holstein","County":"Segeberg","City":"Henstedt-Ulzburg","District":"Henstedt","Street":"Schultwiete","HouseNumber":"10","PostalCode":"24558","AdditionalData":[{"value":"Deutschland","key":"CountryName"},{"value":"Schleswig-Holstein","key":"StateName"},{"value":"Segeberg","key":"CountyName"}]},"MapReference":{"ReferenceId":"83753464","Spot":0.11,"SideOfStreet":"left","CountryId":"20147700","StateId":"20147701","CountyId":"20150653","CityId":"20150763","DistrictId":"20150768","AddressId":"193952710","RoadLinkId":"37251795"}}}]}]}}