{"Response":{"MetaInfo":{"Timestamp":"2020-03-28T09:51:13.094+0000","NextPageInformation":"2"},"View":[{"_type":"SearchResultsViewType","ViewId":0,"Result":[{"Relevance":1.0,"Distance":0.0,"Direction":0.0,"MatchLevel":"district","MatchQuality":{"Country":1.0,"State":1.0,"County":1.0,"City":1.0,"District":1.0,"PostalCode":1.0},"Location":{"LocationId":"NT_qbpb3F-uGUYeCLjM.T1rPA","LocationType":"point","DisplayPosition":{"Latitude":53.7963837,"Longitude":-1.4727968},"MapView":{"TopLeft":{"Latitude":53.86674,"Longitude":-1.69971},"BottomRight":{"Latitude":53.73097,"Longitude":-1.41768}},"Address":{"Label":"Leeds, England, United Kingdom","Country":"GBR","State":"England","County":"West Yorkshire","City":"Leeds","District":"Leeds","PostalCode":"LS1 5","AdditionalData":[{"value":"United Kingdom","key":"CountryName"},{"value":"England","key":"StateName"},{"value":"West Yorkshire","key":"CountyName"}]},"MapReference":{"ReferenceId":"1079042341","SideOfStreet":"neither","StateId":"20248595","CountyId":"20345050","CityId":"20345325","DistrictId":"20345326"}}},{"Relevance":1.0,"Distance":0.5,"MatchLevel":"street","MatchQuality":{"Country":1.0,"State":1.0,"County":1.0,"City":1.0,"District":1.0,"Street":[1.0],"PostalCode":1.0},"Location":{"LocationId":"NT_bUKzjWbyfH4.ankXHtMSAD_l_27403518_L","LocationType":"point","DisplayPosition":{"Latitude":53.7963876,"Longitude":-1.4728004},"MapView":{"TopLeft":{"Latitude":53.79684,"Longitude":-1.47283},"BottomRight":{"Latitude":53.79636,"Longitude":-1.47251}},"Address":{"Label":"Rock Terrace, Leeds, LS15 7, United Kingdom","Country":"GBR","State":"England","County":"West Yorkshire","City":"Leeds","District":"Leeds","Street":"Rock Terrace","PostalCode":"LS15 7","AdditionalData":[{"value":"United Kingdom","key":"CountryName"},{"value":"England","key":"StateName"},{"value":"West Yorkshire","key":"CountyName"}]},"MapReference":{"ReferenceId":"27403518","Spot":0.05,"SideOfStreet":"neither","StateId":"20248595","CountyId":"20345050","CityId":"20345325","DistrictId":"20345326"}}},{"Relevance":1.0,"Distance":3.6,"MatchLevel":"street","MatchQuality":{"Country":1.0,"State":1.0,"County":1.0,"City":1.0,"District":1.0,"Street":[1.0],"PostalCode":1.0},"Location":{"LocationId":"NT_fynLj-fo81Zb35wqPClpFD_l_27403559_L","LocationType":"point","DisplayPosition":{"Latitude":53.7963518,"Longitude":-1.4728096},"MapView":{"TopLeft":{"Latitude":53.79636,"Longitude":-1.47283},"BottomRight":{"Latitude":53.79624,"Longitude":-1.47253}},"Address":{"Label":"Selby Road, Leeds, LS15 7, United Kingdom","Country":"GBR","State":"England","County":"West Yorkshire","City":"Leeds","District":"Leeds","Street":"Selby Road","PostalCode":"LS15 7","AdditionalData":[{"value":"United Kingdom","key":"CountryName"},{"value":"England","key":"StateName"},{"value":"West Yorkshire","key":"CountyName"}]},"MapReference":{"ReferenceId":"27403559","Spot":0.93,"SideOfStreet":"neither","StateId":"20248595","CountyId":"20345050","CityId":"20345325","DistrictId":"20345326"}}},{"Relevance":1.0,"Distance":11.8,"MatchLevel":"street","MatchQuality":{"Country":1.0,"State":1.0,"County":1.0,"City":1.0,"District":1.0,"Street":[1.0],"PostalCode":1.0},"Location":{"LocationId":"NT_fynLj-fo81Zb35wqPClpFD_l_27403593_R","LocationType":"point","DisplayPosition":{"Latitude":53.7962779,"Longitude":-1.4728064},"MapView":{"TopLeft":{"Latitude":53.79628,"Longitude":-1.47318},"BottomRight":{"Latitude":53.79624,"Longitude":-1.47253}},"Address":{"Label":"Selby Road, Leeds, LS15 7, United Kingdom","Country":"GBR","State":"England","County":"West Yorkshire","City":"Leeds","District":"Leeds","Street":"Selby Road","PostalCode":"LS15 7","AdditionalData":[{"value":"United Kingdom","key":"CountryName"},{"value":"England","key":"StateName"},{"value":"West Yorkshire","key":"CountyName"}]},"MapReference":{"ReferenceId":"27403593","Spot":0.43,"SideOfStreet":"right","StateId":"20248595","CountyId":"20345050","CityId":"20345325","DistrictId":"20345326"}}},{"Relevance":1.0,"Distance":15.3,"MatchLevel":"houseNumber","MatchQuality":{"Country":1.0,"State":1.0,"County":1.0,"City":1.0,"District":1.0,"Street":[1.0],"HouseNumber":1.0,"PostalCode":1.0},"MatchType":"interpolated","Location":{"LocationId":"NT_fynLj-fo81Zb35wqPClpFD_l_840262411_R_xgTN","LocationType":"point","DisplayPosition":{"Latitude":53.79644,"Longitude":-1.47301},"MapView":{"TopLeft":{"Latitude":53.7975642,"Longitude":-1.4749133},"BottomRight":{"Latitude":53.7953159,"Longitude":-1.4711068}},"Address":{"Label":"185 Selby Road, Leeds, LS15 7HT, United Kingdom","Country":"GBR","State":"England","County":"West Yorkshire","City":"Leeds","District":"Leeds","Street":"Selby Road","HouseNumber":"185","PostalCode":"LS15 7HT","AdditionalData":[{"value":"United Kingdom","key":"CountryName"},{"value":"England","key":"StateName"},{"value":"West Yorkshire","key":"CountyName"}]},"MapReference":{"ReferenceId":"840262411","Spot":0.37,"SideOfStreet":"right","StateId":"20248595","CountyId":"20345050","CityId":"20345325","DistrictId":"20345326"}}},{"Relevance":1.0,"Distance":23.7,"MatchLevel":"street","MatchQuality":{"Country":1.0,"State":1.0,"County":1.0,"City":1.0,"District":1.0,"Street":[1.0],"PostalCode":1.0},"Location":{"LocationId":"NT_pJFE81Cyd6jX12-btofN0B_l_565910590_R","LocationType":"point","DisplayPosition":{"Latitude":53.79624,"Longitude":-1.47253},"MapView":{"TopLeft":{"Latitude":53.79624,"Longitude":-1.47253},"BottomRight":{"Latitude":53.796,"Longitude":-1.47172}},"Address":{"Label":"Selby Road, Leeds, LS15 7, United Kingdom","Country":"GBR","State":"England","County":"West Yorkshire","City":"Leeds","District":"Leeds","Street":"Selby Road","PostalCode":"LS15 7","AdditionalData":[{"value":"United Kingdom","key":"CountryName"},{"value":"England","key":"StateName"},{"value":"West Yorkshire","key":"CountyName"}]},"MapReference":{"ReferenceId":"565910590","Spot":1.0,"SideOfStreet":"right","StateId":"20248595","CountyId":"20345050","CityId":"20345325","DistrictId":"20345326"}}},{"Relevance":1.0,"Distance":28.2,"MatchLevel":"street","MatchQuality":{"Country":1.0,"State":1.0,"County":1.0,"City":1.0,"District":1.0,"Street":[1.0],"PostalCode":1.0},"Location":{"LocationId":"NT_c-RUaeyEToIIr2PAgvfT5B_l_27403594_R","LocationType":"point","DisplayPosition":{"Latitude":53.79627,"Longitude":-1.47318},"MapView":{"TopLeft":{"Latitude":53.79664,"Longitude":-1.4738},"BottomRight":{"Latitude":53.79627,"Longitude":-1.47318}},"Address":{"Label":"Selby Road, Leeds, LS15 0, United Kingdom","Country":"GBR","State":"England","County":"West Yorkshire","City":"Leeds","District":"Leeds","Street":"Selby Road","PostalCode":"LS15 0","AdditionalData":[{"value":"United Kingdom","key":"CountryName"},{"value":"England","key":"StateName"},{"value":"West Yorkshire","key":"CountyName"}]},"MapReference":{"ReferenceId":"27403594","Spot":0.0,"SideOfStreet":"right","StateId":"20248595","CountyId":"20345050","CityId":"20345325","DistrictId":"20345326"}}},{"Relevance":1.0,"Distance":28.2,"MatchLevel":"street","MatchQuality":{"Country":1.0,"State":1.0,"County":1.0,"City":1.0,"District":1.0,"Street":[1.0],"PostalCode":1.0},"Location":{"LocationId":"NT_c-RUaeyEToIIr2PAgvfT5B_l_27403614_L","LocationType":"point","DisplayPosition":{"Latitude":53.79627,"Longitude":-1.47318},"MapView":{"TopLeft":{"Latitude":53.79627,"Longitude":-1.47352},"BottomRight":{"Latitude":53.79626,"Longitude":-1.47318}},"Address":{"Label":"Selby Road, Leeds, LS15 0, United Kingdom","Country":"GBR","State":"England","County":"West Yorkshire","City":"Leeds","District":"Leeds","Street":"Selby Road","PostalCode":"LS15 0","AdditionalData":[{"value":"United Kingdom","key":"CountryName"},{"value":"England","key":"StateName"},{"value":"West Yorkshire","key":"CountyName"}]},"MapReference":{"ReferenceId":"27403614","Spot":1.0,"SideOfStreet":"left","StateId":"20248595","CountyId":"20345050","CityId":"20345325","DistrictId":"20345326"}}},{"Relevance":1.0,"Distance":30.3,"MatchLevel":"street","MatchQuality":{"Country":1.0,"State":1.0,"County":1.0,"City":1.0,"District":1.0,"Street":[1.0],"PostalCode":1.0},"Location":{"LocationId":"NT_3iTlIlqsNDDHrVCvlG1ziD_l_27403908_R","LocationType":"point","DisplayPosition":{"Latitude":53.7961291,"Longitude":-1.4729598},"MapView":{"TopLeft":{"Latitude":53.79627,"Longitude":-1.47318},"BottomRight":{"Latitude":53.79588,"Longitude":-1.47292}},"Address":{"Label":"Temple Newsam Road, Leeds, LS15 0, United Kingdom","Country":"GBR","State":"England","County":"West Yorkshire","City":"Leeds","District":"Leeds","Street":"Temple Newsam Road","PostalCode":"LS15 0","AdditionalData":[{"value":"United Kingdom","key":"CountryName"},{"value":"England","key":"StateName"},{"value":"West Yorkshire","key":"CountyName"}]},"MapReference":{"ReferenceId":"27403908","Spot":0.5,"SideOfStreet":"right","StateId":"20248595","CountyId":"20345050","CityId":"20345325","DistrictId":"20345326"}}},{"Relevance":1.0,"Distance":43.2,"MatchLevel":"houseNumber","MatchQuality":{"Country":1.0,"State":1.0,"County":1.0,"City":1.0,"District":1.0,"Street":[1.0],"HouseNumber":1.0,"PostalCode":1.0},"MatchType":"interpolated","Location":{"LocationId":"NT_3iTlIlqsNDDHrVCvlG1ziD_l_27403909_L_yYD","LocationType":"point","DisplayPosition":{"Latitude":53.7961141,"Longitude":-1.4732711},"MapView":{"TopLeft":{"Latitude":53.7972382,"Longitude":-1.4751743},"BottomRight":{"Latitude":53.7949899,"Longitude":-1.4713679}},"Address":{"Label":"26 Temple Newsam Road, Leeds, LS15 0, United Kingdom","Country":"GBR","State":"England","County":"West Yorkshire","City":"Leeds","District":"Leeds","Street":"Temple Newsam Road","HouseNumber":"26","PostalCode":"LS15 0","AdditionalData":[{"value":"United Kingdom","key":"CountryName"},{"value":"England","key":"StateName"},{"value":"West Yorkshire","key":"CountyName"}]},"MapReference":{"ReferenceId":"27403909","Spot":0.59,"SideOfStreet":"left","StateId":"20248595","CountyId":"20345050","CityId":"20345325","DistrictId":"20345326"}}}]}]}}