{"Response":{"MetaInfo":{"Timestamp":"2020-03-28T11:41:32.868+0000","NextPageInformation":"2"},"View":[{"_type":"SearchResultsViewType","ViewId":0,"Result":[{"Relevance":1.0,"Distance":0.0,"Direction":0.0,"MatchLevel":"district","MatchQuality":{"Country":1.0,"State":1.0,"County":1.0,"City":1.0,"District":1.0,"PostalCode":1.0},"Location":{"LocationId":"NT_GnnY7d2RjZBZqabgpdjRDC","LocationType":"point","DisplayPosition":{"Latitude":53.768912,"Longitude":11.4699413},"MapView":{"TopLeft":{"Latitude":53.77725,"Longitude":11.45444},"BottomRight":{"Latitude":53.76556,"Longitude":11.48396}},"Address":{"Label":"Bad Kleinen, Mecklenburg-Vorpommern, Deutschland","Country":"DEU","State":"Mecklenburg-Vorpommern","County":"Nordwestmecklenburg","City":"Bad Kleinen","District":"Bad Kleinen","PostalCode":"23996","AdditionalData":[{"value":"Deutschland","key":"CountryName"},{"value":"Mecklenburg-Vorpommern","key":"StateName"},{"value":"Nordwestmecklenburg","key":"CountyName"}]},"MapReference":{"ReferenceId":"541084536","SideOfStreet":"neither","CountryId":"20147700","StateId":"20189515","CountyId":"20190527","CityId":"20190531","DistrictId":"20190533"}}},{"Relevance":1.0,"Distance":8.0,"MatchLevel":"houseNumber","MatchQuality":{"Country":1.0,"State":1.0,"County":1.0,"City":1.0,"District":1.0,"Street":[1.0],"HouseNumber":1.0,"PostalCode":1.0},"MatchType":"interpolated","Location":{"LocationId":"NT_yjKgj5fCSsWhpcPuAwoOMA_xMD","LocationType":"point","DisplayPosition":{"Latitude":53.76896,"Longitude":11.46978},"MapView":{"TopLeft":{"Latitude":53.7700842,"Longitude":11.467878},"BottomRight":{"Latitude":53.7678358,"Longitude":11.471682}},"Address":{"Label":"Hauptstraße 13, 23996 Bad Kleinen, Deutschland","Country":"DEU","State":"Mecklenburg-Vorpommern","County":"Nordwestmecklenburg","City":"Bad Kleinen","District":"Bad Kleinen","Street":"Hauptstraße","HouseNumber":"13","PostalCode":"23996","AdditionalData":[{"value":"Deutschland","key":"CountryName"},{"value":"Mecklenburg-Vorpommern","key":"StateName"},{"value":"Nordwestmecklenburg","key":"CountyName"}]},"MapReference":{"ReferenceId":"541084536","Spot":0.14,"SideOfStreet":"right","CountryId":"20147700","StateId":"20189515","CountyId":"20190527","CityId":"20190531","DistrictId":"20190533","AddressId":"249915783","RoadLinkId":"37649981"}}},{"Relevance":1.0,"Distance":47.2,"MatchLevel":"street","MatchQuality":{"Country":1.0,"State":1.0,"County":1.0,"City":1.0,"District":1.0,"PostalCode":1.0},"Location":{"LocationId":"NT_lFTAP3OzLs5jPc68-mGNsC_l_541084555_L","LocationType":"point","DisplayPosition":{"Latitude":53.76858,"Longitude":11.47039},"MapView":{"TopLeft":{"Latitude":53.76992,"Longitude":11.47039},"BottomRight":{"Latitude":53.76858,"Longitude":11.47372}},"Address":{"Label":"23996 Bad Kleinen, Deutschland","Country":"DEU","State":"Mecklenburg-Vorpommern","County":"Nordwestmecklenburg","City":"Bad Kleinen","District":"Bad Kleinen","PostalCode":"23996","AdditionalData":[{"value":"Deutschland","key":"CountryName"},{"value":"Mecklenburg-Vorpommern","key":"StateName"},{"value":"Nordwestmecklenburg","key":"CountyName"}]},"MapReference":{"ReferenceId":"541084555","Spot":0.0,"SideOfStreet":"left","CountryId":"20147700","StateId":"20189515","CountyId":"20190527","CityId":"20190531","DistrictId":"20190533"}}},{"Relevance":1.0,"Distance":47.3,"MatchLevel":"houseNumber","MatchQuality":{"Country":1.0,"State":1.0,"County":1.0,"City":1.0,"District":1.0,"Street":[1.0],"HouseNumber":1.0,"PostalCode":1.0},"MatchType":"interpolated","Location":{"LocationId":"NT_yjKgj5fCSsWhpcPuAwoOMA_5A","LocationType":"point","DisplayPosition":{"Latitude":53.76877,"Longitude":11.46924},"MapView":{"TopLeft":{"Latitude":53.7698942,"Longitude":11.467338},"BottomRight":{"Latitude":53.7676458,"Longitude":11.471142}},"Address":{"Label":"Hauptstraße 9, 23996 Bad Kleinen, Deutschland","Country":"DEU","State":"Mecklenburg-Vorpommern","County":"Nordwestmecklenburg","City":"Bad Kleinen","District":"Bad Kleinen","Street":"Hauptstraße","HouseNumber":"9","PostalCode":"23996","AdditionalData":[{"value":"Deutschland","key":"CountryName"},{"value":"Mecklenburg-Vorpommern","key":"StateName"},{"value":"Nordwestmecklenburg","key":"CountyName"}]},"MapReference":{"ReferenceId":"1205508936","Spot":0.57,"SideOfStreet":"right","CountryId":"20147700","StateId":"20189515","CountyId":"20190527","CityId":"20190531","DistrictId":"20190533","AddressId":"249935063","RoadLinkId":"519174626"}}},{"Relevance":1.0,"Distance":52.8,"MatchLevel":"houseNumber","MatchQuality":{"Country":1.0,"State":1.0,"County":1.0,"City":1.0,"District":1.0,"Street":[1.0],"HouseNumber":1.0,"PostalCode":1.0},"MatchType":"interpolated","Location":{"LocationId":"NT_TJHNLJiCad-4-yiA7FQ7cB_3A","LocationType":"point","DisplayPosition":{"Latitude":53.76844,"Longitude":11.46985},"MapView":{"TopLeft":{"Latitude":53.7695642,"Longitude":11.467948},"BottomRight":{"Latitude":53.7673158,"Longitude":11.471752}},"Address":{"Label":"Rosensteig 7, 23996 Bad Kleinen, Deutschland","Country":"DEU","State":"Mecklenburg-Vorpommern","County":"Nordwestmecklenburg","City":"Bad Kleinen","District":"Bad Kleinen","Street":"Rosensteig","HouseNumber":"7","PostalCode":"23996","AdditionalData":[{"value":"Deutschland","key":"CountryName"},{"value":"Mecklenburg-Vorpommern","key":"StateName"},{"value":"Nordwestmecklenburg","key":"CountyName"}]},"MapReference":{"ReferenceId":"541084601","Spot":0.62,"SideOfStreet":"right","CountryId":"20147700","StateId":"20189515","CountyId":"20190527","CityId":"20190531","DistrictId":"20190533","AddressId":"184114731","RoadLinkId":"37546019"}}},{"Relevance":1.0,"Distance":53.8,"MatchLevel":"street","MatchQuality":{"Country":1.0,"State":1.0,"County":1.0,"City":1.0,"District":1.0,"Street":[1.0],"PostalCode":1.0},"Location":{"LocationId":"NT_WsyKwAQ4iyym.tbb8iXKYB_l_551704594_R","LocationType":"point","DisplayPosition":{"Latitude":53.76875,"Longitude":11.46917},"MapView":{"TopLeft":{"Latitude":53.76902,"Longitude":11.4689},"BottomRight":{"Latitude":53.76875,"Longitude":11.46917}},"Address":{"Label":"Gartenweg, 23996 Bad Kleinen, Deutschland","Country":"DEU","State":"Mecklenburg-Vorpommern","County":"Nordwestmecklenburg","City":"Bad Kleinen","District":"Bad Kleinen","Street":"Gartenweg","PostalCode":"23996","AdditionalData":[{"value":"Deutschland","key":"CountryName"},{"value":"Mecklenburg-Vorpommern","key":"StateName"},{"value":"Nordwestmecklenburg","key":"CountyName"}]},"MapReference":{"ReferenceId":"551704594","Spot":0.0,"SideOfStreet":"right","CountryId":"20147700","StateId":"20189515","CountyId":"20190527","CityId":"20190531","DistrictId":"20190533"}}},{"Relevance":1.0,"Distance":69.5,"MatchLevel":"street","MatchQuality":{"Country":1.0,"State":1.0,"County":1.0,"City":1.0,"District":1.0,"Street":[1.0],"PostalCode":1.0},"Location":{"LocationId":"NT_WsyKwAQ4iyym.tbb8iXKYB_l_551704595_R","LocationType":"point","DisplayPosition":{"Latitude":53.76902,"Longitude":11.4689},"MapView":{"TopLeft":{"Latitude":53.76954,"Longitude":11.4682},"BottomRight":{"Latitude":53.76902,"Longitude":11.4689}},"Address":{"Label":"Gartenweg, 23996 Bad Kleinen, Deutschland","Country":"DEU","State":"Mecklenburg-Vorpommern","County":"Nordwestmecklenburg","City":"Bad Kleinen","District":"Bad Kleinen","Street":"Gartenweg","PostalCode":"23996","AdditionalData":[{"value":"Deutschland","key":"CountryName"},{"value":"Mecklenburg-Vorpommern","key":"StateName"},{"value":"Nordwestmecklenburg","key":"CountyName"}]},"MapReference":{"ReferenceId":"551704595","Spot":0.0,"SideOfStreet":"right","CountryId":"20147700","StateId":"20189515","CountyId":"20190527","CityId":"20190531","DistrictId":"20190533"}}},{"Relevance":1.0,"Distance":77.1,"MatchLevel":"houseNumber","MatchQuality":{"Country":1.0,"State":1.0,"County":1.0,"City":1.0,"District":1.0,"Street":[1.0],"HouseNumber":1.0,"PostalCode":1.0},"MatchType":"interpolated","Location":{"LocationId":"NT_yjKgj5fCSsWhpcPuAwoOMA_3A","LocationType":"point","DisplayPosition":{"Latitude":53.76863,"Longitude":11.46885},"MapView":{"TopLeft":{"Latitude":53.7697542,"Longitude":11.466948},"BottomRight":{"Latitude":53.7675058,"Longitude":11.470752}},"Address":{"Label":"Hauptstraße 7, 23996 Bad Kleinen, Deutschland","Country":"DEU","State":"Mecklenburg-Vorpommern","County":"Nordwestmecklenburg","City":"Bad Kleinen","District":"Bad Kleinen","Street":"Hauptstraße","HouseNumber":"7","PostalCode":"23996","AdditionalData":[{"value":"Deutschland","key":"CountryName"},{"value":"Mecklenburg-Vorpommern","key":"StateName"},{"value":"Nordwestmecklenburg","key":"CountyName"}]},"MapReference":{"ReferenceId":"1205508935","Spot":0.35,"SideOfStreet":"right","CountryId":"20147700","StateId":"20189515","CountyId":"20190527","CityId":"20190531","DistrictId":"20190533","AddressId":"249935064","RoadLinkId":"519174625"}}},{"Relevance":1.0,"Distance":100.1,"MatchLevel":"houseNumber","MatchQuality":{"Country":1.0,"State":1.0,"County":1.0,"City":1.0,"District":1.0,"Street":[1.0],"HouseNumber":1.0,"PostalCode":1.0},"MatchType":"interpolated","Location":{"LocationId":"NT_7aBAl.E1zVQsoPwXMmc2WA_yED","LocationType":"point","DisplayPosition":{"Latitude":53.76994,"Longitude":11.46927},"MapView":{"TopLeft":{"Latitude":53.7710642,"Longitude":11.467368},"BottomRight":{"Latitude":53.7688158,"Longitude":11.471172}},"Address":{"Label":"Steinstraße 21, 23996 Bad Kleinen, Deutschland","Country":"DEU","State":"Mecklenburg-Vorpommern","County":"Nordwestmecklenburg","City":"Bad Kleinen","District":"Bad Kleinen","Street":"Steinstraße","HouseNumber":"21","PostalCode":"23996","AdditionalData":[{"value":"Deutschland","key":"CountryName"},{"value":"Mecklenburg-Vorpommern","key":"StateName"},{"value":"Nordwestmecklenburg","key":"CountyName"}]},"MapReference":{"ReferenceId":"541084563","Spot":0.39,"SideOfStreet":"right","CountryId":"20147700","StateId":"20189515","CountyId":"20190527","CityId":"20190531","DistrictId":"20190533","AddressId":"184021560","RoadLinkId":"37795999"}}},{"Relevance":1.0,"Distance":100.4,"MatchLevel":"street","MatchQuality":{"Country":1.0,"State":1.0,"County":1.0,"City":1.0,"District":1.0,"Street":[1.0],"PostalCode":1.0},"Location":{"LocationId":"NT_TJHNLJiCad-4-yiA7FQ7cB_l_541084490_R","LocationType":"point","DisplayPosition":{"Latitude":53.76822,"Longitude":11.46896},"MapView":{"TopLeft":{"Latitude":53.76822,"Longitude":11.46896},"BottomRight":{"Latitude":53.76788,"Longitude":11.46916}},"Address":{"Label":"Rosensteig, 23996 Bad Kleinen, Deutschland","Country":"DEU","State":"Mecklenburg-Vorpommern","County":"Nordwestmecklenburg","City":"Bad Kleinen","District":"Bad Kleinen","Street":"Rosensteig","PostalCode":"23996","AdditionalData":[{"value":"Deutschland","key":"CountryName"},{"value":"Mecklenburg-Vorpommern","key":"StateName"},{"value":"Nordwestmecklenburg","key":"CountyName"}]},"MapReference":{"ReferenceId":"541084490","Spot":1.0,"SideOfStreet":"right","CountryId":"20147700","StateId":"20189515","CountyId":"20190527","CityId":"20190531","DistrictId":"20190533"}}}]}]}}