{"Response":{"MetaInfo":{"Timestamp":"2020-03-28T11:59:21.600+0000","NextPageInformation":"2"},"View":[{"_type":"SearchResultsViewType","ViewId":0,"Result":[{"Relevance":1.0,"Distance":0.0,"Direction":0.0,"MatchLevel":"district","MatchQuality":{"Country":1.0,"State":1.0,"County":1.0,"City":1.0,"District":1.0,"PostalCode":1.0},"Location":{"LocationId":"NT_DmYdkZ-C-IFEonMv2VYNhD","LocationType":"point","DisplayPosition":{"Latitude":53.7584408,"Longitude":-2.4872711},"MapView":{"TopLeft":{"Latitude":53.78185,"Longitude":-2.54738},"BottomRight":{"Latitude":53.71523,"Longitude":-2.43001}},"Address":{"Label":"Blackburn, England, United Kingdom","Country":"GBR","State":"England","County":"Lancashire","City":"Blackburn","District":"Blackburn","PostalCode":"BB1 5","AdditionalData":[{"value":"United Kingdom","key":"CountryName"},{"value":"England","key":"StateName"},{"value":"Lancashire","key":"CountyName"}]},"MapReference":{"ReferenceId":"1193575458","SideOfStreet":"neither","StateId":"20248595","CountyId":"20343938","CityId":"20343957","DistrictId":"20343958"}}},{"Relevance":1.0,"Distance":12.2,"MatchLevel":"houseNumber","MatchQuality":{"Country":1.0,"State":1.0,"County":1.0,"City":1.0,"District":1.0,"Street":[1.0],"HouseNumber":1.0,"PostalCode":1.0},"MatchType":"interpolated","Location":{"LocationId":"NT_WTRNwzierF9JkaLKVnVr0C_l_997230476_R_xcDO","LocationType":"point","DisplayPosition":{"Latitude":53.758375,"Longitude":-2.4874242},"MapView":{"TopLeft":{"Latitude":53.7594992,"Longitude":-2.4893257},"BottomRight":{"Latitude":53.7572509,"Longitude":-2.4855227}},"Address":{"Label":"178 Shear Brow, Blackburn, BB1 8DZ, United Kingdom","Country":"GBR","State":"England","County":"Lancashire","City":"Blackburn","District":"Blackburn","Street":"Shear Brow","HouseNumber":"178","PostalCode":"BB1 8DZ","AdditionalData":[{"value":"United Kingdom","key":"CountryName"},{"value":"England","key":"StateName"},{"value":"Lancashire","key":"CountyName"}]},"MapReference":{"ReferenceId":"997230476","Spot":0.71,"SideOfStreet":"right","StateId":"20248595","CountyId":"20343938","CityId":"20343957","DistrictId":"20343958"}}},{"Relevance":1.0,"Distance":14.3,"MatchLevel":"street","MatchQuality":{"Country":1.0,"State":1.0,"County":1.0,"City":1.0,"District":1.0,"Street":[1.0],"PostalCode":1.0},"Location":{"LocationId":"NT_iMLP31M7cMyffLfjpf3cRA_l_997230477_R","LocationType":"point","DisplayPosition":{"Latitude":53.75854,"Longitude":-2.48741},"MapView":{"TopLeft":{"Latitude":53.75859,"Longitude":-2.48741},"BottomRight":{"Latitude":53.75854,"Longitude":-2.4874}},"Address":{"Label":"Shear Brow, Blackburn, BB1 8, United Kingdom","Country":"GBR","State":"England","County":"Lancashire","City":"Blackburn","District":"Blackburn","Street":"Shear Brow","PostalCode":"BB1 8","AdditionalData":[{"value":"United Kingdom","key":"CountryName"},{"value":"England","key":"StateName"},{"value":"Lancashire","key":"CountyName"}]},"MapReference":{"ReferenceId":"997230477","Spot":0.0,"SideOfStreet":"right","StateId":"20248595","CountyId":"20343938","CityId":"20343957","DistrictId":"20343958"}}},{"Relevance":1.0,"Distance":18.6,"MatchLevel":"street","MatchQuality":{"Country":1.0,"State":1.0,"County":1.0,"City":1.0,"District":1.0,"Street":[1.0],"PostalCode":1.0},"Location":{"LocationId":"NT_HHAzUQYuQuwmwF-dJFH0uC_l_565952659_L","LocationType":"point","DisplayPosition":{"Latitude":53.75859,"Longitude":-2.4874},"MapView":{"TopLeft":{"Latitude":53.75865,"Longitude":-2.48786},"BottomRight":{"Latitude":53.75859,"Longitude":-2.4874}},"Address":{"Label":"East Park Road, Blackburn, BB1 8, United Kingdom","Country":"GBR","State":"England","County":"Lancashire","City":"Blackburn","District":"Blackburn","Street":"East Park Road","PostalCode":"BB1 8","AdditionalData":[{"value":"United Kingdom","key":"CountryName"},{"value":"England","key":"StateName"},{"value":"Lancashire","key":"CountyName"}]},"MapReference":{"ReferenceId":"565952659","Spot":0.0,"SideOfStreet":"left","StateId":"20248595","CountyId":"20343938","CityId":"20343957","DistrictId":"20343958"}}},{"Relevance":1.0,"Distance":19.4,"MatchLevel":"street","MatchQuality":{"Country":1.0,"State":1.0,"County":1.0,"City":1.0,"District":1.0,"Street":[1.0],"PostalCode":1.0},"Location":{"LocationId":"NT_Zz1gD5c0Jtsp2fYZ-Bfd-D_l_27475353_R","LocationType":"point","DisplayPosition":{"Latitude":53.7586128,"Longitude":-2.4873202},"MapView":{"TopLeft":{"Latitude":53.75887,"Longitude":-2.4874},"BottomRight":{"Latitude":53.75859,"Longitude":-2.48642}},"Address":{"Label":"St James's Road, Blackburn, BB1 8, United Kingdom","Country":"GBR","State":"England","County":"Lancashire","City":"Blackburn","District":"Blackburn","Street":"St James's Road","PostalCode":"BB1 8","AdditionalData":[{"value":"United Kingdom","key":"CountryName"},{"value":"England","key":"StateName"},{"value":"Lancashire","key":"CountyName"}]},"MapReference":{"ReferenceId":"27475353","Spot":0.08,"SideOfStreet":"right","StateId":"20248595","CountyId":"20343938","CityId":"20343957","DistrictId":"20343958"}}},{"Relevance":1.0,"Distance":27.3,"MatchLevel":"houseNumber","MatchQuality":{"Country":1.0,"State":1.0,"County":1.0,"City":1.0,"District":1.0,"Street":[1.0],"HouseNumber":1.0,"PostalCode":1.0},"MatchType":"interpolated","Location":{"LocationId":"NT_WTRNwzierF9JkaLKVnVr0C_l_27475354_R_xgDM","LocationType":"point","DisplayPosition":{"Latitude":53.75872,"Longitude":-2.48737},"MapView":{"TopLeft":{"Latitude":53.7598442,"Longitude":-2.4892715},"BottomRight":{"Latitude":53.7575959,"Longitude":-2.4854685}},"Address":{"Label":"180 Shear Brow, Blackburn, BB1 8DU, United Kingdom","Country":"GBR","State":"England","County":"Lancashire","City":"Blackburn","District":"Blackburn","Street":"Shear Brow","HouseNumber":"180","PostalCode":"BB1 8DU","AdditionalData":[{"value":"United Kingdom","key":"CountryName"},{"value":"England","key":"StateName"},{"value":"Lancashire","key":"CountyName"}]},"MapReference":{"ReferenceId":"27475354","Spot":0.34,"SideOfStreet":"right","StateId":"20248595","CountyId":"20343938","CityId":"20343957","DistrictId":"20343958"}}},{"Relevance":1.0,"Distance":29.0,"MatchLevel":"houseNumber","MatchQuality":{"Country":1.0,"State":1.0,"County":1.0,"City":1.0,"District":1.0,"Street":[1.0],"HouseNumber":1.0,"PostalCode":1.0},"MatchType":"interpolated","Location":{"LocationId":"NT_cTQhPQnmimv7TgQFkN5nDB_l_27475633_L_xcD","LocationType":"point","DisplayPosition":{"Latitude":53.7584065,"Longitude":-2.486609},"MapView":{"TopLeft":{"Latitude":53.7595306,"Longitude":-2.4885105},"BottomRight":{"Latitude":53.7572823,"Longitude":-2.4847075}},"Address":{"Label":"17 Cromer Place, Blackburn, BB1 8EL, United Kingdom","Country":"GBR","State":"England","County":"Lancashire","City":"Blackburn","District":"Blackburn","Street":"Cromer Place","HouseNumber":"17","PostalCode":"BB1 8EL","AdditionalData":[{"value":"United Kingdom","key":"CountryName"},{"value":"England","key":"StateName"},{"value":"Lancashire","key":"CountyName"}]},"MapReference":{"ReferenceId":"27475633","Spot":0.52,"SideOfStreet":"left","StateId":"20248595","CountyId":"20343938","CityId":"20343957","DistrictId":"20343958"}}},{"Relevance":1.0,"Distance":41.2,"MatchLevel":"postalCode","MatchQuality":{"PostalCode":1.0},"MatchType":"interpolated","Location":{"LocationId":"NT_cTQhPQnmimv7TgQFkN5nDB_l_27475633_L_xcD","LocationType":"point","DisplayPosition":{"Latitude":53.75839,"Longitude":-2.48665},"MapView":{"TopLeft":{"Latitude":53.7673832,"Longitude":-2.501862},"BottomRight":{"Latitude":53.7493968,"Longitude":-2.471438}},"Address":{"Label":"BB1 8EL, Blackburn, England, United Kingdom","Country":"GBR","State":"England","County":"Lancashire","City":"Blackburn","PostalCode":"BB1 8EL","AdditionalData":[{"value":"United Kingdom","key":"CountryName"},{"value":"England","key":"StateName"},{"value":"Lancashire","key":"CountyName"}]},"MapReference":{"ReferenceId":"27475633","Spot":0.52,"SideOfStreet":"neither","StateId":"20248595","CountyId":"20343938","CityId":"20343957"}}},{"Relevance":1.0,"Distance":45.2,"MatchLevel":"street","MatchQuality":{"Country":1.0,"State":1.0,"County":1.0,"City":1.0,"District":1.0,"Street":[1.0],"PostalCode":1.0},"Location":{"LocationId":"NT_HHAzUQYuQuwmwF-dJFH0uC_l_565952660_L","LocationType":"point","DisplayPosition":{"Latitude":53.75865,"Longitude":-2.48786},"MapView":{"TopLeft":{"Latitude":53.75867,"Longitude":-2.48827},"BottomRight":{"Latitude":53.75865,"Longitude":-2.48786}},"Address":{"Label":"East Park Road, Blackburn, BB1 8, United Kingdom","Country":"GBR","State":"England","County":"Lancashire","City":"Blackburn","District":"Blackburn","Street":"East Park Road","PostalCode":"BB1 8","AdditionalData":[{"value":"United Kingdom","key":"CountryName"},{"value":"England","key":"StateName"},{"value":"Lancashire","key":"CountyName"}]},"MapReference":{"ReferenceId":"565952660","Spot":0.0,"SideOfStreet":"left","StateId":"20248595","CountyId":"20343938","CityId":"20343957","DistrictId":"20343958"}}},{"Relevance":1.0,"Distance":45.2,"MatchLevel":"street","MatchQuality":{"Country":1.0,"State":1.0,"County":1.0,"City":1.0,"District":1.0,"PostalCode":1.0},"Location":{"LocationId":"NT_hCMQELAqQ1fagrCeasajaA_l_565952662_R","LocationType":"point","DisplayPosition":{"Latitude":53.75865,"Longitude":-2.48786},"MapView":{"TopLeft":{"Latitude":53.75882,"Longitude":-2.48792},"BottomRight":{"Latitude":53.75865,"Longitude":-2.48786}},"Address":{"Label":"Blackburn, BB1 8, United Kingdom","Country":"GBR","State":"England","County":"Lancashire","City":"Blackburn","District":"Blackburn","PostalCode":"BB1 8","AdditionalData":[{"value":"United Kingdom","key":"CountryName"},{"value":"England","key":"StateName"},{"value":"Lancashire","key":"CountyName"}]},"MapReference":{"ReferenceId":"565952662","Spot":0.0,"SideOfStreet":"right","StateId":"20248595","CountyId":"20343938","CityId":"20343957","DistrictId":"20343958"}}}]}]}}