{"Response":{"MetaInfo":{"Timestamp":"2020-03-28T12:01:36.499+0000","NextPageInformation":"2"},"View":[{"_type":"SearchResultsViewType","ViewId":0,"Result":[{"Relevance":1.0,"Distance":0.0,"Direction":0.0,"MatchLevel":"district","MatchQuality":{"Country":1.0,"State":1.0,"County":1.0,"City":1.0,"District":1.0,"PostalCode":1.0},"Location":{"LocationId":"NT_WZtyYB9v4rN7cK97d0LAaA","LocationType":"point","DisplayPosition":{"Latitude":53.7789402,"Longitude":-1.5283966},"MapView":{"TopLeft":{"Latitude":53.78629,"Longitude":-1.53844},"BottomRight":{"Latitude":53.77032,"Longitude":-1.5164}},"Address":{"Label":"Hunslet, Leeds, England, United Kingdom","Country":"GBR","State":"England","County":"West Yorkshire","City":"Leeds","District":"Hunslet","PostalCode":"LS10 1","AdditionalData":[{"value":"United Kingdom","key":"CountryName"},{"value":"England","key":"StateName"},{"value":"West Yorkshire","key":"CountyName"}]},"MapReference":{"ReferenceId":"841813556","SideOfStreet":"neither","StateId":"20248595","CountyId":"20345050","CityId":"20345325","DistrictId":"20345356"}}},{"Relevance":1.0,"Distance":23.2,"MatchLevel":"postalCode","MatchQuality":{"PostalCode":1.0},"MatchType":"interpolated","Location":{"LocationId":"NT_sQgZup4FBq3iCjVv5cTwrC_l_1050449535_L_4gD","LocationType":"point","DisplayPosition":{"Latitude":53.77875,"Longitude":-1.52825},"MapView":{"TopLeft":{"Latitude":53.7877432,"Longitude":-1.5434694},"BottomRight":{"Latitude":53.7697568,"Longitude":-1.5130306}},"Address":{"Label":"LS10 2AP, Leeds, England, United Kingdom","Country":"GBR","State":"England","County":"West Yorkshire","City":"Leeds","PostalCode":"LS10 2AP","AdditionalData":[{"value":"United Kingdom","key":"CountryName"},{"value":"England","key":"StateName"},{"value":"West Yorkshire","key":"CountyName"}]},"MapReference":{"ReferenceId":"1050449535","Spot":0.53,"SideOfStreet":"neither","StateId":"20248595","CountyId":"20345050","CityId":"20345325"}}},{"Relevance":1.0,"Distance":26.0,"MatchLevel":"street","MatchQuality":{"Country":1.0,"State":1.0,"County":1.0,"City":1.0,"District":1.0,"PostalCode":1.0},"Location":{"LocationId":"NT_yko7yMPDgFmFyrdWgLojSC_l_1171051912_L","LocationType":"point","DisplayPosition":{"Latitude":53.7787354,"Longitude":-1.5282065},"MapView":{"TopLeft":{"Latitude":53.77906,"Longitude":-1.52835},"BottomRight":{"Latitude":53.7785,"Longitude":-1.52786}},"Address":{"Label":"Leeds, LS10 2, United Kingdom","Country":"GBR","State":"England","County":"West Yorkshire","City":"Leeds","District":"Hunslet","PostalCode":"LS10 2","AdditionalData":[{"value":"United Kingdom","key":"CountryName"},{"value":"England","key":"StateName"},{"value":"West Yorkshire","key":"CountyName"}]},"MapReference":{"ReferenceId":"1171051912","Spot":0.37,"SideOfStreet":"left","StateId":"20248595","CountyId":"20345050","CityId":"20345325","DistrictId":"20345356"}}},{"Relevance":1.0,"Distance":27.3,"MatchLevel":"houseNumber","MatchQuality":{"Country":1.0,"State":1.0,"County":1.0,"City":1.0,"District":1.0,"Street":[1.0],"HouseNumber":1.0,"PostalCode":1.0},"MatchType":"interpolated","Location":{"LocationId":"NT_sQgZup4FBq3iCjVv5cTwrC_l_1050449535_L_4gD","LocationType":"point","DisplayPosition":{"Latitude":53.7785789,"Longitude":-1.5281974},"MapView":{"TopLeft":{"Latitude":53.7797031,"Longitude":-1.5300998},"BottomRight":{"Latitude":53.7774548,"Longitude":-1.526295}},"Address":{"Label":"88 Church Street, Leeds, LS10 2, United Kingdom","Country":"GBR","State":"England","County":"West Yorkshire","City":"Leeds","District":"Hunslet","Street":"Church Street","HouseNumber":"88","PostalCode":"LS10 2","AdditionalData":[{"value":"United Kingdom","key":"CountryName"},{"value":"England","key":"StateName"},{"value":"West Yorkshire","key":"CountyName"}]},"MapReference":{"ReferenceId":"1050449535","Spot":0.53,"SideOfStreet":"left","StateId":"20248595","CountyId":"20345050","CityId":"20345325","DistrictId":"20345356"}}},{"Relevance":1.0,"Distance":28.4,"MatchLevel":"street","MatchQuality":{"Country":1.0,"State":1.0,"County":1.0,"City":1.0,"District":1.0,"PostalCode":1.0},"Location":{"LocationId":"NT_yko7yMPDgFmFyrdWgLojSC_l_27558908_L","LocationType":"point","DisplayPosition":{"Latitude":53.77878,"Longitude":-1.52806},"MapView":{"TopLeft":{"Latitude":53.77897,"Longitude":-1.52806},"BottomRight":{"Latitude":53.77878,"Longitude":-1.5275}},"Address":{"Label":"Leeds, LS10 2, United Kingdom","Country":"GBR","State":"England","County":"West Yorkshire","City":"Leeds","District":"Hunslet","PostalCode":"LS10 2","AdditionalData":[{"value":"United Kingdom","key":"CountryName"},{"value":"England","key":"StateName"},{"value":"West Yorkshire","key":"CountyName"}]},"MapReference":{"ReferenceId":"27558908","Spot":0.0,"SideOfStreet":"left","StateId":"20248595","CountyId":"20345050","CityId":"20345325","DistrictId":"20345356"}}},{"Relevance":1.0,"Distance":28.4,"MatchLevel":"street","MatchQuality":{"Country":1.0,"State":1.0,"County":1.0,"City":1.0,"District":1.0,"PostalCode":1.0},"Location":{"LocationId":"NT_yko7yMPDgFmFyrdWgLojSC_l_27558907_L","LocationType":"point","DisplayPosition":{"Latitude":53.77878,"Longitude":-1.52806},"MapView":{"TopLeft":{"Latitude":53.77878,"Longitude":-1.52806},"BottomRight":{"Latitude":53.77865,"Longitude":-1.52806}},"Address":{"Label":"Leeds, LS10 2, United Kingdom","Country":"GBR","State":"England","County":"West Yorkshire","City":"Leeds","District":"Hunslet","PostalCode":"LS10 2","AdditionalData":[{"value":"United Kingdom","key":"CountryName"},{"value":"England","key":"StateName"},{"value":"West Yorkshire","key":"CountyName"}]},"MapReference":{"ReferenceId":"27558907","Spot":1.0,"SideOfStreet":"left","StateId":"20248595","CountyId":"20345050","CityId":"20345325","DistrictId":"20345356"}}},{"Relevance":1.0,"Distance":29.5,"MatchLevel":"houseNumber","MatchQuality":{"Country":1.0,"State":1.0,"County":1.0,"City":1.0,"District":1.0,"Street":[1.0],"HouseNumber":1.0,"PostalCode":1.0},"MatchType":"interpolated","Location":{"LocationId":"NT_aIWyq20GNS7ONNJZciGkLB_l_27412007_L_1gD","LocationType":"point","DisplayPosition":{"Latitude":53.77874,"Longitude":-1.52789},"MapView":{"TopLeft":{"Latitude":53.7798642,"Longitude":-1.5297924},"BottomRight":{"Latitude":53.7776159,"Longitude":-1.5259876}},"Address":{"Label":"58 Church Street, Leeds, LS10 2AR, United Kingdom","Country":"GBR","State":"England","County":"West Yorkshire","City":"Leeds","District":"Hunslet","Street":"Church Street","HouseNumber":"58","PostalCode":"LS10 2AR","AdditionalData":[{"value":"United Kingdom","key":"CountryName"},{"value":"England","key":"StateName"},{"value":"West Yorkshire","key":"CountyName"}]},"MapReference":{"ReferenceId":"27412007","Spot":0.3,"SideOfStreet":"left","StateId":"20248595","CountyId":"20345050","CityId":"20345325","DistrictId":"20345356"}}},{"Relevance":1.0,"Distance":37.7,"MatchLevel":"street","MatchQuality":{"Country":1.0,"State":1.0,"County":1.0,"City":1.0,"District":1.0,"PostalCode":1.0},"Location":{"LocationId":"NT_yko7yMPDgFmFyrdWgLojSC_l_1171051911_L","LocationType":"point","DisplayPosition":{"Latitude":53.77906,"Longitude":-1.52786},"MapView":{"TopLeft":{"Latitude":53.77938,"Longitude":-1.5279},"BottomRight":{"Latitude":53.77906,"Longitude":-1.52786}},"Address":{"Label":"Leeds, LS10 2, United Kingdom","Country":"GBR","State":"England","County":"West Yorkshire","City":"Leeds","District":"Hunslet","PostalCode":"LS10 2","AdditionalData":[{"value":"United Kingdom","key":"CountryName"},{"value":"England","key":"StateName"},{"value":"West Yorkshire","key":"CountyName"}]},"MapReference":{"ReferenceId":"1171051911","Spot":0.0,"SideOfStreet":"left","StateId":"20248595","CountyId":"20345050","CityId":"20345325","DistrictId":"20345356"}}},{"Relevance":1.0,"Distance":37.7,"MatchLevel":"street","MatchQuality":{"Country":1.0,"State":1.0,"County":1.0,"City":1.0,"District":1.0,"PostalCode":1.0},"Location":{"LocationId":"NT_yko7yMPDgFmFyrdWgLojSC_l_1171051910_R","LocationType":"point","DisplayPosition":{"Latitude":53.77906,"Longitude":-1.52786},"MapView":{"TopLeft":{"Latitude":53.77912,"Longitude":-1.52786},"BottomRight":{"Latitude":53.77903,"Longitude":-1.52718}},"Address":{"Label":"Leeds, LS10 2, United Kingdom","Country":"GBR","State":"England","County":"West Yorkshire","City":"Leeds","District":"Hunslet","PostalCode":"LS10 2","AdditionalData":[{"value":"United Kingdom","key":"CountryName"},{"value":"England","key":"StateName"},{"value":"West Yorkshire","key":"CountyName"}]},"MapReference":{"ReferenceId":"1171051910","Spot":0.0,"SideOfStreet":"right","StateId":"20248595","CountyId":"20345050","CityId":"20345325","DistrictId":"20345356"}}},{"Relevance":1.0,"Distance":39.1,"MatchLevel":"street","MatchQuality":{"Country":1.0,"State":1.0,"County":1.0,"City":1.0,"District":1.0,"Street":[1.0],"PostalCode":1.0},"Location":{"LocationId":"NT_sn0-efwvstOaQ8tcsD-SOA_l_27412153_R","LocationType":"point","DisplayPosition":{"Latitude":53.77865,"Longitude":-1.52806},"MapView":{"TopLeft":{"Latitude":53.77865,"Longitude":-1.52806},"BottomRight":{"Latitude":53.77819,"Longitude":-1.52733}},"Address":{"Label":"Grove Road, Leeds, LS10 2, United Kingdom","Country":"GBR","State":"England","County":"West Yorkshire","City":"Leeds","District":"Hunslet","Street":"Grove Road","PostalCode":"LS10 2","AdditionalData":[{"value":"United Kingdom","key":"CountryName"},{"value":"England","key":"StateName"},{"value":"West Yorkshire","key":"CountyName"}]},"MapReference":{"ReferenceId":"27412153","Spot":1.0,"SideOfStreet":"right","StateId":"20248595","CountyId":"20345050","CityId":"20345325","DistrictId":"20345356"}}}]}]}}