{"Response":{"MetaInfo":{"Timestamp":"2020-03-28T10:36:00.165+0000","NextPageInformation":"2"},"View":[{"_type":"SearchResultsViewType","ViewId":0,"Result":[{"Relevance":1.0,"Distance":0.0,"Direction":0.0,"MatchLevel":"district","MatchQuality":{"Country":1.0,"State":1.0,"County":1.0,"City":1.0,"District":1.0,"PostalCode":1.0},"Location":{"LocationId":"NT_qhcEmHEaQQ-g3Qr4ArNe7A","LocationType":"point","DisplayPosition":{"Latitude":53.7005841,"Longitude":-1.4175374},"MapView":{"TopLeft":{"Latitude":53.70935,"Longitude":-1.42944},"BottomRight":{"Latitude":53.68444,"Longitude":-1.37383}},"Address":{"Label":"Normanton, England, United Kingdom","Country":"GBR","State":"England","County":"West Yorkshire","City":"Normanton","District":"Normanton","PostalCode":"WF6 1","AdditionalData":[{"value":"United Kingdom","key":"CountryName"},{"value":"England","key":"StateName"},{"value":"West Yorkshire","key":"CountyName"}]},"MapReference":{"ReferenceId":"779345699","SideOfStreet":"neither","StateId":"20248595","CountyId":"20345050","CityId":"20345404","DistrictId":"20345405"}}},{"Relevance":1.0,"Distance":5.9,"MatchLevel":"street","MatchQuality":{"Country":1.0,"State":1.0,"County":1.0,"City":1.0,"District":1.0,"Street":[1.0],"PostalCode":1.0},"Location":{"LocationId":"NT_Mv1CirG12agChlgIaZDAmB_l_872361031_L","LocationType":"point","DisplayPosition":{"Latitude":53.7006271,"Longitude":-1.4174837},"MapView":{"TopLeft":{"Latitude":53.70066,"Longitude":-1.41751},"BottomRight":{"Latitude":53.70036,"Longitude":-1.41727}},"Address":{"Label":"High Street, Normanton, WF6 2, United Kingdom","Country":"GBR","State":"England","County":"West Yorkshire","City":"Normanton","District":"Normanton","Street":"High Street","PostalCode":"WF6 2","AdditionalData":[{"value":"United Kingdom","key":"CountryName"},{"value":"England","key":"StateName"},{"value":"West Yorkshire","key":"CountyName"}]},"MapReference":{"ReferenceId":"872361031","Spot":0.89,"SideOfStreet":"left","StateId":"20248595","CountyId":"20345050","CityId":"20345404","DistrictId":"20345405"}}},{"Relevance":1.0,"Distance":11.8,"MatchLevel":"houseNumber","MatchQuality":{"Country":1.0,"State":1.0,"County":1.0,"City":1.0,"District":1.0,"Street":[1.0],"HouseNumber":1.0,"PostalCode":1.0},"MatchType":"interpolated","Location":{"LocationId":"NT_9yU7m5iYDN6NrikNXKmsMC_l_565914293_R_xcD","LocationType":"point","DisplayPosition":{"Latitude":53.7004016,"Longitude":-1.4178044},"MapView":{"TopLeft":{"Latitude":53.7015258,"Longitude":-1.4197033},"BottomRight":{"Latitude":53.6992775,"Longitude":-1.4159055}},"Address":{"Label":"17 King Edward Street, Normanton, WF6 2, United Kingdom","Country":"GBR","State":"England","County":"West Yorkshire","City":"Normanton","District":"Normanton","Street":"King Edward Street","HouseNumber":"17","PostalCode":"WF6 2","AdditionalData":[{"value":"United Kingdom","key":"CountryName"},{"value":"England","key":"StateName"},{"value":"West Yorkshire","key":"CountyName"}]},"MapReference":{"ReferenceId":"565914293","Spot":0.5,"SideOfStreet":"right","StateId":"20248595","CountyId":"20345050","CityId":"20345404","DistrictId":"20345405"}}},{"Relevance":1.0,"Distance":30.3,"MatchLevel":"street","MatchQuality":{"Country":1.0,"State":1.0,"County":1.0,"City":1.0,"District":1.0,"Street":[1.0],"PostalCode":1.0},"Location":{"LocationId":"NT_Mv1CirG12agChlgIaZDAmB_l_872361029_L","LocationType":"point","DisplayPosition":{"Latitude":53.7003143,"Longitude":-1.4174782},"MapView":{"TopLeft":{"Latitude":53.70036,"Longitude":-1.41768},"BottomRight":{"Latitude":53.70027,"Longitude":-1.41727}},"Address":{"Label":"High Street, Normanton, WF6 2, United Kingdom","Country":"GBR","State":"England","County":"West Yorkshire","City":"Normanton","District":"Normanton","Street":"High Street","PostalCode":"WF6 2","AdditionalData":[{"value":"United Kingdom","key":"CountryName"},{"value":"England","key":"StateName"},{"value":"West Yorkshire","key":"CountyName"}]},"MapReference":{"ReferenceId":"872361029","Spot":0.49,"SideOfStreet":"left","StateId":"20248595","CountyId":"20345050","CityId":"20345404","DistrictId":"20345405"}}},{"Relevance":1.0,"Distance":30.4,"MatchLevel":"houseNumber","MatchQuality":{"Country":1.0,"State":1.0,"County":1.0,"City":1.0,"District":1.0,"Street":[1.0],"HouseNumber":1.0,"PostalCode":1.0},"MatchType":"interpolated","Location":{"LocationId":"NT_Mv1CirG12agChlgIaZDAmB_l_872361030_L_3cD","LocationType":"point","DisplayPosition":{"Latitude":53.7004001,"Longitude":-1.4170498},"MapView":{"TopLeft":{"Latitude":53.7015242,"Longitude":-1.4189487},"BottomRight":{"Latitude":53.6992759,"Longitude":-1.4151509}},"Address":{"Label":"77 High Street, Normanton, WF6 2, United Kingdom","Country":"GBR","State":"England","County":"West Yorkshire","City":"Normanton","District":"Normanton","Street":"High Street","HouseNumber":"77","PostalCode":"WF6 2","AdditionalData":[{"value":"United Kingdom","key":"CountryName"},{"value":"England","key":"StateName"},{"value":"West Yorkshire","key":"CountyName"}]},"MapReference":{"ReferenceId":"872361030","Spot":0.29,"SideOfStreet":"left","StateId":"20248595","CountyId":"20345050","CityId":"20345404","DistrictId":"20345405"}}},{"Relevance":1.0,"Distance":40.1,"MatchLevel":"houseNumber","MatchQuality":{"Country":1.0,"State":1.0,"County":1.0,"City":1.0,"District":1.0,"Street":[1.0],"HouseNumber":1.0,"PostalCode":1.0},"MatchType":"interpolated","Location":{"LocationId":"NT_Mv1CirG12agChlgIaZDAmB_l_565914291_L_3UD","LocationType":"point","DisplayPosition":{"Latitude":53.7001877,"Longitude":-1.417907},"MapView":{"TopLeft":{"Latitude":53.7013118,"Longitude":-1.4198059},"BottomRight":{"Latitude":53.6990635,"Longitude":-1.4160082}},"Address":{"Label":"75 High Street, Normanton, WF6 2AF, United Kingdom","Country":"GBR","State":"England","County":"West Yorkshire","City":"Normanton","District":"Normanton","Street":"High Street","HouseNumber":"75","PostalCode":"WF6 2AF","AdditionalData":[{"value":"United Kingdom","key":"CountryName"},{"value":"England","key":"StateName"},{"value":"West Yorkshire","key":"CountyName"}]},"MapReference":{"ReferenceId":"565914291","Spot":0.78,"SideOfStreet":"left","StateId":"20248595","CountyId":"20345050","CityId":"20345404","DistrictId":"20345405"}}},{"Relevance":1.0,"Distance":51.2,"MatchLevel":"houseNumber","MatchQuality":{"Country":1.0,"State":1.0,"County":1.0,"City":1.0,"District":1.0,"Street":[1.0],"HouseNumber":1.0,"PostalCode":1.0},"MatchType":"interpolated","Location":{"LocationId":"NT_WWLVoiHKKA-5l48toThAIA_l_27061025_L_0A","LocationType":"point","DisplayPosition":{"Latitude":53.7001236,"Longitude":-1.4175577},"MapView":{"TopLeft":{"Latitude":53.7012477,"Longitude":-1.4194565},"BottomRight":{"Latitude":53.6989994,"Longitude":-1.4156588}},"Address":{"Label":"4 Cheapside, Normanton, WF6 2AJ, United Kingdom","Country":"GBR","State":"England","County":"West Yorkshire","City":"Normanton","District":"Normanton","Street":"Cheapside","HouseNumber":"4","PostalCode":"WF6 2AJ","AdditionalData":[{"value":"United Kingdom","key":"CountryName"},{"value":"England","key":"StateName"},{"value":"West Yorkshire","key":"CountyName"}]},"MapReference":{"ReferenceId":"27061025","Spot":0.49,"SideOfStreet":"left","StateId":"20248595","CountyId":"20345050","CityId":"20345404","DistrictId":"20345405"}}},{"Relevance":1.0,"Distance":55.0,"MatchLevel":"postalCode","MatchQuality":{"PostalCode":1.0},"MatchType":"interpolated","Location":{"LocationId":"NT_WWLVoiHKKA-5l48toThAIA_l_27061025_L_0A","LocationType":"point","DisplayPosition":{"Latitude":53.70009,"Longitude":-1.41758},"MapView":{"TopLeft":{"Latitude":53.7090832,"Longitude":-1.4327709},"BottomRight":{"Latitude":53.6910968,"Longitude":-1.4023891}},"Address":{"Label":"WF6 2AJ, Normanton, England, United Kingdom","Country":"GBR","State":"England","County":"West Yorkshire","City":"Normanton","PostalCode":"WF6 2AJ","AdditionalData":[{"value":"United Kingdom","key":"CountryName"},{"value":"England","key":"StateName"},{"value":"West Yorkshire","key":"CountyName"}]},"MapReference":{"ReferenceId":"27061025","Spot":0.49,"SideOfStreet":"neither","StateId":"20248595","CountyId":"20345050","CityId":"20345404"}}},{"Relevance":1.0,"Distance":55.8,"MatchLevel":"street","MatchQuality":{"Country":1.0,"State":1.0,"County":1.0,"City":1.0,"District":1.0,"Street":[1.0],"PostalCode":1.0},"Location":{"LocationId":"NT_BuRiWHYxPDLqmrzWBl8eQB_l_565936915_L","LocationType":"point","DisplayPosition":{"Latitude":53.70103,"Longitude":-1.41715},"MapView":{"TopLeft":{"Latitude":53.70198,"Longitude":-1.41766},"BottomRight":{"Latitude":53.70103,"Longitude":-1.41715}},"Address":{"Label":"Collingwood Road, Normanton, WF6 2, United Kingdom","Country":"GBR","State":"England","County":"West Yorkshire","City":"Normanton","District":"Normanton","Street":"Collingwood Road","PostalCode":"WF6 2","AdditionalData":[{"value":"United Kingdom","key":"CountryName"},{"value":"England","key":"StateName"},{"value":"West Yorkshire","key":"CountyName"}]},"MapReference":{"ReferenceId":"565936915","Spot":0.0,"SideOfStreet":"left","StateId":"20248595","CountyId":"20345050","CityId":"20345404","DistrictId":"20345405"}}},{"Relevance":1.0,"Distance":55.8,"MatchLevel":"street","MatchQuality":{"Country":1.0,"State":1.0,"County":1.0,"City":1.0,"District":1.0,"Street":[1.0],"PostalCode":1.0},"Location":{"LocationId":"NT_BuRiWHYxPDLqmrzWBl8eQB_l_27060633_L","LocationType":"point","DisplayPosition":{"Latitude":53.70103,"Longitude":-1.41715},"MapView":{"TopLeft":{"Latitude":53.70112,"Longitude":-1.41715},"BottomRight":{"Latitude":53.70099,"Longitude":-1.41596}},"Address":{"Label":"Collingwood Road, Normanton, WF6 2, United Kingdom","Country":"GBR","State":"England","County":"West Yorkshire","City":"Normanton","District":"Normanton","Street":"Collingwood Road","PostalCode":"WF6 2","AdditionalData":[{"value":"United Kingdom","key":"CountryName"},{"value":"England","key":"StateName"},{"value":"West Yorkshire","key":"CountyName"}]},"MapReference":{"ReferenceId":"27060633","Spot":1.0,"SideOfStreet":"left","StateId":"20248595","CountyId":"20345050","CityId":"20345404","DistrictId":"20345405"}}}]}]}}