{"Response":{"MetaInfo":{"Timestamp":"2020-03-28T11:56:54.255+0000","NextPageInformation":"2"},"View":[{"_type":"SearchResultsViewType","ViewId":0,"Result":[{"Relevance":1.0,"Distance":0.0,"Direction":0.0,"MatchLevel":"district","MatchQuality":{"Country":1.0,"State":1.0,"County":1.0,"City":1.0,"District":1.0,"PostalCode":1.0},"Location":{"LocationId":"NT_qV7fF-mNeV1VXA8N6TOiaC","LocationType":"point","DisplayPosition":{"Latitude":53.7308171,"Longitude":-1.4967217},"MapView":{"TopLeft":{"Latitude":53.73565,"Longitude":-1.50726},"BottomRight":{"Latitude":53.72079,"Longitude":-1.48302}},"Address":{"Label":"Lofthouse, Wakefield, England, United Kingdom","Country":"GBR","State":"England","County":"West Yorkshire","City":"Wakefield","District":"Lofthouse","PostalCode":"WF3 3","AdditionalData":[{"value":"United Kingdom","key":"CountryName"},{"value":"England","key":"StateName"},{"value":"West Yorkshire","key":"CountyName"}]},"MapReference":{"ReferenceId":"1083271207","SideOfStreet":"neither","StateId":"20248595","CountyId":"20345050","CityId":"20345470","DistrictId":"20345496"}}},{"Relevance":1.0,"Distance":6.8,"MatchLevel":"landmark","MatchQuality":{"Country":1.0,"State":1.0,"County":1.0,"City":1.0,"District":1.0,"PostalCode":1.0,"Name":1.0},"Location":{"LocationId":"NT_eOTrT6Ur0Q7Cb.9NNGmKhA","LocationType":"park","Name":"Lofthouse Millennium Green","DisplayPosition":{"Latitude":53.73044,"Longitude":-1.49676},"MapView":{"TopLeft":{"Latitude":53.73084,"Longitude":-1.49715},"BottomRight":{"Latitude":53.73004,"Longitude":-1.4962}},"Address":{"Label":"Wakefield, WF3 3, United Kingdom","Country":"GBR","State":"England","County":"West Yorkshire","City":"Wakefield","District":"Lofthouse","PostalCode":"WF3 3","AdditionalData":[{"value":"United Kingdom","key":"CountryName"},{"value":"England","key":"StateName"},{"value":"West Yorkshire","key":"CountyName"}]},"MapReference":{"StateId":"20248595","CountyId":"20345050","CityId":"20345470","DistrictId":"20345496","PlaceId":"1511297225"}}},{"Relevance":1.0,"Distance":12.1,"MatchLevel":"houseNumber","MatchQuality":{"Country":1.0,"State":1.0,"County":1.0,"City":1.0,"District":1.0,"Street":[1.0],"HouseNumber":1.0,"PostalCode":1.0},"MatchType":"interpolated","Location":{"LocationId":"NT_jvificCin9mMxV6EcIvNVA_l_1083271209_R_xID","LocationType":"point","DisplayPosition":{"Latitude":53.7307086,"Longitude":-1.4965781},"MapView":{"TopLeft":{"Latitude":53.7318327,"Longitude":-1.4984784},"BottomRight":{"Latitude":53.7295844,"Longitude":-1.4946779}},"Address":{"Label":"12 Temple View, Wakefield, WF3 3, United Kingdom","Country":"GBR","State":"England","County":"West Yorkshire","City":"Wakefield","District":"Lofthouse","Street":"Temple View","HouseNumber":"12","PostalCode":"WF3 3","AdditionalData":[{"value":"United Kingdom","key":"CountryName"},{"value":"England","key":"StateName"},{"value":"West Yorkshire","key":"CountyName"}]},"MapReference":{"ReferenceId":"1083271209","Spot":0.52,"SideOfStreet":"right","StateId":"20248595","CountyId":"20345050","CityId":"20345470","DistrictId":"20345496"}}},{"Relevance":1.0,"Distance":12.4,"MatchLevel":"houseNumber","MatchQuality":{"Country":1.0,"State":1.0,"County":1.0,"City":1.0,"District":1.0,"Street":[1.0],"HouseNumber":1.0,"PostalCode":1.0},"MatchType":"interpolated","Location":{"LocationId":"NT_NRL-Jr.tHDM0vx-2LkqleD_l_27426134_R_yA","LocationType":"point","DisplayPosition":{"Latitude":53.73095,"Longitude":-1.49679},"MapView":{"TopLeft":{"Latitude":53.7320742,"Longitude":-1.4986903},"BottomRight":{"Latitude":53.7298259,"Longitude":-1.4948897}},"Address":{"Label":"2 Carlton Lane, Wakefield, WF3 3LJ, United Kingdom","Country":"GBR","State":"England","County":"West Yorkshire","City":"Wakefield","District":"Lofthouse","Street":"Carlton Lane","HouseNumber":"2","PostalCode":"WF3 3LJ","AdditionalData":[{"value":"United Kingdom","key":"CountryName"},{"value":"England","key":"StateName"},{"value":"West Yorkshire","key":"CountyName"}]},"MapReference":{"ReferenceId":"27426134","Spot":0.33,"SideOfStreet":"right","StateId":"20248595","CountyId":"20345050","CityId":"20345470","DistrictId":"20345496"}}},{"Relevance":1.0,"Distance":12.6,"MatchLevel":"street","MatchQuality":{"Country":1.0,"State":1.0,"County":1.0,"City":1.0,"District":1.0,"Street":[1.0],"PostalCode":1.0},"Location":{"LocationId":"NT_NRL-Jr.tHDM0vx-2LkqleD_l_27426180_R","LocationType":"point","DisplayPosition":{"Latitude":53.73084,"Longitude":-1.49691},"MapView":{"TopLeft":{"Latitude":53.73084,"Longitude":-1.49715},"BottomRight":{"Latitude":53.73068,"Longitude":-1.49691}},"Address":{"Label":"Carlton Lane, Wakefield, WF3 3, United Kingdom","Country":"GBR","State":"England","County":"West Yorkshire","City":"Wakefield","District":"Lofthouse","Street":"Carlton Lane","PostalCode":"WF3 3","AdditionalData":[{"value":"United Kingdom","key":"CountryName"},{"value":"England","key":"StateName"},{"value":"West Yorkshire","key":"CountyName"}]},"MapReference":{"ReferenceId":"27426180","Spot":1.0,"SideOfStreet":"right","StateId":"20248595","CountyId":"20345050","CityId":"20345470","DistrictId":"20345496"}}},{"Relevance":1.0,"Distance":32.0,"MatchLevel":"street","MatchQuality":{"Country":1.0,"State":1.0,"County":1.0,"City":1.0,"District":1.0,"Street":[1.0],"PostalCode":1.0},"Location":{"LocationId":"NT_b58iPj55UrammmTUBB.csA_l_1228111650_R","LocationType":"point","DisplayPosition":{"Latitude":53.73068,"Longitude":-1.49715},"MapView":{"TopLeft":{"Latitude":53.7309,"Longitude":-1.49729},"BottomRight":{"Latitude":53.73068,"Longitude":-1.49715}},"Address":{"Label":"Leeds Road, Wakefield, WF3 3, United Kingdom","Country":"GBR","State":"England","County":"West Yorkshire","City":"Wakefield","District":"Lofthouse","Street":"Leeds Road","PostalCode":"WF3 3","AdditionalData":[{"value":"United Kingdom","key":"CountryName"},{"value":"England","key":"StateName"},{"value":"West Yorkshire","key":"CountyName"}]},"MapReference":{"ReferenceId":"1228111650","Spot":0.0,"SideOfStreet":"right","StateId":"20248595","CountyId":"20345050","CityId":"20345470","DistrictId":"20345496"}}},{"Relevance":1.0,"Distance":38.5,"MatchLevel":"street","MatchQuality":{"Country":1.0,"State":1.0,"County":1.0,"City":1.0,"District":1.0,"Street":[1.0],"PostalCode":1.0},"Location":{"LocationId":"NT_EMeUQVFIQNkhhDJFGk4H5A_l_1228111651_R","LocationType":"point","DisplayPosition":{"Latitude":53.7309,"Longitude":-1.49729},"MapView":{"TopLeft":{"Latitude":53.73142,"Longitude":-1.49777},"BottomRight":{"Latitude":53.7309,"Longitude":-1.49729}},"Address":{"Label":"Leeds Road, Wakefield, WF3 3, United Kingdom","Country":"GBR","State":"England","County":"West Yorkshire","City":"Wakefield","District":"Lofthouse","Street":"Leeds Road","PostalCode":"WF3 3","AdditionalData":[{"value":"United Kingdom","key":"CountryName"},{"value":"England","key":"StateName"},{"value":"West Yorkshire","key":"CountyName"}]},"MapReference":{"ReferenceId":"1228111651","Spot":0.0,"SideOfStreet":"right","StateId":"20248595","CountyId":"20345050","CityId":"20345470","DistrictId":"20345496"}}},{"Relevance":1.0,"Distance":41.7,"MatchLevel":"houseNumber","MatchQuality":{"Country":1.0,"State":1.0,"County":1.0,"City":1.0,"District":1.0,"Street":[1.0],"HouseNumber":1.0,"PostalCode":1.0},"MatchType":"interpolated","Location":{"LocationId":"NT_b58iPj55UrammmTUBB.csA_l_1083271207_R_yMDM","LocationType":"point","DisplayPosition":{"Latitude":53.7304306,"Longitude":-1.4970759},"MapView":{"TopLeft":{"Latitude":53.7315548,"Longitude":-1.4989761},"BottomRight":{"Latitude":53.7293065,"Longitude":-1.4951756}},"Address":{"Label":"230 Leeds Road, Wakefield, WF3 3LS, United Kingdom","Country":"GBR","State":"England","County":"West Yorkshire","City":"Wakefield","District":"Lofthouse","Street":"Leeds Road","HouseNumber":"230","PostalCode":"WF3 3LS","AdditionalData":[{"value":"United Kingdom","key":"CountryName"},{"value":"England","key":"StateName"},{"value":"West Yorkshire","key":"CountyName"}]},"MapReference":{"ReferenceId":"1083271207","Spot":0.57,"SideOfStreet":"right","StateId":"20248595","CountyId":"20345050","CityId":"20345470","DistrictId":"20345496"}}},{"Relevance":1.0,"Distance":47.6,"MatchLevel":"houseNumber","MatchQuality":{"Country":1.0,"State":1.0,"County":1.0,"City":1.0,"District":1.0,"Street":[1.0],"HouseNumber":1.0,"PostalCode":1.0},"MatchType":"interpolated","Location":{"LocationId":"NT_NRL-Jr.tHDM0vx-2LkqleD_l_27426027_R_4A","LocationType":"point","DisplayPosition":{"Latitude":53.73127,"Longitude":-1.49671},"MapView":{"TopLeft":{"Latitude":53.7323942,"Longitude":-1.4986103},"BottomRight":{"Latitude":53.7301459,"Longitude":-1.4948097}},"Address":{"Label":"8 Carlton Lane, Wakefield, WF3 3LJ, United Kingdom","Country":"GBR","State":"England","County":"West Yorkshire","City":"Wakefield","District":"Lofthouse","Street":"Carlton Lane","HouseNumber":"8","PostalCode":"WF3 3LJ","AdditionalData":[{"value":"United Kingdom","key":"CountryName"},{"value":"England","key":"StateName"},{"value":"West Yorkshire","key":"CountyName"}]},"MapReference":{"ReferenceId":"27426027","Spot":0.0,"SideOfStreet":"right","StateId":"20248595","CountyId":"20345050","CityId":"20345470","DistrictId":"20345496"}}},{"Relevance":1.0,"Distance":50.6,"MatchLevel":"houseNumber","MatchQuality":{"Country":1.0,"State":1.0,"County":1.0,"City":1.0,"District":1.0,"Street":[1.0],"HouseNumber":1.0,"PostalCode":1.0},"MatchType":"interpolated","Location":{"LocationId":"NT_L2yWWMfv4KomAGGAYBBEZB_l_27426270_L_4ED","LocationType":"point","DisplayPosition":{"Latitude":53.7308817,"Longitude":-1.4957894},"MapView":{"TopLeft":{"Latitude":53.7320059,"Longitude":-1.4976897},"BottomRight":{"Latitude":53.7297576,"Longitude":-1.4938891}},"Address":{"Label":"81 Greenmoor Avenue, Wakefield, WF3 3LG, United Kingdom","Country":"GBR","State":"England","County":"West Yorkshire","City":"Wakefield","District":"Lofthouse","Street":"Greenmoor Avenue","HouseNumber":"81","PostalCode":"WF3 3LG","AdditionalData":[{"value":"United Kingdom","key":"CountryName"},{"value":"England","key":"StateName"},{"value":"West Yorkshire","key":"CountyName"}]},"MapReference":{"ReferenceId":"27426270","Spot":0.8,"SideOfStreet":"left","StateId":"20248595","CountyId":"20345050","CityId":"20345470","DistrictId":"20345496"}}}]}]}}