{"Response":{"MetaInfo":{"Timestamp":"2020-03-28T10:04:13.041+0000","NextPageInformation":"2"},"View":[{"_type":"SearchResultsViewType","ViewId":0,"Result":[{"Relevance":1.0,"Distance":0.0,"Direction":0.0,"MatchLevel":"district","MatchQuality":{"Country":1.0,"State":1.0,"County":1.0,"City":1.0,"District":1.0,"PostalCode":1.0},"Location":{"LocationId":"NT_PhMjytnWyUhIJWQ5Kvq3dB","LocationType":"point","DisplayPosition":{"Latitude":53.7623786,"Longitude":9.6354696},"MapView":{"TopLeft":{"Latitude":53.77939,"Longitude":9.63208},"BottomRight":{"Latitude":53.72676,"Longitude":9.70701}},"Address":{"Label":"Elmshorn, Schleswig-Holstein, Deutschland","Country":"DEU","State":"Schleswig-Holstein","County":"Pinneberg","City":"Elmshorn","District":"Elmshorn","PostalCode":"25335","AdditionalData":[{"value":"Deutschland","key":"CountryName"},{"value":"Schleswig-Holstein","key":"StateName"},{"value":"Pinneberg","key":"CountyName"}]},"MapReference":{"ReferenceId":"1268032370","SideOfStreet":"neither","CountryId":"20147700","StateId":"20147701","CountyId":"20149202","CityId":"20149237","DistrictId":"20149239"}}},{"Relevance":1.0,"Distance":2.0,"MatchLevel":"houseNumber","MatchQuality":{"Country":1.0,"State":1.0,"County":1.0,"City":1.0,"District":1.0,"Street":[1.0],"HouseNumber":1.0,"PostalCode":1.0},"MatchType":"interpolated","Location":{"LocationId":"NT_tjxtJjtULr73KfazfxiX.B_1ID","LocationType":"point","DisplayPosition":{"Latitude":53.76218,"Longitude":9.63576},"MapView":{"TopLeft":{"Latitude":53.7633042,"Longitude":9.6338583},"BottomRight":{"Latitude":53.7610558,"Longitude":9.6376617}},"Address":{"Label":"Hasenbusch 52, 25335 Elmshorn, Deutschland","Country":"DEU","State":"Schleswig-Holstein","County":"Pinneberg","City":"Elmshorn","District":"Elmshorn","Street":"Hasenbusch","HouseNumber":"52","PostalCode":"25335","AdditionalData":[{"value":"Deutschland","key":"CountryName"},{"value":"Schleswig-Holstein","key":"StateName"},{"value":"Pinneberg","key":"CountyName"}]},"MapReference":{"ReferenceId":"999106096","Spot":0.98,"SideOfStreet":"left","CountryId":"20147700","StateId":"20147701","CountyId":"20149202","CityId":"20149237","DistrictId":"20149239","AddressId":"196445957","RoadLinkId":"325402645"}}},{"Relevance":1.0,"Distance":40.6,"MatchLevel":"houseNumber","MatchQuality":{"Country":1.0,"State":1.0,"County":1.0,"City":1.0,"District":1.0,"Street":[1.0],"HouseNumber":1.0,"PostalCode":1.0},"MatchType":"interpolated","Location":{"LocationId":"NT_tjxtJjtULr73KfazfxiX.B_1AD","LocationType":"point","DisplayPosition":{"Latitude":53.76239,"Longitude":9.63623},"MapView":{"TopLeft":{"Latitude":53.7635142,"Longitude":9.6343283},"BottomRight":{"Latitude":53.7612658,"Longitude":9.6381317}},"Address":{"Label":"Hasenbusch 50, 25335 Elmshorn, Deutschland","Country":"DEU","State":"Schleswig-Holstein","County":"Pinneberg","City":"Elmshorn","District":"Elmshorn","Street":"Hasenbusch","HouseNumber":"50","PostalCode":"25335","AdditionalData":[{"value":"Deutschland","key":"CountryName"},{"value":"Schleswig-Holstein","key":"StateName"},{"value":"Pinneberg","key":"CountyName"}]},"MapReference":{"ReferenceId":"999106097","Spot":0.35,"SideOfStreet":"left","CountryId":"20147700","StateId":"20147701","CountyId":"20149202","CityId":"20149237","DistrictId":"20149239","AddressId":"196069925","RoadLinkId":"325402646"}}},{"Relevance":1.0,"Distance":52.4,"MatchLevel":"houseNumber","MatchQuality":{"Country":1.0,"State":1.0,"County":1.0,"City":1.0,"District":1.0,"Street":[1.0],"HouseNumber":1.0,"PostalCode":1.0},"MatchType":"interpolated","Location":{"LocationId":"NT_eXL9Td1N4N.0GbLF.4ZnVD_xcD","LocationType":"point","DisplayPosition":{"Latitude":53.76292,"Longitude":9.63527},"MapView":{"TopLeft":{"Latitude":53.7640442,"Longitude":9.6333683},"BottomRight":{"Latitude":53.7617958,"Longitude":9.6371717}},"Address":{"Label":"Dietrich-Bonhoeffer-Straße 17, 25335 Elmshorn, Deutschland","Country":"DEU","State":"Schleswig-Holstein","County":"Pinneberg","City":"Elmshorn","District":"Elmshorn","Street":"Dietrich-Bonhoeffer-Straße","HouseNumber":"17","PostalCode":"25335","AdditionalData":[{"value":"Deutschland","key":"CountryName"},{"value":"Schleswig-Holstein","key":"StateName"},{"value":"Pinneberg","key":"CountyName"}]},"MapReference":{"ReferenceId":"60102513","Spot":0.0,"SideOfStreet":"left","CountryId":"20147700","StateId":"20147701","CountyId":"20149202","CityId":"20149237","DistrictId":"20149239","AddressId":"249097091","RoadLinkId":"37170088"}}},{"Relevance":1.0,"Distance":55.7,"MatchLevel":"houseNumber","MatchQuality":{"Country":1.0,"State":1.0,"County":1.0,"City":1.0,"Street":[1.0],"HouseNumber":1.0,"PostalCode":1.0},"MatchType":"interpolated","Location":{"LocationId":"NT_asXq6xTmsrhYMw4wL8k6AA_xEE","LocationType":"point","DisplayPosition":{"Latitude":53.76191,"Longitude":9.63517},"MapView":{"TopLeft":{"Latitude":53.7630342,"Longitude":9.6332683},"BottomRight":{"Latitude":53.7607858,"Longitude":9.6370717}},"Address":{"Label":"Siethwender Chaussee 1A, 25335 Raa-Besenbek, Deutschland","Country":"DEU","State":"Schleswig-Holstein","County":"Pinneberg","City":"Raa-Besenbek","Street":"Siethwender Chaussee","HouseNumber":"1A","PostalCode":"25335","AdditionalData":[{"value":"Deutschland","key":"CountryName"},{"value":"Schleswig-Holstein","key":"StateName"},{"value":"Pinneberg","key":"CountyName"}]},"MapReference":{"ReferenceId":"51642727","Spot":0.66,"SideOfStreet":"right","CountryId":"20147700","StateId":"20147701","CountyId":"20149202","CityId":"20149325","AddressId":"192591776","RoadLinkId":"37087630"}}},{"Relevance":1.0,"Distance":56.7,"MatchLevel":"houseNumber","MatchQuality":{"Country":1.0,"State":1.0,"County":1.0,"City":1.0,"District":1.0,"Street":[1.0],"HouseNumber":1.0,"PostalCode":1.0},"MatchType":"interpolated","Location":{"LocationId":"NT_l-9nKu2oJzVZ8N2f9k0ByA_1MD","LocationType":"point","DisplayPosition":{"Latitude":53.76144,"Longitude":9.63663},"MapView":{"TopLeft":{"Latitude":53.7625642,"Longitude":9.6347284},"BottomRight":{"Latitude":53.7603158,"Longitude":9.6385316}},"Address":{"Label":"Finkenstieg 53, 25335 Elmshorn, Deutschland","Country":"DEU","State":"Schleswig-Holstein","County":"Pinneberg","City":"Elmshorn","District":"Elmshorn","Street":"Finkenstieg","HouseNumber":"53","PostalCode":"25335","AdditionalData":[{"value":"Deutschland","key":"CountryName"},{"value":"Schleswig-Holstein","key":"StateName"},{"value":"Pinneberg","key":"CountyName"}]},"MapReference":{"ReferenceId":"51642733","Spot":0.0,"SideOfStreet":"left","CountryId":"20147700","StateId":"20147701","CountyId":"20149202","CityId":"20149237","DistrictId":"20149239","AddressId":"249114948","RoadLinkId":"36324889"}}},{"Relevance":1.0,"Distance":105.3,"MatchLevel":"houseNumber","MatchQuality":{"Country":1.0,"State":1.0,"County":1.0,"City":1.0,"District":1.0,"Street":[1.0],"HouseNumber":1.0,"PostalCode":1.0},"MatchType":"interpolated","Location":{"LocationId":"NT_NfFi7.pKlvlF9jK1ihyVeA_xA","LocationType":"point","DisplayPosition":{"Latitude":53.76163,"Longitude":9.63452},"MapView":{"TopLeft":{"Latitude":53.7627542,"Longitude":9.6326184},"BottomRight":{"Latitude":53.7605058,"Longitude":9.6364216}},"Address":{"Label":"Baumschulenweg 1, 25335 Raa-Besenbek, Deutschland","Country":"DEU","State":"Schleswig-Holstein","County":"Pinneberg","City":"Raa-Besenbek","District":"Besenbek","Street":"Baumschulenweg","HouseNumber":"1","PostalCode":"25335","AdditionalData":[{"value":"Deutschland","key":"CountryName"},{"value":"Schleswig-Holstein","key":"StateName"},{"value":"Pinneberg","key":"CountyName"}]},"MapReference":{"ReferenceId":"539181666","Spot":0.9,"SideOfStreet":"right","CountryId":"20147700","StateId":"20147701","CountyId":"20149202","CityId":"20149325","DistrictId":"20381534","AddressId":"194346119","RoadLinkId":"36371861"}}},{"Relevance":1.0,"Distance":106.9,"MatchLevel":"houseNumber","MatchQuality":{"Country":1.0,"State":1.0,"County":1.0,"City":1.0,"District":1.0,"Street":[1.0],"HouseNumber":1.0,"PostalCode":1.0},"MatchType":"interpolated","Location":{"LocationId":"NT_QWI0gbWYJroU6tB6NzBnIA_zcD","LocationType":"point","DisplayPosition":{"Latitude":53.76191,"Longitude":9.63787},"MapView":{"TopLeft":{"Latitude":53.7630342,"Longitude":9.6359683},"BottomRight":{"Latitude":53.7607858,"Longitude":9.6397717}},"Address":{"Label":"Meisenweg 37, 25335 Elmshorn, Deutschland","Country":"DEU","State":"Schleswig-Holstein","County":"Pinneberg","City":"Elmshorn","District":"Elmshorn","Street":"Meisenweg","HouseNumber":"37","PostalCode":"25335","AdditionalData":[{"value":"Deutschland","key":"CountryName"},{"value":"Schleswig-Holstein","key":"StateName"},{"value":"Pinneberg","key":"CountyName"}]},"MapReference":{"ReferenceId":"51642729","Spot":0.48,"SideOfStreet":"left","CountryId":"20147700","StateId":"20147701","CountyId":"20149202","CityId":"20149237","DistrictId":"20149239","AddressId":"195686239","RoadLinkId":"36695839"}}},{"Relevance":1.0,"Distance":111.3,"MatchLevel":"houseNumber","MatchQuality":{"Country":1.0,"State":1.0,"County":1.0,"City":1.0,"District":1.0,"Street":[1.0],"HouseNumber":1.0,"PostalCode":1.0},"MatchType":"interpolated","Location":{"LocationId":"NT_FzxJrK9WhlotF2r9EufMOC_xA","LocationType":"point","DisplayPosition":{"Latitude":53.76295,"Longitude":9.63714},"MapView":{"TopLeft":{"Latitude":53.7640742,"Longitude":9.6352383},"BottomRight":{"Latitude":53.7618258,"Longitude":9.6390417}},"Address":{"Label":"Anne-Frank-Straße 1, 25335 Elmshorn, Deutschland","Country":"DEU","State":"Schleswig-Holstein","County":"Pinneberg","City":"Elmshorn","District":"Elmshorn","Street":"Anne-Frank-Straße","HouseNumber":"1","PostalCode":"25335","AdditionalData":[{"value":"Deutschland","key":"CountryName"},{"value":"Schleswig-Holstein","key":"StateName"},{"value":"Pinneberg","key":"CountyName"}]},"MapReference":{"ReferenceId":"60102510","Spot":0.32,"SideOfStreet":"left","CountryId":"20147700","StateId":"20147701","CountyId":"20149202","CityId":"20149237","DistrictId":"20149239","AddressId":"195896944","RoadLinkId":"36464150"}}},{"Relevance":1.0,"Distance":117.8,"MatchLevel":"houseNumber","MatchQuality":{"Country":1.0,"State":1.0,"County":1.0,"City":1.0,"Street":[1.0],"HouseNumber":1.0,"PostalCode":1.0},"MatchType":"interpolated","Location":{"LocationId":"NT_asXq6xTmsrhYMw4wL8k6AA_xA","LocationType":"point","DisplayPosition":{"Latitude":53.76206,"Longitude":9.63376},"MapView":{"TopLeft":{"Latitude":53.7631842,"Longitude":9.6318583},"BottomRight":{"Latitude":53.7609358,"Longitude":9.6356617}},"Address":{"Label":"Siethwender Chaussee 1, 25335 Raa-Besenbek, Deutschland","Country":"DEU","State":"Schleswig-Holstein","County":"Pinneberg","City":"Raa-Besenbek","Street":"Siethwender Chaussee","HouseNumber":"1","PostalCode":"25335","AdditionalData":[{"value":"Deutschland","key":"CountryName"},{"value":"Schleswig-Holstein","key":"StateName"},{"value":"Pinneberg","key":"CountyName"}]},"MapReference":{"ReferenceId":"993133617","Spot":0.25,"SideOfStreet":"left","CountryId":"20147700","StateId":"20147701","CountyId":"20149202","CityId":"20149325","AddressId":"194437050","RoadLinkId":"321676621"}}}]}]}}