{"Response":{"MetaInfo":{"Timestamp":"2020-03-28T11:58:40.884+0000","NextPageInformation":"2"},"View":[{"_type":"SearchResultsViewType","ViewId":0,"Result":[{"Relevance":1.0,"Distance":0.0,"Direction":0.0,"MatchLevel":"district","MatchQuality":{"Country":1.0,"State":1.0,"County":1.0,"City":1.0,"District":1.0,"PostalCode":1.0},"Location":{"LocationId":"NT_sV99qlsuj9KP0APkJFizbA","LocationType":"point","DisplayPosition":{"Latitude":53.7115666,"Longitude":-1.5097218},"MapView":{"TopLeft":{"Latitude":53.72392,"Longitude":-1.55205},"BottomRight":{"Latitude":53.63084,"Longitude":-1.45154}},"Address":{"Label":"Wakefield, England, United Kingdom","Country":"GBR","State":"England","County":"West Yorkshire","City":"Wakefield","District":"Wakefield","PostalCode":"WF2 9","AdditionalData":[{"value":"United Kingdom","key":"CountryName"},{"value":"England","key":"StateName"},{"value":"West Yorkshire","key":"CountyName"}]},"MapReference":{"ReferenceId":"27068375","SideOfStreet":"neither","StateId":"20248595","CountyId":"20345050","CityId":"20345470","DistrictId":"20345471"}}},{"Relevance":1.0,"Distance":40.7,"MatchLevel":"street","MatchQuality":{"Country":1.0,"State":1.0,"County":1.0,"City":1.0,"District":1.0,"PostalCode":1.0},"Location":{"LocationId":"NT_LoSZ8r-n-dcXTQZSqY5HGC_l_27554901_L","LocationType":"point","DisplayPosition":{"Latitude":53.71137,"Longitude":-1.5092},"MapView":{"TopLeft":{"Latitude":53.71163,"Longitude":-1.5092},"BottomRight":{"Latitude":53.71137,"Longitude":-1.508}},"Address":{"Label":"Wakefield, WF1 2, United Kingdom","Country":"GBR","State":"England","County":"West Yorkshire","City":"Wakefield","District":"Outwood","PostalCode":"WF1 2","AdditionalData":[{"value":"United Kingdom","key":"CountryName"},{"value":"England","key":"StateName"},{"value":"West Yorkshire","key":"CountyName"}]},"MapReference":{"ReferenceId":"27554901","Spot":0.0,"SideOfStreet":"left","StateId":"20248595","CountyId":"20345050","CityId":"20345470","DistrictId":"20345507"}}},{"Relevance":1.0,"Distance":52.5,"MatchLevel":"houseNumber","MatchQuality":{"Country":1.0,"State":1.0,"County":1.0,"City":1.0,"District":1.0,"Street":[1.0],"HouseNumber":1.0,"PostalCode":1.0},"MatchType":"interpolated","Location":{"LocationId":"NT_N-ywr6FuNxLRsL1Lo4KcCB_l_1027981633_L_xgDO","LocationType":"point","DisplayPosition":{"Latitude":53.711895,"Longitude":-1.510295},"MapView":{"TopLeft":{"Latitude":53.7130192,"Longitude":-1.5121944},"BottomRight":{"Latitude":53.7107709,"Longitude":-1.5083956}},"Address":{"Label":"188 Potovens Lane, Wakefield, WF1 2PD, United Kingdom","Country":"GBR","State":"England","County":"West Yorkshire","City":"Wakefield","District":"Wakefield","Street":"Potovens Lane","HouseNumber":"188","PostalCode":"WF1 2PD","AdditionalData":[{"value":"United Kingdom","key":"CountryName"},{"value":"England","key":"StateName"},{"value":"West Yorkshire","key":"CountyName"}]},"MapReference":{"ReferenceId":"1027981633","Spot":0.5,"SideOfStreet":"left","StateId":"20248595","CountyId":"20345050","CityId":"20345470","DistrictId":"20345471"}}},{"Relevance":1.0,"Distance":57.1,"MatchLevel":"postalCode","MatchQuality":{"PostalCode":1.0},"MatchType":"interpolated","Location":{"LocationId":"NT_N-ywr6FuNxLRsL1Lo4KcCB_l_1027981633_L_xgDO","LocationType":"point","DisplayPosition":{"Latitude":53.71196,"Longitude":-1.51028},"MapView":{"TopLeft":{"Latitude":53.7209532,"Longitude":-1.5254752},"BottomRight":{"Latitude":53.7029668,"Longitude":-1.4950848}},"Address":{"Label":"WF1 2PD, Wakefield, England, United Kingdom","Country":"GBR","State":"England","County":"West Yorkshire","City":"Wakefield","PostalCode":"WF1 2PD","AdditionalData":[{"value":"United Kingdom","key":"CountryName"},{"value":"England","key":"StateName"},{"value":"West Yorkshire","key":"CountyName"}]},"MapReference":{"ReferenceId":"1027981633","Spot":0.5,"SideOfStreet":"neither","StateId":"20248595","CountyId":"20345050","CityId":"20345470"}}},{"Relevance":1.0,"Distance":80.8,"MatchLevel":"houseNumber","MatchQuality":{"Country":1.0,"State":1.0,"County":1.0,"City":1.0,"District":1.0,"Street":[1.0],"HouseNumber":1.0,"PostalCode":1.0},"MatchType":"interpolated","Location":{"LocationId":"NT_N-ywr6FuNxLRsL1Lo4KcCB_l_1027981632_L_xkjM","LocationType":"point","DisplayPosition":{"Latitude":53.7115,"Longitude":-1.510945},"MapView":{"TopLeft":{"Latitude":53.7126242,"Longitude":-1.5128444},"BottomRight":{"Latitude":53.7103759,"Longitude":-1.5090456}},"Address":{"Label":"192 Potovens Lane, Wakefield, WF1 2PE, United Kingdom","Country":"GBR","State":"England","County":"West Yorkshire","City":"Wakefield","District":"Wakefield","Street":"Potovens Lane","HouseNumber":"192","PostalCode":"WF1 2PE","AdditionalData":[{"value":"United Kingdom","key":"CountryName"},{"value":"England","key":"StateName"},{"value":"West Yorkshire","key":"CountyName"}]},"MapReference":{"ReferenceId":"1027981632","Spot":0.5,"SideOfStreet":"left","StateId":"20248595","CountyId":"20345050","CityId":"20345470","DistrictId":"20345471"}}},{"Relevance":1.0,"Distance":81.6,"MatchLevel":"postalCode","MatchQuality":{"PostalCode":1.0},"MatchType":"interpolated","Location":{"LocationId":"NT_N-ywr6FuNxLRsL1Lo4KcCB_l_1027981634_L_xgjN","LocationType":"point","DisplayPosition":{"Latitude":53.7123,"Longitude":-1.50971},"MapView":{"TopLeft":{"Latitude":53.7212932,"Longitude":-1.5249053},"BottomRight":{"Latitude":53.7033068,"Longitude":-1.4945147}},"Address":{"Label":"WF1 2NZ, Wakefield, England, United Kingdom","Country":"GBR","State":"England","County":"West Yorkshire","City":"Wakefield","PostalCode":"WF1 2NZ","AdditionalData":[{"value":"United Kingdom","key":"CountryName"},{"value":"England","key":"StateName"},{"value":"West Yorkshire","key":"CountyName"}]},"MapReference":{"ReferenceId":"1027981634","Spot":0.52,"SideOfStreet":"neither","StateId":"20248595","CountyId":"20345050","CityId":"20345470"}}},{"Relevance":1.0,"Distance":86.4,"MatchLevel":"houseNumber","MatchQuality":{"Country":1.0,"State":1.0,"County":1.0,"City":1.0,"District":1.0,"Street":[1.0],"HouseNumber":1.0,"PostalCode":1.0},"MatchType":"interpolated","Location":{"LocationId":"NT_C1u7BV8KkCdpQPVdylJAcB_l_27554898_L_0MD","LocationType":"point","DisplayPosition":{"Latitude":53.7117439,"Longitude":-1.5110008},"MapView":{"TopLeft":{"Latitude":53.712868,"Longitude":-1.5129002},"BottomRight":{"Latitude":53.7106197,"Longitude":-1.5091014}},"Address":{"Label":"43 Newstead Avenue, Wakefield, WF1 2PG, United Kingdom","Country":"GBR","State":"England","County":"West Yorkshire","City":"Wakefield","District":"Wakefield","Street":"Newstead Avenue","HouseNumber":"43","PostalCode":"WF1 2PG","AdditionalData":[{"value":"United Kingdom","key":"CountryName"},{"value":"England","key":"StateName"},{"value":"West Yorkshire","key":"CountyName"}]},"MapReference":{"ReferenceId":"27554898","Spot":0.86,"SideOfStreet":"left","StateId":"20248595","CountyId":"20345050","CityId":"20345470","DistrictId":"20345471"}}},{"Relevance":1.0,"Distance":89.3,"MatchLevel":"houseNumber","MatchQuality":{"Country":1.0,"State":1.0,"County":1.0,"City":1.0,"District":1.0,"Street":[1.0],"HouseNumber":1.0,"PostalCode":1.0},"MatchType":"interpolated","Location":{"LocationId":"NT_N-ywr6FuNxLRsL1Lo4KcCB_l_1027981634_L_xgjN","LocationType":"point","DisplayPosition":{"Latitude":53.7123614,"Longitude":-1.5095249},"MapView":{"TopLeft":{"Latitude":53.7134855,"Longitude":-1.5114243},"BottomRight":{"Latitude":53.7112372,"Longitude":-1.5076255}},"Address":{"Label":"186 Potovens Lane, Wakefield, WF1 2PD, United Kingdom","Country":"GBR","State":"England","County":"West Yorkshire","City":"Wakefield","District":"Wakefield","Street":"Potovens Lane","HouseNumber":"186","PostalCode":"WF1 2PD","AdditionalData":[{"value":"United Kingdom","key":"CountryName"},{"value":"England","key":"StateName"},{"value":"West Yorkshire","key":"CountyName"}]},"MapReference":{"ReferenceId":"1027981634","Spot":0.52,"SideOfStreet":"left","StateId":"20248595","CountyId":"20345050","CityId":"20345470","DistrictId":"20345471"}}},{"Relevance":1.0,"Distance":104.2,"MatchLevel":"houseNumber","MatchQuality":{"Country":1.0,"State":1.0,"County":1.0,"City":1.0,"District":1.0,"Street":[1.0],"HouseNumber":1.0,"PostalCode":1.0},"MatchType":"interpolated","Location":{"LocationId":"NT_9m4gg83zV6vatvAOut0oJC_l_27056624_R_xIDM","LocationType":"point","DisplayPosition":{"Latitude":53.7119969,"Longitude":-1.5083156},"MapView":{"TopLeft":{"Latitude":53.7131211,"Longitude":-1.510215},"BottomRight":{"Latitude":53.7108728,"Longitude":-1.5064162}},"Address":{"Label":"120 Ledger Lane, Wakefield, WF1 2NS, United Kingdom","Country":"GBR","State":"England","County":"West Yorkshire","City":"Wakefield","District":"Outwood","Street":"Ledger Lane","HouseNumber":"120","PostalCode":"WF1 2NS","AdditionalData":[{"value":"United Kingdom","key":"CountryName"},{"value":"England","key":"StateName"},{"value":"West Yorkshire","key":"CountyName"}]},"MapReference":{"ReferenceId":"27056624","Spot":0.34,"SideOfStreet":"right","StateId":"20248595","CountyId":"20345050","CityId":"20345470","DistrictId":"20345507"}}},{"Relevance":1.0,"Distance":117.8,"MatchLevel":"postalCode","MatchQuality":{"PostalCode":1.0},"MatchType":"interpolated","Location":{"LocationId":"NT_cBSWV-R3n3nzbK9YSqto7B_l_27056087_L_zA","LocationType":"point","DisplayPosition":{"Latitude":53.71259,"Longitude":-1.50926},"MapView":{"TopLeft":{"Latitude":53.7215832,"Longitude":-1.5244555},"BottomRight":{"Latitude":53.7035968,"Longitude":-1.4940645}},"Address":{"Label":"WF1 2PZ, Wakefield, England, United Kingdom","Country":"GBR","State":"England","County":"West Yorkshire","City":"Wakefield","PostalCode":"WF1 2PZ","AdditionalData":[{"value":"United Kingdom","key":"CountryName"},{"value":"England","key":"StateName"},{"value":"West Yorkshire","key":"CountyName"}]},"MapReference":{"ReferenceId":"27056087","Spot":0.37,"SideOfStreet":"neither","StateId":"20248595","CountyId":"20345050","CityId":"20345470"}}}]}]}}