{"Response":{"MetaInfo":{"Timestamp":"2020-03-28T11:15:08.120+0000","NextPageInformation":"2"},"View":[{"_type":"SearchResultsViewType","ViewId":0,"Result":[{"Relevance":1.0,"Distance":-41.2,"MatchLevel":"landmark","MatchQuality":{"Country":1.0,"State":1.0,"County":1.0,"City":1.0,"District":1.0,"PostalCode":1.0,"Name":1.0},"Location":{"LocationId":"NT_-op1mvRVLCoxfPEwn7g50D_p_UWV.3CxmR9WsDvljxWDoXA","LocationType":"hospital","Name":"Calderdale Royal Hospital","DisplayPosition":{"Latitude":53.70562,"Longitude":-1.85761},"MapView":{"TopLeft":{"Latitude":53.70643,"Longitude":-1.85978},"BottomRight":{"Latitude":53.70365,"Longitude":-1.85474}},"Address":{"Label":"Halifax, HX3 0, United Kingdom","Country":"GBR","State":"England","County":"West Yorkshire","City":"Halifax","District":"Skircoat Green","PostalCode":"HX3 0","AdditionalData":[{"value":"United Kingdom","key":"CountryName"},{"value":"England","key":"StateName"},{"value":"West Yorkshire","key":"CountyName"}]},"MapReference":{"StateId":"20248595","CountyId":"20345050","CityId":"20345159","DistrictId":"20345185","PlaceId":"546113814"}}},{"Relevance":1.0,"Distance":0.0,"Direction":0.0,"MatchLevel":"district","MatchQuality":{"Country":1.0,"State":1.0,"County":1.0,"City":1.0,"District":1.0,"PostalCode":1.0},"Location":{"LocationId":"NT_Vou8mYtdVfRcmqRRCeojNC","LocationType":"point","DisplayPosition":{"Latitude":53.7049287,"Longitude":-1.858528},"MapView":{"TopLeft":{"Latitude":53.70797,"Longitude":-1.88479},"BottomRight":{"Latitude":53.69853,"Longitude":-1.85131}},"Address":{"Label":"Skircoat Green, Halifax, England, United Kingdom","Country":"GBR","State":"England","County":"West Yorkshire","City":"Halifax","District":"Skircoat Green","PostalCode":"HX3 0","AdditionalData":[{"value":"United Kingdom","key":"CountryName"},{"value":"England","key":"StateName"},{"value":"West Yorkshire","key":"CountyName"}]},"MapReference":{"ReferenceId":"1203393155","SideOfStreet":"neither","StateId":"20248595","CountyId":"20345050","CityId":"20345159","DistrictId":"20345185"}}},{"Relevance":1.0,"Distance":10.4,"MatchLevel":"street","MatchQuality":{"Country":1.0,"State":1.0,"County":1.0,"City":1.0,"District":1.0,"PostalCode":1.0},"Location":{"LocationId":"NT_MklmYWmUmsbPcVAGvVTLGC_l_565912838_R","LocationType":"point","DisplayPosition":{"Latitude":53.704895,"Longitude":-1.8586761},"MapView":{"TopLeft":{"Latitude":53.7051,"Longitude":-1.85888},"BottomRight":{"Latitude":53.70478,"Longitude":-1.85865}},"Address":{"Label":"Halifax, HX3 0, United Kingdom","Country":"GBR","State":"England","County":"West Yorkshire","City":"Halifax","District":"Skircoat Green","PostalCode":"HX3 0","AdditionalData":[{"value":"United Kingdom","key":"CountryName"},{"value":"England","key":"StateName"},{"value":"West Yorkshire","key":"CountyName"}]},"MapReference":{"ReferenceId":"565912838","Spot":0.25,"SideOfStreet":"right","StateId":"20248595","CountyId":"20345050","CityId":"20345159","DistrictId":"20345185"}}},{"Relevance":1.0,"Distance":18.4,"MatchLevel":"street","MatchQuality":{"Country":1.0,"State":1.0,"County":1.0,"City":1.0,"District":1.0,"PostalCode":1.0},"Location":{"LocationId":"NT_MklmYWmUmsbPcVAGvVTLGC_l_565912839_R","LocationType":"point","DisplayPosition":{"Latitude":53.70478,"Longitude":-1.85865},"MapView":{"TopLeft":{"Latitude":53.70478,"Longitude":-1.859},"BottomRight":{"Latitude":53.70444,"Longitude":-1.8586}},"Address":{"Label":"Halifax, HX3 0, United Kingdom","Country":"GBR","State":"England","County":"West Yorkshire","City":"Halifax","District":"Skircoat Green","PostalCode":"HX3 0","AdditionalData":[{"value":"United Kingdom","key":"CountryName"},{"value":"England","key":"StateName"},{"value":"West Yorkshire","key":"CountyName"}]},"MapReference":{"ReferenceId":"565912839","Spot":1.0,"SideOfStreet":"right","StateId":"20248595","CountyId":"20345050","CityId":"20345159","DistrictId":"20345185"}}},{"Relevance":1.0,"Distance":30.0,"MatchLevel":"street","MatchQuality":{"Country":1.0,"State":1.0,"County":1.0,"City":1.0,"District":1.0,"PostalCode":1.0},"Location":{"LocationId":"NT_MklmYWmUmsbPcVAGvVTLGC_l_585775190_R","LocationType":"point","DisplayPosition":{"Latitude":53.7051,"Longitude":-1.85888},"MapView":{"TopLeft":{"Latitude":53.7051,"Longitude":-1.85912},"BottomRight":{"Latitude":53.70505,"Longitude":-1.85888}},"Address":{"Label":"Halifax, HX3 0, United Kingdom","Country":"GBR","State":"England","County":"West Yorkshire","City":"Halifax","District":"Skircoat Green","PostalCode":"HX3 0","AdditionalData":[{"value":"United Kingdom","key":"CountryName"},{"value":"England","key":"StateName"},{"value":"West Yorkshire","key":"CountyName"}]},"MapReference":{"ReferenceId":"585775190","Spot":1.0,"SideOfStreet":"right","StateId":"20248595","CountyId":"20345050","CityId":"20345159","DistrictId":"20345185"}}},{"Relevance":1.0,"Distance":41.3,"MatchLevel":"street","MatchQuality":{"Country":1.0,"State":1.0,"County":1.0,"City":1.0,"District":1.0,"PostalCode":1.0},"Location":{"LocationId":"NT_MklmYWmUmsbPcVAGvVTLGC_l_585775189_R","LocationType":"point","DisplayPosition":{"Latitude":53.7047671,"Longitude":-1.8590935},"MapView":{"TopLeft":{"Latitude":53.70505,"Longitude":-1.85914},"BottomRight":{"Latitude":53.70444,"Longitude":-1.859}},"Address":{"Label":"Halifax, HX3 0, United Kingdom","Country":"GBR","State":"England","County":"West Yorkshire","City":"Halifax","District":"Skircoat Green","PostalCode":"HX3 0","AdditionalData":[{"value":"United Kingdom","key":"CountryName"},{"value":"England","key":"StateName"},{"value":"West Yorkshire","key":"CountyName"}]},"MapReference":{"ReferenceId":"585775189","Spot":0.54,"SideOfStreet":"right","StateId":"20248595","CountyId":"20345050","CityId":"20345159","DistrictId":"20345185"}}},{"Relevance":1.0,"Distance":62.6,"MatchLevel":"street","MatchQuality":{"Country":1.0,"State":1.0,"County":1.0,"City":1.0,"District":1.0,"PostalCode":1.0},"Location":{"LocationId":"NT_MklmYWmUmsbPcVAGvVTLGC_l_565912840_R","LocationType":"point","DisplayPosition":{"Latitude":53.70444,"Longitude":-1.859},"MapView":{"TopLeft":{"Latitude":53.70444,"Longitude":-1.859},"BottomRight":{"Latitude":53.70396,"Longitude":-1.85889}},"Address":{"Label":"Halifax, HX3 0, United Kingdom","Country":"GBR","State":"England","County":"West Yorkshire","City":"Halifax","District":"Skircoat Green","PostalCode":"HX3 0","AdditionalData":[{"value":"United Kingdom","key":"CountryName"},{"value":"England","key":"StateName"},{"value":"West Yorkshire","key":"CountyName"}]},"MapReference":{"ReferenceId":"565912840","Spot":1.0,"SideOfStreet":"right","StateId":"20248595","CountyId":"20345050","CityId":"20345159","DistrictId":"20345185"}}},{"Relevance":1.0,"Distance":86.9,"MatchLevel":"street","MatchQuality":{"Country":1.0,"State":1.0,"County":1.0,"City":1.0,"District":1.0,"PostalCode":1.0},"Location":{"LocationId":"NT_MklmYWmUmsbPcVAGvVTLGC_l_1190219603_R","LocationType":"point","DisplayPosition":{"Latitude":53.70571,"Longitude":-1.858528},"MapView":{"TopLeft":{"Latitude":53.7058,"Longitude":-1.8587},"BottomRight":{"Latitude":53.70571,"Longitude":-1.85837}},"Address":{"Label":"Halifax, HX3 0, United Kingdom","Country":"GBR","State":"England","County":"West Yorkshire","City":"Halifax","District":"Skircoat Green","PostalCode":"HX3 0","AdditionalData":[{"value":"United Kingdom","key":"CountryName"},{"value":"England","key":"StateName"},{"value":"West Yorkshire","key":"CountyName"}]},"MapReference":{"ReferenceId":"1190219603","Spot":0.5,"SideOfStreet":"right","StateId":"20248595","CountyId":"20345050","CityId":"20345159","DistrictId":"20345185"}}},{"Relevance":1.0,"Distance":88.9,"MatchLevel":"street","MatchQuality":{"Country":1.0,"State":1.0,"County":1.0,"City":1.0,"District":1.0,"PostalCode":1.0},"Location":{"LocationId":"NT_MklmYWmUmsbPcVAGvVTLGC_l_585774304_R","LocationType":"point","DisplayPosition":{"Latitude":53.70563,"Longitude":-1.85788},"MapView":{"TopLeft":{"Latitude":53.70584,"Longitude":-1.85788},"BottomRight":{"Latitude":53.70559,"Longitude":-1.85745}},"Address":{"Label":"Halifax, HX3 0, United Kingdom","Country":"GBR","State":"England","County":"West Yorkshire","City":"Halifax","District":"Skircoat Green","PostalCode":"HX3 0","AdditionalData":[{"value":"United Kingdom","key":"CountryName"},{"value":"England","key":"StateName"},{"value":"West Yorkshire","key":"CountyName"}]},"MapReference":{"ReferenceId":"585774304","Spot":0.0,"SideOfStreet":"right","StateId":"20248595","CountyId":"20345050","CityId":"20345159","DistrictId":"20345185"}}},{"Relevance":1.0,"Distance":88.9,"MatchLevel":"street","MatchQuality":{"Country":1.0,"State":1.0,"County":1.0,"City":1.0,"District":1.0,"PostalCode":1.0},"Location":{"LocationId":"NT_MklmYWmUmsbPcVAGvVTLGC_l_585774309_L","LocationType":"point","DisplayPosition":{"Latitude":53.70563,"Longitude":-1.85788},"MapView":{"TopLeft":{"Latitude":53.70592,"Longitude":-1.858},"BottomRight":{"Latitude":53.70563,"Longitude":-1.85788}},"Address":{"Label":"Halifax, HX3 0, United Kingdom","Country":"GBR","State":"England","County":"West Yorkshire","City":"Halifax","District":"Skircoat Green","PostalCode":"HX3 0","AdditionalData":[{"value":"United Kingdom","key":"CountryName"},{"value":"England","key":"StateName"},{"value":"West Yorkshire","key":"CountyName"}]},"MapReference":{"ReferenceId":"585774309","Spot":0.0,"SideOfStreet":"left","StateId":"20248595","CountyId":"20345050","CityId":"20345159","DistrictId":"20345185"}}}]}]}}