{"Response":{"MetaInfo":{"Timestamp":"2020-03-28T10:07:32.093+0000","NextPageInformation":"2"},"View":[{"_type":"SearchResultsViewType","ViewId":0,"Result":[{"Relevance":1.0,"Distance":0.0,"Direction":0.0,"MatchLevel":"district","MatchQuality":{"Country":1.0,"State":1.0,"County":1.0,"City":1.0,"District":1.0,"PostalCode":1.0},"Location":{"LocationId":"NT_hGT3BBbP.TbqUWISAyL0YA","LocationType":"point","DisplayPosition":{"Latitude":53.8155401,"Longitude":-1.6356918},"MapView":{"TopLeft":{"Latitude":53.81654,"Longitude":-1.65365},"BottomRight":{"Latitude":53.80108,"Longitude":-1.61635}},"Address":{"Label":"Bramley, Leeds, England, United Kingdom","Country":"GBR","State":"England","County":"West Yorkshire","City":"Leeds","District":"Bramley","PostalCode":"LS13 4","AdditionalData":[{"value":"United Kingdom","key":"CountryName"},{"value":"England","key":"StateName"},{"value":"West Yorkshire","key":"CountyName"}]},"MapReference":{"ReferenceId":"27397842","SideOfStreet":"neither","StateId":"20248595","CountyId":"20345050","CityId":"20345325","DistrictId":"20345337"}}},{"Relevance":1.0,"Distance":3.5,"MatchLevel":"houseNumber","MatchQuality":{"Country":1.0,"State":1.0,"County":1.0,"City":1.0,"District":1.0,"Street":[1.0],"HouseNumber":1.0,"PostalCode":1.0},"MatchType":"interpolated","Location":{"LocationId":"NT_ntcfYoesdLPaUn9v3UfIVB_l_27392203_R_yA","LocationType":"point","DisplayPosition":{"Latitude":53.8153901,"Longitude":-1.6358001},"MapView":{"TopLeft":{"Latitude":53.8165142,"Longitude":-1.6377041},"BottomRight":{"Latitude":53.8142659,"Longitude":-1.633896}},"Address":{"Label":"2 Blairsville Grove, Leeds, LS13 2HT, United Kingdom","Country":"GBR","State":"England","County":"West Yorkshire","City":"Leeds","District":"Leeds","Street":"Blairsville Grove","HouseNumber":"2","PostalCode":"LS13 2HT","AdditionalData":[{"value":"United Kingdom","key":"CountryName"},{"value":"England","key":"StateName"},{"value":"West Yorkshire","key":"CountyName"}]},"MapReference":{"ReferenceId":"27392203","Spot":0.18,"SideOfStreet":"right","StateId":"20248595","CountyId":"20345050","CityId":"20345325","DistrictId":"20345326"}}},{"Relevance":1.0,"Distance":11.2,"MatchLevel":"houseNumber","MatchQuality":{"Country":1.0,"State":1.0,"County":1.0,"City":1.0,"District":1.0,"Street":[1.0],"HouseNumber":1.0,"PostalCode":1.0},"MatchType":"interpolated","Location":{"LocationId":"NT_iwXTQNlPO6N2p5bTDC3x-A_l_27392202_L_zgDM","LocationType":"point","DisplayPosition":{"Latitude":53.815355,"Longitude":-1.635495},"MapView":{"TopLeft":{"Latitude":53.8164792,"Longitude":-1.6373991},"BottomRight":{"Latitude":53.8142309,"Longitude":-1.6335909}},"Address":{"Label":"380 Broad Lane, Leeds, LS13 2HS, United Kingdom","Country":"GBR","State":"England","County":"West Yorkshire","City":"Leeds","District":"Leeds","Street":"Broad Lane","HouseNumber":"380","PostalCode":"LS13 2HS","AdditionalData":[{"value":"United Kingdom","key":"CountryName"},{"value":"England","key":"StateName"},{"value":"West Yorkshire","key":"CountyName"}]},"MapReference":{"ReferenceId":"27392202","Spot":0.5,"SideOfStreet":"left","StateId":"20248595","CountyId":"20345050","CityId":"20345325","DistrictId":"20345326"}}},{"Relevance":1.0,"Distance":16.9,"MatchLevel":"street","MatchQuality":{"Country":1.0,"State":1.0,"County":1.0,"City":1.0,"District":1.0,"PostalCode":1.0},"Location":{"LocationId":"NT_G4EvCuHfz.tAOqHIKdY2pA_l_27392126_L","LocationType":"point","DisplayPosition":{"Latitude":53.815673,"Longitude":-1.6355654},"MapView":{"TopLeft":{"Latitude":53.816,"Longitude":-1.63584},"BottomRight":{"Latitude":53.81543,"Longitude":-1.63531}},"Address":{"Label":"Leeds, LS13 2, United Kingdom","Country":"GBR","State":"England","County":"West Yorkshire","City":"Leeds","District":"Leeds","PostalCode":"LS13 2","AdditionalData":[{"value":"United Kingdom","key":"CountryName"},{"value":"England","key":"StateName"},{"value":"West Yorkshire","key":"CountyName"}]},"MapReference":{"ReferenceId":"27392126","Spot":0.45,"SideOfStreet":"left","StateId":"20248595","CountyId":"20345050","CityId":"20345325","DistrictId":"20345326"}}},{"Relevance":1.0,"Distance":20.0,"MatchLevel":"postalCode","MatchQuality":{"PostalCode":1.0},"MatchType":"interpolated","Location":{"LocationId":"NT_iwXTQNlPO6N2p5bTDC3x-A_l_27392202_L_zgDM","LocationType":"point","DisplayPosition":{"Latitude":53.81539,"Longitude":-1.63586},"MapView":{"TopLeft":{"Latitude":53.8243832,"Longitude":-1.6510927},"BottomRight":{"Latitude":53.8063968,"Longitude":-1.6206273}},"Address":{"Label":"LS13 2HS, Leeds, England, United Kingdom","Country":"GBR","State":"England","County":"West Yorkshire","City":"Leeds","PostalCode":"LS13 2HS","AdditionalData":[{"value":"United Kingdom","key":"CountryName"},{"value":"England","key":"StateName"},{"value":"West Yorkshire","key":"CountyName"}]},"MapReference":{"ReferenceId":"27392202","Spot":0.5,"SideOfStreet":"neither","StateId":"20248595","CountyId":"20345050","CityId":"20345325"}}},{"Relevance":1.0,"Distance":23.3,"MatchLevel":"houseNumber","MatchQuality":{"Country":1.0,"State":1.0,"County":1.0,"City":1.0,"District":1.0,"Street":[1.0],"HouseNumber":1.0,"PostalCode":1.0},"MatchType":"interpolated","Location":{"LocationId":"NT_F6uB07skLH3uR824.cWGVA_l_1203219660_L_zgDN","LocationType":"point","DisplayPosition":{"Latitude":53.8152307,"Longitude":-1.6358426},"MapView":{"TopLeft":{"Latitude":53.8163549,"Longitude":-1.6377467},"BottomRight":{"Latitude":53.8141066,"Longitude":-1.6339385}},"Address":{"Label":"384 Broad Lane, Leeds, LS13 2HS, United Kingdom","Country":"GBR","State":"England","County":"West Yorkshire","City":"Leeds","District":"Bramley","Street":"Broad Lane","HouseNumber":"384","PostalCode":"LS13 2HS","AdditionalData":[{"value":"United Kingdom","key":"CountryName"},{"value":"England","key":"StateName"},{"value":"West Yorkshire","key":"CountyName"}]},"MapReference":{"ReferenceId":"1203219660","Spot":0.51,"SideOfStreet":"left","StateId":"20248595","CountyId":"20345050","CityId":"20345325","DistrictId":"20345337"}}},{"Relevance":1.0,"Distance":28.9,"MatchLevel":"street","MatchQuality":{"Country":1.0,"State":1.0,"County":1.0,"City":1.0,"District":1.0,"Street":[1.0],"PostalCode":1.0},"Location":{"LocationId":"NT_F6uB07skLH3uR824.cWGVA_l_840128213_R","LocationType":"point","DisplayPosition":{"Latitude":53.81528,"Longitude":-1.63568},"MapView":{"TopLeft":{"Latitude":53.81528,"Longitude":-1.63568},"BottomRight":{"Latitude":53.81502,"Longitude":-1.63507}},"Address":{"Label":"Upper Town Street, Leeds, LS13 2, United Kingdom","Country":"GBR","State":"England","County":"West Yorkshire","City":"Leeds","District":"Bramley","Street":"Upper Town Street","PostalCode":"LS13 2","AdditionalData":[{"value":"United Kingdom","key":"CountryName"},{"value":"England","key":"StateName"},{"value":"West Yorkshire","key":"CountyName"}]},"MapReference":{"ReferenceId":"840128213","Spot":1.0,"SideOfStreet":"right","StateId":"20248595","CountyId":"20345050","CityId":"20345325","DistrictId":"20345337"}}},{"Relevance":1.0,"Distance":36.5,"MatchLevel":"houseNumber","MatchQuality":{"Country":1.0,"State":1.0,"County":1.0,"City":1.0,"District":1.0,"Street":[1.0],"HouseNumber":1.0,"PostalCode":1.0},"MatchType":"interpolated","Location":{"LocationId":"NT_iwXTQNlPO6N2p5bTDC3x-A_l_1170782207_L_zcDO","LocationType":"point","DisplayPosition":{"Latitude":53.8155,"Longitude":-1.6351099},"MapView":{"TopLeft":{"Latitude":53.8166242,"Longitude":-1.637014},"BottomRight":{"Latitude":53.8143759,"Longitude":-1.6332059}},"Address":{"Label":"378 Broad Lane, Leeds, LS13 2AH, United Kingdom","Country":"GBR","State":"England","County":"West Yorkshire","City":"Leeds","District":"Leeds","Street":"Broad Lane","HouseNumber":"378","PostalCode":"LS13 2AH","AdditionalData":[{"value":"United Kingdom","key":"CountryName"},{"value":"England","key":"StateName"},{"value":"West Yorkshire","key":"CountyName"}]},"MapReference":{"ReferenceId":"1170782207","Spot":0.17,"SideOfStreet":"left","StateId":"20248595","CountyId":"20345050","CityId":"20345325","DistrictId":"20345326"}}},{"Relevance":1.0,"Distance":40.9,"MatchLevel":"houseNumber","MatchQuality":{"Country":1.0,"State":1.0,"County":1.0,"City":1.0,"District":1.0,"Street":[1.0],"HouseNumber":1.0,"PostalCode":1.0},"MatchType":"interpolated","Location":{"LocationId":"NT_F6uB07skLH3uR824.cWGVA_l_1203219659_L_zgjN","LocationType":"point","DisplayPosition":{"Latitude":53.8151536,"Longitude":-1.6361068},"MapView":{"TopLeft":{"Latitude":53.8162778,"Longitude":-1.6380109},"BottomRight":{"Latitude":53.8140294,"Longitude":-1.6342027}},"Address":{"Label":"386 Broad Lane, Leeds, LS13 2, United Kingdom","Country":"GBR","State":"England","County":"West Yorkshire","City":"Leeds","District":"Bramley","Street":"Broad Lane","HouseNumber":"386","PostalCode":"LS13 2","AdditionalData":[{"value":"United Kingdom","key":"CountryName"},{"value":"England","key":"StateName"},{"value":"West Yorkshire","key":"CountyName"}]},"MapReference":{"ReferenceId":"1203219659","Spot":0.56,"SideOfStreet":"left","StateId":"20248595","CountyId":"20345050","CityId":"20345325","DistrictId":"20345337"}}},{"Relevance":1.0,"Distance":41.0,"MatchLevel":"postalCode","MatchQuality":{"PostalCode":1.0},"MatchType":"interpolated","Location":{"LocationId":"NT_ntcfYoesdLPaUn9v3UfIVB_l_27392203_R_yA","LocationType":"point","DisplayPosition":{"Latitude":53.81579,"Longitude":-1.63615},"MapView":{"TopLeft":{"Latitude":53.8247832,"Longitude":-1.6513828},"BottomRight":{"Latitude":53.8067968,"Longitude":-1.6209172}},"Address":{"Label":"LS13 2HT, Leeds, England, United Kingdom","Country":"GBR","State":"England","County":"West Yorkshire","City":"Leeds","PostalCode":"LS13 2HT","AdditionalData":[{"value":"United Kingdom","key":"CountryName"},{"value":"England","key":"StateName"},{"value":"West Yorkshire","key":"CountyName"}]},"MapReference":{"ReferenceId":"27392203","Spot":0.18,"SideOfStreet":"neither","StateId":"20248595","CountyId":"20345050","CityId":"20345325"}}}]}]}}