{"Response":{"MetaInfo":{"Timestamp":"2020-03-28T10:09:30.428+0000","NextPageInformation":"2"},"View":[{"_type":"SearchResultsViewType","ViewId":0,"Result":[{"Relevance":1.0,"Distance":0.0,"Direction":0.0,"MatchLevel":"district","MatchQuality":{"Country":1.0,"State":1.0,"County":1.0,"City":1.0,"District":1.0,"PostalCode":1.0},"Location":{"LocationId":"NT_qbpb3F-uGUYeCLjM.T1rPA","LocationType":"point","DisplayPosition":{"Latitude":53.8099139,"Longitude":-1.5380888},"MapView":{"TopLeft":{"Latitude":53.86674,"Longitude":-1.69971},"BottomRight":{"Latitude":53.73097,"Longitude":-1.41768}},"Address":{"Label":"Leeds, England, United Kingdom","Country":"GBR","State":"England","County":"West Yorkshire","City":"Leeds","District":"Leeds","PostalCode":"LS1 5","AdditionalData":[{"value":"United Kingdom","key":"CountryName"},{"value":"England","key":"StateName"},{"value":"West Yorkshire","key":"CountyName"}]},"MapReference":{"ReferenceId":"1079042341","SideOfStreet":"neither","StateId":"20248595","CountyId":"20345050","CityId":"20345325","DistrictId":"20345326"}}},{"Relevance":1.0,"Distance":9.8,"MatchLevel":"street","MatchQuality":{"Country":1.0,"State":1.0,"County":1.0,"City":1.0,"District":1.0,"Street":[1.0],"PostalCode":1.0},"Location":{"LocationId":"NT_-48dEBxSfwmdF8SO0mOOOA_l_27395565_L","LocationType":"point","DisplayPosition":{"Latitude":53.8099936,"Longitude":-1.5380263},"MapView":{"TopLeft":{"Latitude":53.81014,"Longitude":-1.53841},"BottomRight":{"Latitude":53.80973,"Longitude":-1.53769}},"Address":{"Label":"Wilmington Grove, Leeds, LS7 2, United Kingdom","Country":"GBR","State":"England","County":"West Yorkshire","City":"Leeds","District":"Leeds","Street":"Wilmington Grove","PostalCode":"LS7 2","AdditionalData":[{"value":"United Kingdom","key":"CountryName"},{"value":"England","key":"StateName"},{"value":"West Yorkshire","key":"CountyName"}]},"MapReference":{"ReferenceId":"27395565","Spot":0.51,"SideOfStreet":"left","StateId":"20248595","CountyId":"20345050","CityId":"20345325","DistrictId":"20345326"}}},{"Relevance":1.0,"Distance":23.6,"MatchLevel":"postalCode","MatchQuality":{"PostalCode":1.0},"Location":{"LocationId":"NT_gW5.OpQ3Csy5Gb4.CaeYrA_l_27395611_R","LocationType":"point","DisplayPosition":{"Latitude":53.80987,"Longitude":-1.53844},"MapView":{"TopLeft":{"Latitude":53.8188632,"Longitude":-1.5536707},"BottomRight":{"Latitude":53.8008768,"Longitude":-1.5232093}},"Address":{"Label":"LS7 2BP, Leeds, England, United Kingdom","Country":"GBR","State":"England","County":"West Yorkshire","City":"Leeds","PostalCode":"LS7 2BP","AdditionalData":[{"value":"United Kingdom","key":"CountryName"},{"value":"England","key":"StateName"},{"value":"West Yorkshire","key":"CountyName"}]},"MapReference":{"ReferenceId":"27395611","Spot":0.0,"SideOfStreet":"neither","StateId":"20248595","CountyId":"20345050","CityId":"20345325"}}},{"Relevance":1.0,"Distance":24.7,"MatchLevel":"postalCode","MatchQuality":{"PostalCode":1.0},"MatchType":"interpolated","Location":{"LocationId":"NT_-48dEBxSfwmdF8SO0mOOOA_l_27490423_R_xA","LocationType":"point","DisplayPosition":{"Latitude":53.80976,"Longitude":-1.53836},"MapView":{"TopLeft":{"Latitude":53.8187532,"Longitude":-1.5535907},"BottomRight":{"Latitude":53.8007668,"Longitude":-1.5231293}},"Address":{"Label":"LS7 2BQ, Leeds, England, United Kingdom","Country":"GBR","State":"England","County":"West Yorkshire","City":"Leeds","PostalCode":"LS7 2BQ","AdditionalData":[{"value":"United Kingdom","key":"CountryName"},{"value":"England","key":"StateName"},{"value":"West Yorkshire","key":"CountyName"}]},"MapReference":{"ReferenceId":"27490423","Spot":0.14,"SideOfStreet":"neither","StateId":"20248595","CountyId":"20345050","CityId":"20345325"}}},{"Relevance":1.0,"Distance":26.4,"MatchLevel":"street","MatchQuality":{"Country":1.0,"State":1.0,"County":1.0,"City":1.0,"District":1.0,"Street":[1.0],"PostalCode":1.0},"Location":{"LocationId":"NT_gW5.OpQ3Csy5Gb4.CaeYrA_l_27395611_R","LocationType":"point","DisplayPosition":{"Latitude":53.80978,"Longitude":-1.53842},"MapView":{"TopLeft":{"Latitude":53.81002,"Longitude":-1.53868},"BottomRight":{"Latitude":53.80978,"Longitude":-1.53842}},"Address":{"Label":"Wilmington Terrace, Leeds, LS7 2, United Kingdom","Country":"GBR","State":"England","County":"West Yorkshire","City":"Leeds","District":"Leeds","Street":"Wilmington Terrace","PostalCode":"LS7 2","AdditionalData":[{"value":"United Kingdom","key":"CountryName"},{"value":"England","key":"StateName"},{"value":"West Yorkshire","key":"CountyName"}]},"MapReference":{"ReferenceId":"27395611","Spot":0.0,"SideOfStreet":"right","StateId":"20248595","CountyId":"20345050","CityId":"20345325","DistrictId":"20345326"}}},{"Relevance":1.0,"Distance":32.8,"MatchLevel":"street","MatchQuality":{"Country":1.0,"State":1.0,"County":1.0,"City":1.0,"District":1.0,"Street":[1.0],"PostalCode":1.0},"Location":{"LocationId":"NT_DNW-8rPBtffUM7.qHYCp0C_l_27395420_R","LocationType":"point","DisplayPosition":{"Latitude":53.81014,"Longitude":-1.53841},"MapView":{"TopLeft":{"Latitude":53.81014,"Longitude":-1.53868},"BottomRight":{"Latitude":53.81002,"Longitude":-1.53841}},"Address":{"Label":"Wilmington Street, Leeds, LS7 2, United Kingdom","Country":"GBR","State":"England","County":"West Yorkshire","City":"Leeds","District":"Leeds","Street":"Wilmington Street","PostalCode":"LS7 2","AdditionalData":[{"value":"United Kingdom","key":"CountryName"},{"value":"England","key":"StateName"},{"value":"West Yorkshire","key":"CountyName"}]},"MapReference":{"ReferenceId":"27395420","Spot":1.0,"SideOfStreet":"right","StateId":"20248595","CountyId":"20345050","CityId":"20345325","DistrictId":"20345326"}}},{"Relevance":1.0,"Distance":33.2,"MatchLevel":"street","MatchQuality":{"Country":1.0,"State":1.0,"County":1.0,"City":1.0,"District":1.0,"Street":[1.0],"PostalCode":1.0},"Location":{"LocationId":"NT_OTI-fCD1HUC3V2OhEI4aNC_l_27395564_L","LocationType":"point","DisplayPosition":{"Latitude":53.80973,"Longitude":-1.53769},"MapView":{"TopLeft":{"Latitude":53.81014,"Longitude":-1.53769},"BottomRight":{"Latitude":53.80973,"Longitude":-1.53665}},"Address":{"Label":"Barrack Street, Leeds, LS7 2, United Kingdom","Country":"GBR","State":"England","County":"West Yorkshire","City":"Leeds","District":"Leeds","Street":"Barrack Street","PostalCode":"LS7 2","AdditionalData":[{"value":"United Kingdom","key":"CountryName"},{"value":"England","key":"StateName"},{"value":"West Yorkshire","key":"CountyName"}]},"MapReference":{"ReferenceId":"27395564","Spot":0.0,"SideOfStreet":"left","StateId":"20248595","CountyId":"20345050","CityId":"20345325","DistrictId":"20345326"}}},{"Relevance":1.0,"Distance":33.6,"MatchLevel":"street","MatchQuality":{"Country":1.0,"State":1.0,"County":1.0,"City":1.0,"District":1.0,"Street":[1.0],"PostalCode":1.0},"Location":{"LocationId":"NT_DNW-8rPBtffUM7.qHYCp0C_l_27395352_R","LocationType":"point","DisplayPosition":{"Latitude":53.810211,"Longitude":-1.5381807},"MapView":{"TopLeft":{"Latitude":53.8104,"Longitude":-1.53841},"BottomRight":{"Latitude":53.81014,"Longitude":-1.53757}},"Address":{"Label":"Wilmington Street, Leeds, LS7 2, United Kingdom","Country":"GBR","State":"England","County":"West Yorkshire","City":"Leeds","District":"Leeds","Street":"Wilmington Street","PostalCode":"LS7 2","AdditionalData":[{"value":"United Kingdom","key":"CountryName"},{"value":"England","key":"StateName"},{"value":"West Yorkshire","key":"CountyName"}]},"MapReference":{"ReferenceId":"27395352","Spot":0.27,"SideOfStreet":"right","StateId":"20248595","CountyId":"20345050","CityId":"20345325","DistrictId":"20345326"}}},{"Relevance":1.0,"Distance":34.3,"MatchLevel":"street","MatchQuality":{"Country":1.0,"State":1.0,"County":1.0,"City":1.0,"District":1.0,"Street":[1.0],"PostalCode":1.0},"Location":{"LocationId":"NT_OTI-fCD1HUC3V2OhEI4aNC_l_585771477_L","LocationType":"point","DisplayPosition":{"Latitude":53.8096145,"Longitude":-1.5379614},"MapView":{"TopLeft":{"Latitude":53.80973,"Longitude":-1.53867},"BottomRight":{"Latitude":53.8093,"Longitude":-1.53769}},"Address":{"Label":"Barrack Street, Leeds, LS7 2, United Kingdom","Country":"GBR","State":"England","County":"West Yorkshire","City":"Leeds","District":"Leeds","Street":"Barrack Street","PostalCode":"LS7 2","AdditionalData":[{"value":"United Kingdom","key":"CountryName"},{"value":"England","key":"StateName"},{"value":"West Yorkshire","key":"CountyName"}]},"MapReference":{"ReferenceId":"585771477","Spot":0.72,"SideOfStreet":"left","StateId":"20248595","CountyId":"20345050","CityId":"20345325","DistrictId":"20345326"}}},{"Relevance":1.0,"Distance":46.8,"MatchLevel":"houseNumber","MatchQuality":{"Country":1.0,"State":1.0,"County":1.0,"City":1.0,"District":1.0,"Street":[1.0],"HouseNumber":1.0,"PostalCode":1.0},"MatchType":"interpolated","Location":{"LocationId":"NT_-48dEBxSfwmdF8SO0mOOOA_l_27490423_R_xA","LocationType":"point","DisplayPosition":{"Latitude":53.8102401,"Longitude":-1.5385401},"MapView":{"TopLeft":{"Latitude":53.8113642,"Longitude":-1.5404439},"BottomRight":{"Latitude":53.8091159,"Longitude":-1.5366362}},"Address":{"Label":"1 Wilmington Grove, Leeds, LS7 2, United Kingdom","Country":"GBR","State":"England","County":"West Yorkshire","City":"Leeds","District":"Leeds","Street":"Wilmington Grove","HouseNumber":"1","PostalCode":"LS7 2","AdditionalData":[{"value":"United Kingdom","key":"CountryName"},{"value":"England","key":"StateName"},{"value":"West Yorkshire","key":"CountyName"}]},"MapReference":{"ReferenceId":"27490423","Spot":0.14,"SideOfStreet":"right","StateId":"20248595","CountyId":"20345050","CityId":"20345325","DistrictId":"20345326"}}}]}]}}