{"Response":{"MetaInfo":{"Timestamp":"2020-03-28T11:58:05.773+0000","NextPageInformation":"2"},"View":[{"_type":"SearchResultsViewType","ViewId":0,"Result":[{"Relevance":1.0,"Distance":0.0,"Direction":0.0,"MatchLevel":"district","MatchQuality":{"Country":1.0,"State":1.0,"County":1.0,"City":1.0,"District":1.0,"PostalCode":1.0},"Location":{"LocationId":"NT_t38rDOn7Mj5zHCQ8lUk1BB","LocationType":"point","DisplayPosition":{"Latitude":53.8465386,"Longitude":-1.6039192},"MapView":{"TopLeft":{"Latitude":53.84811,"Longitude":-1.61104},"BottomRight":{"Latitude":53.8373,"Longitude":-1.5941}},"Address":{"Label":"West Park, Leeds, England, United Kingdom","Country":"GBR","State":"England","County":"West Yorkshire","City":"Leeds","District":"West Park","PostalCode":"LS16 6","AdditionalData":[{"value":"United Kingdom","key":"CountryName"},{"value":"England","key":"StateName"},{"value":"West Yorkshire","key":"CountyName"}]},"MapReference":{"ReferenceId":"27381448","SideOfStreet":"neither","StateId":"20248595","CountyId":"20345050","CityId":"20345325","DistrictId":"20345388"}}},{"Relevance":1.0,"Distance":23.1,"MatchLevel":"postalCode","MatchQuality":{"PostalCode":1.0},"Location":{"LocationId":"NT_eHsBMxSm3Z.2KBrLT05TLB_l_943524104_R","LocationType":"point","DisplayPosition":{"Latitude":53.84672,"Longitude":-1.60409},"MapView":{"TopLeft":{"Latitude":53.8557132,"Longitude":-1.6193341},"BottomRight":{"Latitude":53.8377268,"Longitude":-1.5888459}},"Address":{"Label":"LS16 6FR, Leeds, England, United Kingdom","Country":"GBR","State":"England","County":"West Yorkshire","City":"Leeds","PostalCode":"LS16 6FR","AdditionalData":[{"value":"United Kingdom","key":"CountryName"},{"value":"England","key":"StateName"},{"value":"West Yorkshire","key":"CountyName"}]},"MapReference":{"ReferenceId":"943524104","Spot":0.7,"SideOfStreet":"neither","StateId":"20248595","CountyId":"20345050","CityId":"20345325"}}},{"Relevance":1.0,"Distance":23.7,"MatchLevel":"houseNumber","MatchQuality":{"Country":1.0,"State":1.0,"County":1.0,"City":1.0,"District":1.0,"Street":[1.0],"HouseNumber":1.0,"PostalCode":1.0},"MatchType":"interpolated","Location":{"LocationId":"NT_idXZIQt4CeKQljyTJk87WD_l_943524153_L_xYTO","LocationType":"point","DisplayPosition":{"Latitude":53.8467547,"Longitude":-1.6034902},"MapView":{"TopLeft":{"Latitude":53.8478789,"Longitude":-1.6053957},"BottomRight":{"Latitude":53.8456306,"Longitude":-1.6015847}},"Address":{"Label":"169 Otley Old Road, Leeds, LS16 6, United Kingdom","Country":"GBR","State":"England","County":"West Yorkshire","City":"Leeds","District":"West Park","Street":"Otley Old Road","HouseNumber":"169","PostalCode":"LS16 6","AdditionalData":[{"value":"United Kingdom","key":"CountryName"},{"value":"England","key":"StateName"},{"value":"West Yorkshire","key":"CountyName"}]},"MapReference":{"ReferenceId":"943524153","Spot":0.5,"SideOfStreet":"left","StateId":"20248595","CountyId":"20345050","CityId":"20345325","DistrictId":"20345388"}}},{"Relevance":1.0,"Distance":30.5,"MatchLevel":"street","MatchQuality":{"Country":1.0,"State":1.0,"County":1.0,"City":1.0,"District":1.0,"Street":[1.0],"PostalCode":1.0},"Location":{"LocationId":"NT_eHsBMxSm3Z.2KBrLT05TLB_l_943524104_R","LocationType":"point","DisplayPosition":{"Latitude":53.8468082,"Longitude":-1.6040083},"MapView":{"TopLeft":{"Latitude":53.84692,"Longitude":-1.60479},"BottomRight":{"Latitude":53.84655,"Longitude":-1.60367}},"Address":{"Label":"Iveson Approach, Leeds, LS16 6, United Kingdom","Country":"GBR","State":"England","County":"West Yorkshire","City":"Leeds","District":"West Park","Street":"Iveson Approach","PostalCode":"LS16 6","AdditionalData":[{"value":"United Kingdom","key":"CountryName"},{"value":"England","key":"StateName"},{"value":"West Yorkshire","key":"CountyName"}]},"MapReference":{"ReferenceId":"943524104","Spot":0.7,"SideOfStreet":"right","StateId":"20248595","CountyId":"20345050","CityId":"20345325","DistrictId":"20345388"}}},{"Relevance":1.0,"Distance":45.5,"MatchLevel":"street","MatchQuality":{"Country":1.0,"State":1.0,"County":1.0,"City":1.0,"District":1.0,"Street":[1.0],"PostalCode":1.0},"Location":{"LocationId":"NT_idXZIQt4CeKQljyTJk87WD_l_943524102_L","LocationType":"point","DisplayPosition":{"Latitude":53.84692,"Longitude":-1.60367},"MapView":{"TopLeft":{"Latitude":53.84741,"Longitude":-1.604},"BottomRight":{"Latitude":53.84692,"Longitude":-1.60367}},"Address":{"Label":"Otley Old Road, Leeds, LS16 6, United Kingdom","Country":"GBR","State":"England","County":"West Yorkshire","City":"Leeds","District":"West Park","Street":"Otley Old Road","PostalCode":"LS16 6","AdditionalData":[{"value":"United Kingdom","key":"CountryName"},{"value":"England","key":"StateName"},{"value":"West Yorkshire","key":"CountyName"}]},"MapReference":{"ReferenceId":"943524102","Spot":0.0,"SideOfStreet":"left","StateId":"20248595","CountyId":"20345050","CityId":"20345325","DistrictId":"20345388"}}},{"Relevance":1.0,"Distance":45.5,"MatchLevel":"street","MatchQuality":{"Country":1.0,"State":1.0,"County":1.0,"City":1.0,"District":1.0,"PostalCode":1.0},"Location":{"LocationId":"NT_oQmn8-FzrDc-eunYBbcNED_l_1171160554_R","LocationType":"point","DisplayPosition":{"Latitude":53.84692,"Longitude":-1.60367},"MapView":{"TopLeft":{"Latitude":53.847,"Longitude":-1.60367},"BottomRight":{"Latitude":53.84692,"Longitude":-1.60341}},"Address":{"Label":"Leeds, LS16 6, United Kingdom","Country":"GBR","State":"England","County":"West Yorkshire","City":"Leeds","District":"West Park","PostalCode":"LS16 6","AdditionalData":[{"value":"United Kingdom","key":"CountryName"},{"value":"England","key":"StateName"},{"value":"West Yorkshire","key":"CountyName"}]},"MapReference":{"ReferenceId":"1171160554","Spot":0.0,"SideOfStreet":"right","StateId":"20248595","CountyId":"20345050","CityId":"20345325","DistrictId":"20345388"}}},{"Relevance":1.0,"Distance":53.3,"MatchLevel":"houseNumber","MatchQuality":{"Country":1.0,"State":1.0,"County":1.0,"City":1.0,"District":1.0,"Street":[1.0],"HouseNumber":1.0,"PostalCode":1.0},"MatchType":"interpolated","Location":{"LocationId":"NT_idXZIQt4CeKQljyTJk87WD_l_943524152_L_xYzN","LocationType":"point","DisplayPosition":{"Latitude":53.84647,"Longitude":-1.603105},"MapView":{"TopLeft":{"Latitude":53.8475942,"Longitude":-1.6050105},"BottomRight":{"Latitude":53.8453459,"Longitude":-1.6011995}},"Address":{"Label":"167 Otley Old Road, Leeds, LS16 6HN, United Kingdom","Country":"GBR","State":"England","County":"West Yorkshire","City":"Leeds","District":"West Park","Street":"Otley Old Road","HouseNumber":"167","PostalCode":"LS16 6HN","AdditionalData":[{"value":"United Kingdom","key":"CountryName"},{"value":"England","key":"StateName"},{"value":"West Yorkshire","key":"CountyName"}]},"MapReference":{"ReferenceId":"943524152","Spot":0.49,"SideOfStreet":"left","StateId":"20248595","CountyId":"20345050","CityId":"20345325","DistrictId":"20345388"}}},{"Relevance":1.0,"Distance":55.5,"MatchLevel":"houseNumber","MatchQuality":{"Country":1.0,"State":1.0,"County":1.0,"City":1.0,"District":1.0,"Street":[1.0],"HouseNumber":1.0,"PostalCode":1.0},"MatchType":"interpolated","Location":{"LocationId":"NT_idXZIQt4CeKQljyTJk87WD_l_1050473948_R_0YD","LocationType":"point","DisplayPosition":{"Latitude":53.8468568,"Longitude":-1.6032668},"MapView":{"TopLeft":{"Latitude":53.8479809,"Longitude":-1.6051723},"BottomRight":{"Latitude":53.8457326,"Longitude":-1.6013612}},"Address":{"Label":"46 Otley Old Road, Leeds, LS16 6, United Kingdom","Country":"GBR","State":"England","County":"West Yorkshire","City":"Leeds","District":"West Park","Street":"Otley Old Road","HouseNumber":"46","PostalCode":"LS16 6","AdditionalData":[{"value":"United Kingdom","key":"CountryName"},{"value":"England","key":"StateName"},{"value":"West Yorkshire","key":"CountyName"}]},"MapReference":{"ReferenceId":"1050473948","Spot":0.5,"SideOfStreet":"right","StateId":"20248595","CountyId":"20345050","CityId":"20345325","DistrictId":"20345388"}}},{"Relevance":1.0,"Distance":63.0,"MatchLevel":"street","MatchQuality":{"Country":1.0,"State":1.0,"County":1.0,"City":1.0,"District":1.0,"Street":[1.0],"PostalCode":1.0},"Location":{"LocationId":"NT_dj2qNwUx.numq4m9ahApbC_l_78738433_R","LocationType":"point","DisplayPosition":{"Latitude":53.8462,"Longitude":-1.60469},"MapView":{"TopLeft":{"Latitude":53.84649,"Longitude":-1.60497},"BottomRight":{"Latitude":53.8462,"Longitude":-1.60469}},"Address":{"Label":"Iveson Rise, Leeds, LS16 6, United Kingdom","Country":"GBR","State":"England","County":"West Yorkshire","City":"Leeds","District":"West Park","Street":"Iveson Rise","PostalCode":"LS16 6","AdditionalData":[{"value":"United Kingdom","key":"CountryName"},{"value":"England","key":"StateName"},{"value":"West Yorkshire","key":"CountyName"}]},"MapReference":{"ReferenceId":"78738433","Spot":0.0,"SideOfStreet":"right","StateId":"20248595","CountyId":"20345050","CityId":"20345325","DistrictId":"20345388"}}},{"Relevance":1.0,"Distance":64.7,"MatchLevel":"street","MatchQuality":{"Country":1.0,"State":1.0,"County":1.0,"City":1.0,"District":1.0,"Street":[1.0],"PostalCode":1.0},"Location":{"LocationId":"NT_qgfcZUT8Dk2d0v6vzA82DD_l_943524159_L","LocationType":"point","DisplayPosition":{"Latitude":53.84614,"Longitude":-1.6032},"MapView":{"TopLeft":{"Latitude":53.84636,"Longitude":-1.6032},"BottomRight":{"Latitude":53.84614,"Longitude":-1.60291}},"Address":{"Label":"Iveson Wood Rise, Leeds, LS16 6, United Kingdom","Country":"GBR","State":"England","County":"West Yorkshire","City":"Leeds","District":"West Park","Street":"Iveson Wood Rise","PostalCode":"LS16 6","AdditionalData":[{"value":"United Kingdom","key":"CountryName"},{"value":"England","key":"StateName"},{"value":"West Yorkshire","key":"CountyName"}]},"MapReference":{"ReferenceId":"943524159","Spot":0.0,"SideOfStreet":"left","StateId":"20248595","CountyId":"20345050","CityId":"20345325","DistrictId":"20345388"}}}]}]}}