{"Response":{"MetaInfo":{"Timestamp":"2020-03-28T09:50:42.233+0000","NextPageInformation":"2"},"View":[{"_type":"SearchResultsViewType","ViewId":0,"Result":[{"Relevance":1.0,"Distance":0.0,"Direction":0.0,"MatchLevel":"district","MatchQuality":{"Country":1.0,"State":1.0,"County":1.0,"City":1.0,"District":1.0,"PostalCode":1.0},"Location":{"LocationId":"NT_FO8ilxazEUl6oEIoHkwkxC","LocationType":"point","DisplayPosition":{"Latitude":53.8488374,"Longitude":-1.7687656},"MapView":{"TopLeft":{"Latitude":53.85843,"Longitude":-1.80351},"BottomRight":{"Latitude":53.83718,"Longitude":-1.74285}},"Address":{"Label":"Baildon, Shipley, England, United Kingdom","Country":"GBR","State":"England","County":"West Yorkshire","City":"Shipley","District":"Baildon","PostalCode":"BD17 6","AdditionalData":[{"value":"United Kingdom","key":"CountryName"},{"value":"England","key":"StateName"},{"value":"West Yorkshire","key":"CountyName"}]},"MapReference":{"ReferenceId":"1066559358","SideOfStreet":"neither","StateId":"20248595","CountyId":"20345050","CityId":"20345453","DistrictId":"20345455"}}},{"Relevance":1.0,"Distance":13.6,"MatchLevel":"postalCode","MatchQuality":{"PostalCode":1.0},"MatchType":"interpolated","Location":{"LocationId":"NT_leiYAW2TyzmToY2oUOPe4C_l_766394724_L_xMD","LocationType":"point","DisplayPosition":{"Latitude":53.84875,"Longitude":-1.76862},"MapView":{"TopLeft":{"Latitude":53.8577432,"Longitude":-1.7838648},"BottomRight":{"Latitude":53.8397568,"Longitude":-1.7533752}},"Address":{"Label":"BD17 6NT, Shipley, England, United Kingdom","Country":"GBR","State":"England","County":"West Yorkshire","City":"Shipley","PostalCode":"BD17 6NT","AdditionalData":[{"value":"United Kingdom","key":"CountryName"},{"value":"England","key":"StateName"},{"value":"West Yorkshire","key":"CountyName"}]},"MapReference":{"ReferenceId":"766394724","Spot":0.5,"SideOfStreet":"neither","StateId":"20248595","CountyId":"20345050","CityId":"20345453"}}},{"Relevance":1.0,"Distance":14.0,"MatchLevel":"houseNumber","MatchQuality":{"Country":1.0,"State":1.0,"County":1.0,"City":1.0,"District":1.0,"Street":[1.0],"HouseNumber":1.0,"PostalCode":1.0},"MatchType":"interpolated","Location":{"LocationId":"NT_leiYAW2TyzmToY2oUOPe4C_l_766394724_L_xMD","LocationType":"point","DisplayPosition":{"Latitude":53.84877,"Longitude":-1.768585},"MapView":{"TopLeft":{"Latitude":53.8498942,"Longitude":-1.7704906},"BottomRight":{"Latitude":53.8476459,"Longitude":-1.7666794}},"Address":{"Label":"13 Cliffe Avenue, Shipley, BD17 6NX, United Kingdom","Country":"GBR","State":"England","County":"West Yorkshire","City":"Shipley","District":"Baildon","Street":"Cliffe Avenue","HouseNumber":"13","PostalCode":"BD17 6NX","AdditionalData":[{"value":"United Kingdom","key":"CountryName"},{"value":"England","key":"StateName"},{"value":"West Yorkshire","key":"CountyName"}]},"MapReference":{"ReferenceId":"766394724","Spot":0.5,"SideOfStreet":"left","StateId":"20248595","CountyId":"20345050","CityId":"20345453","DistrictId":"20345455"}}},{"Relevance":1.0,"Distance":27.6,"MatchLevel":"houseNumber","MatchQuality":{"Country":1.0,"State":1.0,"County":1.0,"City":1.0,"District":1.0,"Street":[1.0],"HouseNumber":1.0,"PostalCode":1.0},"MatchType":"interpolated","Location":{"LocationId":"NT_leiYAW2TyzmToY2oUOPe4C_l_766394723_L_5A","LocationType":"point","DisplayPosition":{"Latitude":53.84876,"Longitude":-1.76829},"MapView":{"TopLeft":{"Latitude":53.8498842,"Longitude":-1.7701956},"BottomRight":{"Latitude":53.8476359,"Longitude":-1.7663844}},"Address":{"Label":"9 Cliffe Avenue, Shipley, BD17 6NX, United Kingdom","Country":"GBR","State":"England","County":"West Yorkshire","City":"Shipley","District":"Baildon","Street":"Cliffe Avenue","HouseNumber":"9","PostalCode":"BD17 6NX","AdditionalData":[{"value":"United Kingdom","key":"CountryName"},{"value":"England","key":"StateName"},{"value":"West Yorkshire","key":"CountyName"}]},"MapReference":{"ReferenceId":"766394723","Spot":0.33,"SideOfStreet":"left","StateId":"20248595","CountyId":"20345050","CityId":"20345453","DistrictId":"20345455"}}},{"Relevance":1.0,"Distance":28.4,"MatchLevel":"houseNumber","MatchQuality":{"Country":1.0,"State":1.0,"County":1.0,"City":1.0,"District":1.0,"Street":[1.0],"HouseNumber":1.0,"PostalCode":1.0},"MatchType":"interpolated","Location":{"LocationId":"NT_leiYAW2TyzmToY2oUOPe4C_l_766394722_R_xYD","LocationType":"point","DisplayPosition":{"Latitude":53.84859,"Longitude":-1.76866},"MapView":{"TopLeft":{"Latitude":53.8497142,"Longitude":-1.7705656},"BottomRight":{"Latitude":53.8474659,"Longitude":-1.7667544}},"Address":{"Label":"16 Cliffe Avenue, Shipley, BD17 6PD, United Kingdom","Country":"GBR","State":"England","County":"West Yorkshire","City":"Shipley","District":"Baildon","Street":"Cliffe Avenue","HouseNumber":"16","PostalCode":"BD17 6PD","AdditionalData":[{"value":"United Kingdom","key":"CountryName"},{"value":"England","key":"StateName"},{"value":"West Yorkshire","key":"CountyName"}]},"MapReference":{"ReferenceId":"766394722","Spot":0.5,"SideOfStreet":"right","StateId":"20248595","CountyId":"20345050","CityId":"20345453","DistrictId":"20345455"}}},{"Relevance":1.0,"Distance":37.9,"MatchLevel":"street","MatchQuality":{"Country":1.0,"State":1.0,"County":1.0,"City":1.0,"District":1.0,"Street":[1.0],"PostalCode":1.0},"Location":{"LocationId":"NT_leiYAW2TyzmToY2oUOPe4C_l_585770167_L","LocationType":"point","DisplayPosition":{"Latitude":53.8485,"Longitude":-1.76885},"MapView":{"TopLeft":{"Latitude":53.8485,"Longitude":-1.76919},"BottomRight":{"Latitude":53.84834,"Longitude":-1.76885}},"Address":{"Label":"Cliffe Avenue, Shipley, BD17 6, United Kingdom","Country":"GBR","State":"England","County":"West Yorkshire","City":"Shipley","District":"Baildon","Street":"Cliffe Avenue","PostalCode":"BD17 6","AdditionalData":[{"value":"United Kingdom","key":"CountryName"},{"value":"England","key":"StateName"},{"value":"West Yorkshire","key":"CountyName"}]},"MapReference":{"ReferenceId":"585770167","Spot":1.0,"SideOfStreet":"left","StateId":"20248595","CountyId":"20345050","CityId":"20345453","DistrictId":"20345455"}}},{"Relevance":1.0,"Distance":45.2,"MatchLevel":"houseNumber","MatchQuality":{"Country":1.0,"State":1.0,"County":1.0,"City":1.0,"District":1.0,"Street":[1.0],"HouseNumber":1.0,"PostalCode":1.0},"MatchType":"interpolated","Location":{"LocationId":"NT_leiYAW2TyzmToY2oUOPe4C_l_27379323_R_yAD","LocationType":"point","DisplayPosition":{"Latitude":53.84833,"Longitude":-1.7686625},"MapView":{"TopLeft":{"Latitude":53.8494542,"Longitude":-1.7705681},"BottomRight":{"Latitude":53.8472059,"Longitude":-1.7667569}},"Address":{"Label":"20 Cliffe Avenue, Shipley, BD17 6PD, United Kingdom","Country":"GBR","State":"England","County":"West Yorkshire","City":"Shipley","District":"Baildon","Street":"Cliffe Avenue","HouseNumber":"20","PostalCode":"BD17 6PD","AdditionalData":[{"value":"United Kingdom","key":"CountryName"},{"value":"England","key":"StateName"},{"value":"West Yorkshire","key":"CountyName"}]},"MapReference":{"ReferenceId":"27379323","Spot":0.61,"SideOfStreet":"right","StateId":"20248595","CountyId":"20345050","CityId":"20345453","DistrictId":"20345455"}}},{"Relevance":1.0,"Distance":45.2,"MatchLevel":"houseNumber","MatchQuality":{"Country":1.0,"State":1.0,"County":1.0,"City":1.0,"District":1.0,"Street":[1.0],"HouseNumber":1.0,"PostalCode":1.0},"MatchType":"interpolated","Location":{"LocationId":"NT_j1sGLLhFcCC6J5jDv3zdRC_l_585770168_R_xID","LocationType":"point","DisplayPosition":{"Latitude":53.8484192,"Longitude":-1.7693234},"MapView":{"TopLeft":{"Latitude":53.8495434,"Longitude":-1.771229},"BottomRight":{"Latitude":53.8472951,"Longitude":-1.7674178}},"Address":{"Label":"12 Old School Way, Shipley, BD17 6NY, United Kingdom","Country":"GBR","State":"England","County":"West Yorkshire","City":"Shipley","District":"Baildon","Street":"Old School Way","HouseNumber":"12","PostalCode":"BD17 6NY","AdditionalData":[{"value":"United Kingdom","key":"CountryName"},{"value":"England","key":"StateName"},{"value":"West Yorkshire","key":"CountyName"}]},"MapReference":{"ReferenceId":"585770168","Spot":0.42,"SideOfStreet":"right","StateId":"20248595","CountyId":"20345050","CityId":"20345453","DistrictId":"20345455"}}},{"Relevance":1.0,"Distance":47.3,"MatchLevel":"houseNumber","MatchQuality":{"Country":1.0,"State":1.0,"County":1.0,"City":1.0,"District":1.0,"Street":[1.0],"HouseNumber":1.0,"PostalCode":1.0},"MatchType":"interpolated","Location":{"LocationId":"NT_Ro1OXksR7hq.whAzC87dYA_l_27379213_R_2A","LocationType":"point","DisplayPosition":{"Latitude":53.8490089,"Longitude":-1.7695747},"MapView":{"TopLeft":{"Latitude":53.8501331,"Longitude":-1.7714803},"BottomRight":{"Latitude":53.8478848,"Longitude":-1.7676691}},"Address":{"Label":"6 Green Road, Shipley, BD17 5HL, United Kingdom","Country":"GBR","State":"England","County":"West Yorkshire","City":"Shipley","District":"Baildon","Street":"Green Road","HouseNumber":"6","PostalCode":"BD17 5HL","AdditionalData":[{"value":"United Kingdom","key":"CountryName"},{"value":"England","key":"StateName"},{"value":"West Yorkshire","key":"CountyName"}]},"MapReference":{"ReferenceId":"27379213","Spot":0.38,"SideOfStreet":"right","StateId":"20248595","CountyId":"20345050","CityId":"20345453","DistrictId":"20345455"}}},{"Relevance":1.0,"Distance":55.3,"MatchLevel":"street","MatchQuality":{"Country":1.0,"State":1.0,"County":1.0,"City":1.0,"District":1.0,"PostalCode":1.0},"Location":{"LocationId":"NT_z8wrc3uuBqAWQ6MERJk.2C_l_27379374_L","LocationType":"point","DisplayPosition":{"Latitude":53.84894,"Longitude":-1.76794},"MapView":{"TopLeft":{"Latitude":53.84894,"Longitude":-1.76794},"BottomRight":{"Latitude":53.84788,"Longitude":-1.76682}},"Address":{"Label":"Shipley, BD17 6, United Kingdom","Country":"GBR","State":"England","County":"West Yorkshire","City":"Shipley","District":"Baildon","PostalCode":"BD17 6","AdditionalData":[{"value":"United Kingdom","key":"CountryName"},{"value":"England","key":"StateName"},{"value":"West Yorkshire","key":"CountyName"}]},"MapReference":{"ReferenceId":"27379374","Spot":1.0,"SideOfStreet":"left","StateId":"20248595","CountyId":"20345050","CityId":"20345453","DistrictId":"20345455"}}}]}]}}