{"Response":{"MetaInfo":{"Timestamp":"2020-03-28T10:35:27.784+0000","NextPageInformation":"2"},"View":[{"_type":"SearchResultsViewType","ViewId":0,"Result":[{"Relevance":1.0,"Distance":0.0,"Direction":0.0,"MatchLevel":"district","MatchQuality":{"Country":1.0,"State":1.0,"County":1.0,"City":1.0,"District":1.0,"PostalCode":1.0},"Location":{"LocationId":"NT_hGT3BBbP.TbqUWISAyL0YA","LocationType":"point","DisplayPosition":{"Latitude":53.8078011,"Longitude":-1.623599},"MapView":{"TopLeft":{"Latitude":53.81654,"Longitude":-1.65365},"BottomRight":{"Latitude":53.80108,"Longitude":-1.61635}},"Address":{"Label":"Bramley, Leeds, England, United Kingdom","Country":"GBR","State":"England","County":"West Yorkshire","City":"Leeds","District":"Bramley","PostalCode":"LS13 4","AdditionalData":[{"value":"United Kingdom","key":"CountryName"},{"value":"England","key":"StateName"},{"value":"West Yorkshire","key":"CountyName"}]},"MapReference":{"ReferenceId":"27397842","SideOfStreet":"neither","StateId":"20248595","CountyId":"20345050","CityId":"20345325","DistrictId":"20345337"}}},{"Relevance":1.0,"Distance":2.1,"MatchLevel":"houseNumber","MatchQuality":{"Country":1.0,"State":1.0,"County":1.0,"City":1.0,"District":1.0,"Street":[1.0],"HouseNumber":1.0,"PostalCode":1.0},"MatchType":"interpolated","Location":{"LocationId":"NT_fFbDrvPCVcAnBgUYlQbb9C_l_27397025_L_2A","LocationType":"point","DisplayPosition":{"Latitude":53.8079158,"Longitude":-1.6235354},"MapView":{"TopLeft":{"Latitude":53.8090399,"Longitude":-1.6254392},"BottomRight":{"Latitude":53.8067916,"Longitude":-1.6216317}},"Address":{"Label":"6 Highfield Road, Leeds, LS13 2, United Kingdom","Country":"GBR","State":"England","County":"West Yorkshire","City":"Leeds","District":"Bramley","Street":"Highfield Road","HouseNumber":"6","PostalCode":"LS13 2","AdditionalData":[{"value":"United Kingdom","key":"CountryName"},{"value":"England","key":"StateName"},{"value":"West Yorkshire","key":"CountyName"}]},"MapReference":{"ReferenceId":"27397025","Spot":0.72,"SideOfStreet":"left","StateId":"20248595","CountyId":"20345050","CityId":"20345325","DistrictId":"20345337"}}},{"Relevance":1.0,"Distance":29.5,"MatchLevel":"street","MatchQuality":{"Country":1.0,"State":1.0,"County":1.0,"City":1.0,"District":1.0,"Street":[1.0],"PostalCode":1.0},"Location":{"LocationId":"NT_ZxCafaW0rePZQuBoADCkeB_l_27397057_R","LocationType":"point","DisplayPosition":{"Latitude":53.8075415,"Longitude":-1.6236938},"MapView":{"TopLeft":{"Latitude":53.80773,"Longitude":-1.62421},"BottomRight":{"Latitude":53.8075,"Longitude":-1.62358}},"Address":{"Label":"Highfield Street, Leeds, LS13 2, United Kingdom","Country":"GBR","State":"England","County":"West Yorkshire","City":"Leeds","District":"Bramley","Street":"Highfield Street","PostalCode":"LS13 2","AdditionalData":[{"value":"United Kingdom","key":"CountryName"},{"value":"England","key":"StateName"},{"value":"West Yorkshire","key":"CountyName"}]},"MapReference":{"ReferenceId":"27397057","Spot":0.18,"SideOfStreet":"right","StateId":"20248595","CountyId":"20345050","CityId":"20345325","DistrictId":"20345337"}}},{"Relevance":1.0,"Distance":34.1,"MatchLevel":"postalCode","MatchQuality":{"PostalCode":1.0},"MatchType":"interpolated","Location":{"LocationId":"NT_fFbDrvPCVcAnBgUYlQbb9C_l_27397025_L_2A","LocationType":"point","DisplayPosition":{"Latitude":53.80781,"Longitude":-1.62308},"MapView":{"TopLeft":{"Latitude":53.8168032,"Longitude":-1.6383099},"BottomRight":{"Latitude":53.7988168,"Longitude":-1.6078501}},"Address":{"Label":"LS13 2BL, Leeds, England, United Kingdom","Country":"GBR","State":"England","County":"West Yorkshire","City":"Leeds","PostalCode":"LS13 2BL","AdditionalData":[{"value":"United Kingdom","key":"CountryName"},{"value":"England","key":"StateName"},{"value":"West Yorkshire","key":"CountyName"}]},"MapReference":{"ReferenceId":"27397025","Spot":0.72,"SideOfStreet":"neither","StateId":"20248595","CountyId":"20345050","CityId":"20345325"}}},{"Relevance":1.0,"Distance":37.5,"MatchLevel":"street","MatchQuality":{"Country":1.0,"State":1.0,"County":1.0,"City":1.0,"District":1.0,"Street":[1.0],"PostalCode":1.0},"Location":{"LocationId":"NT_OjCww5DNxJoGxBnSmFTwOC_l_78730112_L","LocationType":"point","DisplayPosition":{"Latitude":53.8081308,"Longitude":-1.623477},"MapView":{"TopLeft":{"Latitude":53.80818,"Longitude":-1.62361},"BottomRight":{"Latitude":53.80771,"Longitude":-1.62234}},"Address":{"Label":"Back Highfield Road, Leeds, LS13 2, United Kingdom","Country":"GBR","State":"England","County":"West Yorkshire","City":"Leeds","District":"Bramley","Street":"Back Highfield Road","PostalCode":"LS13 2","AdditionalData":[{"value":"United Kingdom","key":"CountryName"},{"value":"England","key":"StateName"},{"value":"West Yorkshire","key":"CountyName"}]},"MapReference":{"ReferenceId":"78730112","Spot":0.9,"SideOfStreet":"left","StateId":"20248595","CountyId":"20345050","CityId":"20345325","DistrictId":"20345337"}}},{"Relevance":1.0,"Distance":38.1,"MatchLevel":"postalCode","MatchQuality":{"PostalCode":1.0},"Location":{"LocationId":"NT_ZxCafaW0rePZQuBoADCkeB_l_27397057_R","LocationType":"point","DisplayPosition":{"Latitude":53.80746,"Longitude":-1.62354},"MapView":{"TopLeft":{"Latitude":53.8164532,"Longitude":-1.6387698},"BottomRight":{"Latitude":53.7984668,"Longitude":-1.6083102}},"Address":{"Label":"LS13 2DR, Leeds, England, United Kingdom","Country":"GBR","State":"England","County":"West Yorkshire","City":"Leeds","PostalCode":"LS13 2DR","AdditionalData":[{"value":"United Kingdom","key":"CountryName"},{"value":"England","key":"StateName"},{"value":"West Yorkshire","key":"CountyName"}]},"MapReference":{"ReferenceId":"27397057","Spot":0.18,"SideOfStreet":"neither","StateId":"20248595","CountyId":"20345050","CityId":"20345325"}}},{"Relevance":1.0,"Distance":38.6,"MatchLevel":"houseNumber","MatchQuality":{"Country":1.0,"State":1.0,"County":1.0,"City":1.0,"District":1.0,"Street":[1.0],"HouseNumber":1.0,"PostalCode":1.0},"MatchType":"interpolated","Location":{"LocationId":"NT_1PoFBfeR9QSzSEhNzhq9tB_l_78730107_L_3A","LocationType":"point","DisplayPosition":{"Latitude":53.8081254,"Longitude":-1.6238108},"MapView":{"TopLeft":{"Latitude":53.8092495,"Longitude":-1.6257145},"BottomRight":{"Latitude":53.8070012,"Longitude":-1.621907}},"Address":{"Label":"7 Aston Road, Leeds, LS13 2BH, United Kingdom","Country":"GBR","State":"England","County":"West Yorkshire","City":"Leeds","District":"Bramley","Street":"Aston Road","HouseNumber":"7","PostalCode":"LS13 2BH","AdditionalData":[{"value":"United Kingdom","key":"CountryName"},{"value":"England","key":"StateName"},{"value":"West Yorkshire","key":"CountyName"}]},"MapReference":{"ReferenceId":"78730107","Spot":0.25,"SideOfStreet":"left","StateId":"20248595","CountyId":"20345050","CityId":"20345325","DistrictId":"20345337"}}},{"Relevance":1.0,"Distance":39.0,"MatchLevel":"street","MatchQuality":{"Country":1.0,"State":1.0,"County":1.0,"City":1.0,"District":1.0,"Street":[1.0],"PostalCode":1.0},"Location":{"LocationId":"NT_1PoFBfeR9QSzSEhNzhq9tB_l_27396718_R","LocationType":"point","DisplayPosition":{"Latitude":53.80811,"Longitude":-1.62388},"MapView":{"TopLeft":{"Latitude":53.80811,"Longitude":-1.62423},"BottomRight":{"Latitude":53.80803,"Longitude":-1.62388}},"Address":{"Label":"Aston Road, Leeds, LS13 2, United Kingdom","Country":"GBR","State":"England","County":"West Yorkshire","City":"Leeds","District":"Bramley","Street":"Aston Road","PostalCode":"LS13 2","AdditionalData":[{"value":"United Kingdom","key":"CountryName"},{"value":"England","key":"StateName"},{"value":"West Yorkshire","key":"CountyName"}]},"MapReference":{"ReferenceId":"27396718","Spot":1.0,"SideOfStreet":"right","StateId":"20248595","CountyId":"20345050","CityId":"20345325","DistrictId":"20345337"}}},{"Relevance":1.0,"Distance":40.5,"MatchLevel":"street","MatchQuality":{"Country":1.0,"State":1.0,"County":1.0,"City":1.0,"District":1.0,"Street":[1.0],"PostalCode":1.0},"Location":{"LocationId":"NT_29PuCljTpDe3fAy4WGiS0A_l_27396936_R","LocationType":"point","DisplayPosition":{"Latitude":53.8077602,"Longitude":-1.624212},"MapView":{"TopLeft":{"Latitude":53.80803,"Longitude":-1.62423},"BottomRight":{"Latitude":53.80773,"Longitude":-1.62421}},"Address":{"Label":"Lower Town Street, Leeds, LS13 2, United Kingdom","Country":"GBR","State":"England","County":"West Yorkshire","City":"Leeds","District":"Bramley","Street":"Lower Town Street","PostalCode":"LS13 2","AdditionalData":[{"value":"United Kingdom","key":"CountryName"},{"value":"England","key":"StateName"},{"value":"West Yorkshire","key":"CountyName"}]},"MapReference":{"ReferenceId":"27396936","Spot":0.1,"SideOfStreet":"right","StateId":"20248595","CountyId":"20345050","CityId":"20345325","DistrictId":"20345337"}}},{"Relevance":1.0,"Distance":41.2,"MatchLevel":"street","MatchQuality":{"Country":1.0,"State":1.0,"County":1.0,"City":1.0,"District":1.0,"Street":[1.0],"PostalCode":1.0},"Location":{"LocationId":"NT_lp3TsD-PaG-x25ppTvocjB_l_1171045959_R","LocationType":"point","DisplayPosition":{"Latitude":53.807711,"Longitude":-1.6242072},"MapView":{"TopLeft":{"Latitude":53.80773,"Longitude":-1.62421},"BottomRight":{"Latitude":53.80714,"Longitude":-1.62402}},"Address":{"Label":"Lower Town Street, Leeds, LS13 3, United Kingdom","Country":"GBR","State":"England","County":"West Yorkshire","City":"Leeds","District":"Bramley","Street":"Lower Town Street","PostalCode":"LS13 3","AdditionalData":[{"value":"United Kingdom","key":"CountryName"},{"value":"England","key":"StateName"},{"value":"West Yorkshire","key":"CountyName"}]},"MapReference":{"ReferenceId":"1171045959","Spot":0.97,"SideOfStreet":"right","StateId":"20248595","CountyId":"20345050","CityId":"20345325","DistrictId":"20345337"}}}]}]}}