{"Response":{"MetaInfo":{"Timestamp":"2020-03-28T10:37:24.171+0000","NextPageInformation":"2"},"View":[{"_type":"SearchResultsViewType","ViewId":0,"Result":[{"Relevance":1.0,"Distance":0.0,"Direction":0.0,"MatchLevel":"district","MatchQuality":{"Country":1.0,"State":1.0,"County":1.0,"City":1.0,"District":1.0,"PostalCode":1.0},"Location":{"LocationId":"NT_CJiJyjg8hMmZDxzgjt0j-D","LocationType":"point","DisplayPosition":{"Latitude":53.8573084,"Longitude":-0.4397809},"MapView":{"TopLeft":{"Latitude":53.85864,"Longitude":-0.46306},"BottomRight":{"Latitude":53.8225,"Longitude":-0.39466}},"Address":{"Label":"Beverley, England, United Kingdom","Country":"GBR","State":"England","County":"North Humberside","City":"Beverley","District":"Beverley","PostalCode":"HU17 8","AdditionalData":[{"value":"United Kingdom","key":"CountryName"},{"value":"England","key":"StateName"},{"value":"North Humberside","key":"CountyName"}]},"MapReference":{"ReferenceId":"1064513477","SideOfStreet":"neither","StateId":"20248595","CountyId":"20344500","CityId":"20344501","DistrictId":"20344502"}}},{"Relevance":1.0,"Distance":11.3,"MatchLevel":"street","MatchQuality":{"Country":1.0,"State":1.0,"County":1.0,"City":1.0,"District":1.0,"PostalCode":1.0},"Location":{"LocationId":"NT_ljG38I7CVd7K2yKzsOY8vD_l_26958045_R","LocationType":"point","DisplayPosition":{"Latitude":53.8574098,"Longitude":-0.4398012},"MapView":{"TopLeft":{"Latitude":53.85752,"Longitude":-0.44052},"BottomRight":{"Latitude":53.85713,"Longitude":-0.43925}},"Address":{"Label":"Beverley, HU17 7, United Kingdom","Country":"GBR","State":"England","County":"North Humberside","City":"Beverley","District":"Beverley","PostalCode":"HU17 7","AdditionalData":[{"value":"United Kingdom","key":"CountryName"},{"value":"England","key":"StateName"},{"value":"North Humberside","key":"CountyName"}]},"MapReference":{"ReferenceId":"26958045","Spot":0.58,"SideOfStreet":"right","StateId":"20248595","CountyId":"20344500","CityId":"20344501","DistrictId":"20344502"}}},{"Relevance":1.0,"Distance":31.7,"MatchLevel":"street","MatchQuality":{"Country":1.0,"State":1.0,"County":1.0,"City":1.0,"District":1.0,"Street":[1.0],"PostalCode":1.0},"Location":{"LocationId":"NT_MhL79zZvuINtRDv2qa-U-A_l_26958078_L","LocationType":"point","DisplayPosition":{"Latitude":53.8571848,"Longitude":-0.4393451},"MapView":{"TopLeft":{"Latitude":53.85752,"Longitude":-0.43949},"BottomRight":{"Latitude":53.85639,"Longitude":-0.43925}},"Address":{"Label":"Pighill Lane, Beverley, HU17 7, United Kingdom","Country":"GBR","State":"England","County":"North Humberside","City":"Beverley","District":"Beverley","Street":"Pighill Lane","PostalCode":"HU17 7","AdditionalData":[{"value":"United Kingdom","key":"CountryName"},{"value":"England","key":"StateName"},{"value":"North Humberside","key":"CountyName"}]},"MapReference":{"ReferenceId":"26958078","Spot":0.7,"SideOfStreet":"left","StateId":"20248595","CountyId":"20344500","CityId":"20344501","DistrictId":"20344502"}}},{"Relevance":1.0,"Distance":36.6,"MatchLevel":"street","MatchQuality":{"Country":1.0,"State":1.0,"County":1.0,"City":1.0,"District":1.0,"Street":[1.0],"PostalCode":1.0},"Location":{"LocationId":"NT_CCH-JXlXlEEY2oZ7mDKNNB_l_26958079_R","LocationType":"point","DisplayPosition":{"Latitude":53.85699,"Longitude":-0.43992},"MapView":{"TopLeft":{"Latitude":53.85713,"Longitude":-0.44052},"BottomRight":{"Latitude":53.85639,"Longitude":-0.43949}},"Address":{"Label":"Woodhall Way, Beverley, HU17 7, United Kingdom","Country":"GBR","State":"England","County":"North Humberside","City":"Beverley","District":"Beverley","Street":"Woodhall Way","PostalCode":"HU17 7","AdditionalData":[{"value":"United Kingdom","key":"CountryName"},{"value":"England","key":"StateName"},{"value":"North Humberside","key":"CountyName"}]},"MapReference":{"ReferenceId":"26958079","Spot":0.54,"SideOfStreet":"right","StateId":"20248595","CountyId":"20344500","CityId":"20344501","DistrictId":"20344502"}}},{"Relevance":1.0,"Distance":42.0,"MatchLevel":"street","MatchQuality":{"Country":1.0,"State":1.0,"County":1.0,"City":1.0,"District":1.0,"Street":[1.0],"PostalCode":1.0},"Location":{"LocationId":"NT_MhL79zZvuINtRDv2qa-U-A_l_778415863_L","LocationType":"point","DisplayPosition":{"Latitude":53.85752,"Longitude":-0.43925},"MapView":{"TopLeft":{"Latitude":53.85787,"Longitude":-0.43925},"BottomRight":{"Latitude":53.85752,"Longitude":-0.43897}},"Address":{"Label":"Pighill Lane, Beverley, HU17 7, United Kingdom","Country":"GBR","State":"England","County":"North Humberside","City":"Beverley","District":"Beverley","Street":"Pighill Lane","PostalCode":"HU17 7","AdditionalData":[{"value":"United Kingdom","key":"CountryName"},{"value":"England","key":"StateName"},{"value":"North Humberside","key":"CountyName"}]},"MapReference":{"ReferenceId":"778415863","Spot":0.0,"SideOfStreet":"left","StateId":"20248595","CountyId":"20344500","CityId":"20344501","DistrictId":"20344502"}}},{"Relevance":1.0,"Distance":53.9,"MatchLevel":"street","MatchQuality":{"Country":1.0,"State":1.0,"County":1.0,"City":1.0,"District":1.0,"Street":[1.0],"PostalCode":1.0},"Location":{"LocationId":"NT_mgl2XmXNnBGrJtZ6mFKuWB_l_78755262_L","LocationType":"point","DisplayPosition":{"Latitude":53.85746,"Longitude":-0.439},"MapView":{"TopLeft":{"Latitude":53.85746,"Longitude":-0.439},"BottomRight":{"Latitude":53.85703,"Longitude":-0.43827}},"Address":{"Label":"Beverley Drive, Beverley, HU17 9, United Kingdom","Country":"GBR","State":"England","County":"North Humberside","City":"Beverley","District":"Beverley","Street":"Beverley Drive","PostalCode":"HU17 9","AdditionalData":[{"value":"United Kingdom","key":"CountryName"},{"value":"England","key":"StateName"},{"value":"North Humberside","key":"CountyName"}]},"MapReference":{"ReferenceId":"78755262","Spot":1.0,"SideOfStreet":"left","StateId":"20248595","CountyId":"20344500","CityId":"20344501","DistrictId":"20344502"}}},{"Relevance":1.0,"Distance":84.6,"MatchLevel":"postalCode","MatchQuality":{"PostalCode":1.0},"Location":{"LocationId":"NT_MhL79zZvuINtRDv2qa-U-A_l_778415863_L","LocationType":"point","DisplayPosition":{"Latitude":53.85791,"Longitude":-0.43899},"MapView":{"TopLeft":{"Latitude":53.8669032,"Longitude":-0.4542382},"BottomRight":{"Latitude":53.8489168,"Longitude":-0.4237418}},"Address":{"Label":"HU17 7JY, Beverley, England, United Kingdom","Country":"GBR","State":"England","County":"North Humberside","City":"Beverley","PostalCode":"HU17 7JY","AdditionalData":[{"value":"United Kingdom","key":"CountryName"},{"value":"England","key":"StateName"},{"value":"North Humberside","key":"CountyName"}]},"MapReference":{"ReferenceId":"778415863","Spot":0.0,"SideOfStreet":"neither","StateId":"20248595","CountyId":"20344500","CityId":"20344501"}}},{"Relevance":1.0,"Distance":88.1,"MatchLevel":"houseNumber","MatchQuality":{"Country":1.0,"State":1.0,"County":1.0,"City":1.0,"District":1.0,"Street":[1.0],"HouseNumber":1.0,"PostalCode":1.0},"MatchType":"interpolated","Location":{"LocationId":"NT_CCH-JXlXlEEY2oZ7mDKNNB_l_1126716589_R_xczM","LocationType":"point","DisplayPosition":{"Latitude":53.8570286,"Longitude":-0.4410383},"MapView":{"TopLeft":{"Latitude":53.8581528,"Longitude":-0.4429442},"BottomRight":{"Latitude":53.8559045,"Longitude":-0.4391323}},"Address":{"Label":"173 Woodhall Way, Beverley, HU17 7JU, United Kingdom","Country":"GBR","State":"England","County":"North Humberside","City":"Beverley","District":"Beverley","Street":"Woodhall Way","HouseNumber":"173","PostalCode":"HU17 7JU","AdditionalData":[{"value":"United Kingdom","key":"CountryName"},{"value":"England","key":"StateName"},{"value":"North Humberside","key":"CountyName"}]},"MapReference":{"ReferenceId":"1126716589","Spot":0.73,"SideOfStreet":"right","StateId":"20248595","CountyId":"20344500","CityId":"20344501","DistrictId":"20344502"}}},{"Relevance":1.0,"Distance":93.5,"MatchLevel":"street","MatchQuality":{"Country":1.0,"State":1.0,"County":1.0,"City":1.0,"District":1.0,"Street":[1.0],"PostalCode":1.0},"Location":{"LocationId":"NT_mgl2XmXNnBGrJtZ6mFKuWB_l_78755263_R","LocationType":"point","DisplayPosition":{"Latitude":53.85658,"Longitude":-0.43907},"MapView":{"TopLeft":{"Latitude":53.85658,"Longitude":-0.43907},"BottomRight":{"Latitude":53.85643,"Longitude":-0.43849}},"Address":{"Label":"Beverley Drive, Beverley, HU17 9, United Kingdom","Country":"GBR","State":"England","County":"North Humberside","City":"Beverley","District":"Beverley","Street":"Beverley Drive","PostalCode":"HU17 9","AdditionalData":[{"value":"United Kingdom","key":"CountryName"},{"value":"England","key":"StateName"},{"value":"North Humberside","key":"CountyName"}]},"MapReference":{"ReferenceId":"78755263","Spot":1.0,"SideOfStreet":"right","StateId":"20248595","CountyId":"20344500","CityId":"20344501","DistrictId":"20344502"}}},{"Relevance":1.0,"Distance":102.0,"MatchLevel":"street","MatchQuality":{"Country":1.0,"State":1.0,"County":1.0,"City":1.0,"District":1.0,"Street":[1.0],"PostalCode":1.0},"Location":{"LocationId":"NT_EZZppbHtbx6MGEUOBDRH.B_l_1204365635_R","LocationType":"point","DisplayPosition":{"Latitude":53.85815,"Longitude":-0.4404},"MapView":{"TopLeft":{"Latitude":53.85815,"Longitude":-0.44304},"BottomRight":{"Latitude":53.85763,"Longitude":-0.4404}},"Address":{"Label":"Grange Way, Beverley, HU17 7, United Kingdom","Country":"GBR","State":"England","County":"North Humberside","City":"Beverley","District":"Beverley","Street":"Grange Way","PostalCode":"HU17 7","AdditionalData":[{"value":"United Kingdom","key":"CountryName"},{"value":"England","key":"StateName"},{"value":"North Humberside","key":"CountyName"}]},"MapReference":{"ReferenceId":"1204365635","Spot":1.0,"SideOfStreet":"right","StateId":"20248595","CountyId":"20344500","CityId":"20344501","DistrictId":"20344502"}}}]}]}}