{"Response":{"MetaInfo":{"Timestamp":"2020-03-28T10:36:07.238+0000","NextPageInformation":"2"},"View":[{"_type":"SearchResultsViewType","ViewId":0,"Result":[{"Relevance":1.0,"Distance":0.0,"Direction":0.0,"MatchLevel":"district","MatchQuality":{"Country":1.0,"State":1.0,"County":1.0,"City":1.0,"District":1.0,"PostalCode":1.0},"Location":{"LocationId":"NT_erWZWktSrTl3kKDsZM6HXA","LocationType":"point","DisplayPosition":{"Latitude":53.8171637,"Longitude":-1.5873008},"MapView":{"TopLeft":{"Latitude":53.83039,"Longitude":-1.6054},"BottomRight":{"Latitude":53.80528,"Longitude":-1.54956}},"Address":{"Label":"Headingley, Leeds, England, United Kingdom","Country":"GBR","State":"England","County":"West Yorkshire","City":"Leeds","District":"Headingley","PostalCode":"LS6 3","AdditionalData":[{"value":"United Kingdom","key":"CountryName"},{"value":"England","key":"StateName"},{"value":"West Yorkshire","key":"CountyName"}]},"MapReference":{"ReferenceId":"1171174564","SideOfStreet":"neither","StateId":"20248595","CountyId":"20345050","CityId":"20345325","DistrictId":"20345351"}}},{"Relevance":1.0,"Distance":14.3,"MatchLevel":"street","MatchQuality":{"Country":1.0,"State":1.0,"County":1.0,"City":1.0,"District":1.0,"Street":[1.0],"PostalCode":1.0},"Location":{"LocationId":"NT_Qm7fpYZDaZrRIHBLvqmJeA_l_1020338623_L","LocationType":"point","DisplayPosition":{"Latitude":53.8170879,"Longitude":-1.5874777},"MapView":{"TopLeft":{"Latitude":53.81725,"Longitude":-1.58797},"BottomRight":{"Latitude":53.817,"Longitude":-1.58747}},"Address":{"Label":"Kirkstall Lane, Leeds, LS6 3, United Kingdom","Country":"GBR","State":"England","County":"West Yorkshire","City":"Leeds","District":"Headingley","Street":"Kirkstall Lane","PostalCode":"LS6 3","AdditionalData":[{"value":"United Kingdom","key":"CountryName"},{"value":"England","key":"StateName"},{"value":"West Yorkshire","key":"CountyName"}]},"MapReference":{"ReferenceId":"1020338623","Spot":0.16,"SideOfStreet":"left","StateId":"20248595","CountyId":"20345050","CityId":"20345325","DistrictId":"20345351"}}},{"Relevance":1.0,"Distance":17.0,"MatchLevel":"houseNumber","MatchQuality":{"Country":1.0,"State":1.0,"County":1.0,"City":1.0,"District":1.0,"Street":[1.0],"HouseNumber":1.0,"PostalCode":1.0},"MatchType":"interpolated","Location":{"LocationId":"NT_Qm7fpYZDaZrRIHBLvqmJeA_l_27390786_R_yEjN","LocationType":"point","DisplayPosition":{"Latitude":53.81742,"Longitude":-1.5871799},"MapView":{"TopLeft":{"Latitude":53.8185442,"Longitude":-1.5890841},"BottomRight":{"Latitude":53.8162959,"Longitude":-1.5852758}},"Address":{"Label":"216 Kirkstall Lane, Leeds, LS6 3DS, United Kingdom","Country":"GBR","State":"England","County":"West Yorkshire","City":"Leeds","District":"Headingley","Street":"Kirkstall Lane","HouseNumber":"216","PostalCode":"LS6 3DS","AdditionalData":[{"value":"United Kingdom","key":"CountryName"},{"value":"England","key":"StateName"},{"value":"West Yorkshire","key":"CountyName"}]},"MapReference":{"ReferenceId":"27390786","Spot":0.28,"SideOfStreet":"right","StateId":"20248595","CountyId":"20345050","CityId":"20345325","DistrictId":"20345351"}}},{"Relevance":1.0,"Distance":22.0,"MatchLevel":"postalCode","MatchQuality":{"PostalCode":1.0},"Location":{"LocationId":"NT_Qm7fpYZDaZrRIHBLvqmJeA_l_1020338623_L","LocationType":"point","DisplayPosition":{"Latitude":53.81699,"Longitude":-1.58746},"MapView":{"TopLeft":{"Latitude":53.8259832,"Longitude":-1.6026933},"BottomRight":{"Latitude":53.8079968,"Longitude":-1.5722267}},"Address":{"Label":"LS6 3DS, Leeds, England, United Kingdom","Country":"GBR","State":"England","County":"West Yorkshire","City":"Leeds","PostalCode":"LS6 3DS","AdditionalData":[{"value":"United Kingdom","key":"CountryName"},{"value":"England","key":"StateName"},{"value":"West Yorkshire","key":"CountyName"}]},"MapReference":{"ReferenceId":"1020338623","Spot":0.16,"SideOfStreet":"neither","StateId":"20248595","CountyId":"20345050","CityId":"20345325"}}},{"Relevance":1.0,"Distance":24.9,"MatchLevel":"street","MatchQuality":{"Country":1.0,"State":1.0,"County":1.0,"City":1.0,"District":1.0,"Street":[1.0],"PostalCode":1.0},"Location":{"LocationId":"NT_Qm7fpYZDaZrRIHBLvqmJeA_l_27390836_R","LocationType":"point","DisplayPosition":{"Latitude":53.81738,"Longitude":-1.5874},"MapView":{"TopLeft":{"Latitude":53.81738,"Longitude":-1.58775},"BottomRight":{"Latitude":53.8173,"Longitude":-1.5874}},"Address":{"Label":"Kirkstall Lane, Leeds, LS6 3, United Kingdom","Country":"GBR","State":"England","County":"West Yorkshire","City":"Leeds","District":"Headingley","Street":"Kirkstall Lane","PostalCode":"LS6 3","AdditionalData":[{"value":"United Kingdom","key":"CountryName"},{"value":"England","key":"StateName"},{"value":"West Yorkshire","key":"CountyName"}]},"MapReference":{"ReferenceId":"27390836","Spot":1.0,"SideOfStreet":"right","StateId":"20248595","CountyId":"20345050","CityId":"20345325","DistrictId":"20345351"}}},{"Relevance":1.0,"Distance":33.2,"MatchLevel":"street","MatchQuality":{"Country":1.0,"State":1.0,"County":1.0,"City":1.0,"District":1.0,"Street":[1.0],"PostalCode":1.0},"Location":{"LocationId":"NT_A65qWg1NX2cl6.qFNuaEdC_l_1020338622_R","LocationType":"point","DisplayPosition":{"Latitude":53.8173,"Longitude":-1.58775},"MapView":{"TopLeft":{"Latitude":53.8173,"Longitude":-1.58797},"BottomRight":{"Latitude":53.81725,"Longitude":-1.58775}},"Address":{"Label":"Kirkstall Lane, Leeds, LS6 3, United Kingdom","Country":"GBR","State":"England","County":"West Yorkshire","City":"Leeds","District":"Headingley","Street":"Kirkstall Lane","PostalCode":"LS6 3","AdditionalData":[{"value":"United Kingdom","key":"CountryName"},{"value":"England","key":"StateName"},{"value":"West Yorkshire","key":"CountyName"}]},"MapReference":{"ReferenceId":"1020338622","Spot":1.0,"SideOfStreet":"right","StateId":"20248595","CountyId":"20345050","CityId":"20345325","DistrictId":"20345351"}}},{"Relevance":1.0,"Distance":33.2,"MatchLevel":"street","MatchQuality":{"Country":1.0,"State":1.0,"County":1.0,"City":1.0,"District":1.0,"Street":[1.0],"PostalCode":1.0},"Location":{"LocationId":"NT_YJOdrZUU623QEkk2Fg6lUC_l_27390837_R","LocationType":"point","DisplayPosition":{"Latitude":53.8173,"Longitude":-1.58775},"MapView":{"TopLeft":{"Latitude":53.81859,"Longitude":-1.58843},"BottomRight":{"Latitude":53.8173,"Longitude":-1.58775}},"Address":{"Label":"Back Langdale Gardens, Leeds, LS6 3, United Kingdom","Country":"GBR","State":"England","County":"West Yorkshire","City":"Leeds","District":"Headingley","Street":"Back Langdale Gardens","PostalCode":"LS6 3","AdditionalData":[{"value":"United Kingdom","key":"CountryName"},{"value":"England","key":"StateName"},{"value":"West Yorkshire","key":"CountyName"}]},"MapReference":{"ReferenceId":"27390837","Spot":0.0,"SideOfStreet":"right","StateId":"20248595","CountyId":"20345050","CityId":"20345325","DistrictId":"20345351"}}},{"Relevance":1.0,"Distance":34.8,"MatchLevel":"houseNumber","MatchQuality":{"Country":1.0,"State":1.0,"County":1.0,"City":1.0,"District":1.0,"Street":[1.0],"HouseNumber":1.0,"PostalCode":1.0},"MatchType":"interpolated","Location":{"LocationId":"NT_2IB4toov3QFU8lf.S7RG8D_l_27390787_L_xA","LocationType":"point","DisplayPosition":{"Latitude":53.8175,"Longitude":-1.58746},"MapView":{"TopLeft":{"Latitude":53.8186242,"Longitude":-1.5893642},"BottomRight":{"Latitude":53.8163759,"Longitude":-1.5855558}},"Address":{"Label":"1 Langdale Gardens, Leeds, LS6 3HB, United Kingdom","Country":"GBR","State":"England","County":"West Yorkshire","City":"Leeds","District":"Headingley","Street":"Langdale Gardens","HouseNumber":"1","PostalCode":"LS6 3HB","AdditionalData":[{"value":"United Kingdom","key":"CountryName"},{"value":"England","key":"StateName"},{"value":"West Yorkshire","key":"CountyName"}]},"MapReference":{"ReferenceId":"27390787","Spot":0.31,"SideOfStreet":"left","StateId":"20248595","CountyId":"20345050","CityId":"20345325","DistrictId":"20345351"}}},{"Relevance":1.0,"Distance":51.0,"MatchLevel":"houseNumber","MatchQuality":{"Country":1.0,"State":1.0,"County":1.0,"City":1.0,"District":1.0,"Street":[1.0],"HouseNumber":1.0,"PostalCode":1.0},"MatchType":"interpolated","Location":{"LocationId":"NT_A65qWg1NX2cl6.qFNuaEdC_l_1020338621_R_yEDN","LocationType":"point","DisplayPosition":{"Latitude":53.8172205,"Longitude":-1.5880977},"MapView":{"TopLeft":{"Latitude":53.8183447,"Longitude":-1.5900019},"BottomRight":{"Latitude":53.8160964,"Longitude":-1.5861935}},"Address":{"Label":"214 Kirkstall Lane, Leeds, LS6 3DS, United Kingdom","Country":"GBR","State":"England","County":"West Yorkshire","City":"Leeds","District":"Headingley","Street":"Kirkstall Lane","HouseNumber":"214","PostalCode":"LS6 3DS","AdditionalData":[{"value":"United Kingdom","key":"CountryName"},{"value":"England","key":"StateName"},{"value":"West Yorkshire","key":"CountyName"}]},"MapReference":{"ReferenceId":"1020338621","Spot":0.51,"SideOfStreet":"right","StateId":"20248595","CountyId":"20345050","CityId":"20345325","DistrictId":"20345351"}}},{"Relevance":1.0,"Distance":54.1,"MatchLevel":"houseNumber","MatchQuality":{"Country":1.0,"State":1.0,"County":1.0,"City":1.0,"District":1.0,"Street":[1.0],"HouseNumber":1.0,"PostalCode":1.0},"MatchType":"interpolated","Location":{"LocationId":"NT_KRHIJesIzcAo6e6wPoM6CB_l_27391213_L_xID","LocationType":"point","DisplayPosition":{"Latitude":53.81667,"Longitude":-1.5867299},"MapView":{"TopLeft":{"Latitude":53.8177942,"Longitude":-1.5886341},"BottomRight":{"Latitude":53.8155459,"Longitude":-1.5848258}},"Address":{"Label":"12 Laurel Bank Court, Leeds, LS6 3, United Kingdom","Country":"GBR","State":"England","County":"West Yorkshire","City":"Leeds","District":"Headingley","Street":"Laurel Bank Court","HouseNumber":"12","PostalCode":"LS6 3","AdditionalData":[{"value":"United Kingdom","key":"CountryName"},{"value":"England","key":"StateName"},{"value":"West Yorkshire","key":"CountyName"}]},"MapReference":{"ReferenceId":"27391213","Spot":0.28,"SideOfStreet":"left","StateId":"20248595","CountyId":"20345050","CityId":"20345325","DistrictId":"20345351"}}}]}]}}