{"Response":{"MetaInfo":{"Timestamp":"2020-03-28T11:57:48.484+0000","NextPageInformation":"2"},"View":[{"_type":"SearchResultsViewType","ViewId":0,"Result":[{"Relevance":1.0,"Distance":0.0,"Direction":0.0,"MatchLevel":"district","MatchQuality":{"Country":1.0,"State":1.0,"County":1.0,"City":1.0,"District":1.0,"PostalCode":1.0},"Location":{"LocationId":"NT_vxvsHR7W07rJNbjS40CdvA","LocationType":"point","DisplayPosition":{"Latitude":53.9837336,"Longitude":-2.1045037},"MapView":{"TopLeft":{"Latitude":53.99106,"Longitude":-2.11325},"BottomRight":{"Latitude":53.97974,"Longitude":-2.09556}},"Address":{"Label":"Gargrave, Skipton, England, United Kingdom","Country":"GBR","State":"England","County":"North Yorkshire","City":"Skipton","District":"Gargrave","PostalCode":"BD23 3","AdditionalData":[{"value":"United Kingdom","key":"CountryName"},{"value":"England","key":"StateName"},{"value":"North Yorkshire","key":"CountyName"}]},"MapReference":{"ReferenceId":"26946434","SideOfStreet":"neither","StateId":"20248595","CountyId":"20346756","CityId":"20347237","DistrictId":"20347267"}}},{"Relevance":1.0,"Distance":7.8,"MatchLevel":"street","MatchQuality":{"Country":1.0,"State":1.0,"County":1.0,"City":1.0,"District":1.0,"Street":[1.0],"PostalCode":1.0},"Location":{"LocationId":"NT_UzBoO--IO5-HKRf4Fjb8iB_l_807462429_L","LocationType":"point","DisplayPosition":{"Latitude":53.9836699,"Longitude":-2.1044555},"MapView":{"TopLeft":{"Latitude":53.98388,"Longitude":-2.10551},"BottomRight":{"Latitude":53.98312,"Longitude":-2.10417}},"Address":{"Label":"High Street, Skipton, BD23 3, United Kingdom","Country":"GBR","State":"England","County":"North Yorkshire","City":"Skipton","District":"Gargrave","Street":"High Street","PostalCode":"BD23 3","AdditionalData":[{"value":"United Kingdom","key":"CountryName"},{"value":"England","key":"StateName"},{"value":"North Yorkshire","key":"CountyName"}]},"MapReference":{"ReferenceId":"807462429","Spot":0.77,"SideOfStreet":"left","StateId":"20248595","CountyId":"20346756","CityId":"20347237","DistrictId":"20347267"}}},{"Relevance":1.0,"Distance":27.2,"MatchLevel":"street","MatchQuality":{"Country":1.0,"State":1.0,"County":1.0,"City":1.0,"District":1.0,"Street":[1.0],"PostalCode":1.0},"Location":{"LocationId":"NT_UzBoO--IO5-HKRf4Fjb8iB_l_807462430_L","LocationType":"point","DisplayPosition":{"Latitude":53.98388,"Longitude":-2.10417},"MapView":{"TopLeft":{"Latitude":53.98431,"Longitude":-2.10417},"BottomRight":{"Latitude":53.98388,"Longitude":-2.10357}},"Address":{"Label":"High Street, Skipton, BD23 3, United Kingdom","Country":"GBR","State":"England","County":"North Yorkshire","City":"Skipton","District":"Gargrave","Street":"High Street","PostalCode":"BD23 3","AdditionalData":[{"value":"United Kingdom","key":"CountryName"},{"value":"England","key":"StateName"},{"value":"North Yorkshire","key":"CountyName"}]},"MapReference":{"ReferenceId":"807462430","Spot":0.0,"SideOfStreet":"left","StateId":"20248595","CountyId":"20346756","CityId":"20347237","DistrictId":"20347267"}}},{"Relevance":1.0,"Distance":36.7,"MatchLevel":"postalCode","MatchQuality":{"PostalCode":1.0},"Location":{"LocationId":"NT_UzBoO--IO5-HKRf4Fjb8iB_l_807462430_L","LocationType":"point","DisplayPosition":{"Latitude":53.98392,"Longitude":-2.10404},"MapView":{"TopLeft":{"Latitude":53.9929132,"Longitude":-2.1193343},"BottomRight":{"Latitude":53.9749268,"Longitude":-2.0887457}},"Address":{"Label":"BD23 3RA, Skipton, England, United Kingdom","Country":"GBR","State":"England","County":"North Yorkshire","City":"Skipton","PostalCode":"BD23 3RA","AdditionalData":[{"value":"United Kingdom","key":"CountryName"},{"value":"England","key":"StateName"},{"value":"North Yorkshire","key":"CountyName"}]},"MapReference":{"ReferenceId":"807462430","Spot":0.0,"SideOfStreet":"neither","StateId":"20248595","CountyId":"20346756","CityId":"20347237"}}},{"Relevance":1.0,"Distance":58.5,"MatchLevel":"houseNumber","MatchQuality":{"Country":1.0,"State":1.0,"County":1.0,"City":1.0,"District":1.0,"Street":[1.0],"HouseNumber":1.0,"PostalCode":1.0},"MatchType":"interpolated","Location":{"LocationId":"NT_400UiGB8xG0HQZcPRTkYIA_l_716505375_R_1A","LocationType":"point","DisplayPosition":{"Latitude":53.98392,"Longitude":-2.1053401},"MapView":{"TopLeft":{"Latitude":53.9850442,"Longitude":-2.1072519},"BottomRight":{"Latitude":53.9827959,"Longitude":-2.1034283}},"Address":{"Label":"5 St Robert Close, Skipton, BD23 3PT, United Kingdom","Country":"GBR","State":"England","County":"North Yorkshire","City":"Skipton","District":"Gargrave","Street":"St Robert Close","HouseNumber":"5","PostalCode":"BD23 3PT","AdditionalData":[{"value":"United Kingdom","key":"CountryName"},{"value":"England","key":"StateName"},{"value":"North Yorkshire","key":"CountyName"}]},"MapReference":{"ReferenceId":"716505375","Spot":0.0,"SideOfStreet":"right","StateId":"20248595","CountyId":"20346756","CityId":"20347237","DistrictId":"20347267"}}},{"Relevance":1.0,"Distance":67.7,"MatchLevel":"postalCode","MatchQuality":{"PostalCode":1.0},"MatchType":"interpolated","Location":{"LocationId":"NT_So1xjmmAcAqb8meSH.4ZnB_l_716505372_R_zA","LocationType":"point","DisplayPosition":{"Latitude":53.98344,"Longitude":-2.10541},"MapView":{"TopLeft":{"Latitude":53.9924332,"Longitude":-2.1207041},"BottomRight":{"Latitude":53.9744468,"Longitude":-2.0901159}},"Address":{"Label":"BD23 3PZ, Skipton, England, United Kingdom","Country":"GBR","State":"England","County":"North Yorkshire","City":"Skipton","PostalCode":"BD23 3PZ","AdditionalData":[{"value":"United Kingdom","key":"CountryName"},{"value":"England","key":"StateName"},{"value":"North Yorkshire","key":"CountyName"}]},"MapReference":{"ReferenceId":"716505372","Spot":0.5,"SideOfStreet":"neither","StateId":"20248595","CountyId":"20346756","CityId":"20347237"}}},{"Relevance":1.0,"Distance":70.3,"MatchLevel":"postalCode","MatchQuality":{"PostalCode":1.0},"MatchType":"interpolated","Location":{"LocationId":"NT_400UiGB8xG0HQZcPRTkYIA_l_716505375_R_1A","LocationType":"point","DisplayPosition":{"Latitude":53.98401,"Longitude":-2.10547},"MapView":{"TopLeft":{"Latitude":53.9930032,"Longitude":-2.1207643},"BottomRight":{"Latitude":53.9750168,"Longitude":-2.0901757}},"Address":{"Label":"BD23 3PT, Skipton, England, United Kingdom","Country":"GBR","State":"England","County":"North Yorkshire","City":"Skipton","PostalCode":"BD23 3PT","AdditionalData":[{"value":"United Kingdom","key":"CountryName"},{"value":"England","key":"StateName"},{"value":"North Yorkshire","key":"CountyName"}]},"MapReference":{"ReferenceId":"716505375","Spot":0.0,"SideOfStreet":"neither","StateId":"20248595","CountyId":"20346756","CityId":"20347237"}}},{"Relevance":1.0,"Distance":78.5,"MatchLevel":"houseNumber","MatchQuality":{"Country":1.0,"State":1.0,"County":1.0,"City":1.0,"District":1.0,"Street":[1.0],"HouseNumber":1.0,"PostalCode":1.0},"MatchType":"interpolated","Location":{"LocationId":"NT_CnUvFudxFWOaFxoobcyu-A_l_565915479_R_yQD","LocationType":"point","DisplayPosition":{"Latitude":53.9828948,"Longitude":-2.1046085},"MapView":{"TopLeft":{"Latitude":53.9840189,"Longitude":-2.1065203},"BottomRight":{"Latitude":53.9817706,"Longitude":-2.1026968}},"Address":{"Label":"24 South Street, Skipton, BD23 3RT, United Kingdom","Country":"GBR","State":"England","County":"North Yorkshire","City":"Skipton","District":"Gargrave","Street":"South Street","HouseNumber":"24","PostalCode":"BD23 3RT","AdditionalData":[{"value":"United Kingdom","key":"CountryName"},{"value":"England","key":"StateName"},{"value":"North Yorkshire","key":"CountyName"}]},"MapReference":{"ReferenceId":"565915479","Spot":0.54,"SideOfStreet":"right","StateId":"20248595","CountyId":"20346756","CityId":"20347237","DistrictId":"20347267"}}},{"Relevance":1.0,"Distance":80.8,"MatchLevel":"houseNumber","MatchQuality":{"Country":1.0,"State":1.0,"County":1.0,"City":1.0,"District":1.0,"Street":[1.0],"HouseNumber":1.0,"PostalCode":1.0},"MatchType":"interpolated","Location":{"LocationId":"NT_So1xjmmAcAqb8meSH.4ZnB_l_716505372_R_zA","LocationType":"point","DisplayPosition":{"Latitude":53.983415,"Longitude":-2.105615},"MapView":{"TopLeft":{"Latitude":53.9845392,"Longitude":-2.1075267},"BottomRight":{"Latitude":53.9822909,"Longitude":-2.1037032}},"Address":{"Label":"3 St Robert Court, Skipton, BD23 3, United Kingdom","Country":"GBR","State":"England","County":"North Yorkshire","City":"Skipton","District":"Gargrave","Street":"St Robert Court","HouseNumber":"3","PostalCode":"BD23 3","AdditionalData":[{"value":"United Kingdom","key":"CountryName"},{"value":"England","key":"StateName"},{"value":"North Yorkshire","key":"CountyName"}]},"MapReference":{"ReferenceId":"716505372","Spot":0.5,"SideOfStreet":"right","StateId":"20248595","CountyId":"20346756","CityId":"20347237","DistrictId":"20347267"}}},{"Relevance":1.0,"Distance":81.2,"MatchLevel":"houseNumber","MatchQuality":{"Country":1.0,"State":1.0,"County":1.0,"City":1.0,"District":1.0,"Street":[1.0],"HouseNumber":1.0,"PostalCode":1.0},"MatchType":"interpolated","Location":{"LocationId":"NT_4Jb-U7gzbhrJ.YxC2MMyvB_l_716505374_R_xcD","LocationType":"point","DisplayPosition":{"Latitude":53.9841401,"Longitude":-2.1057},"MapView":{"TopLeft":{"Latitude":53.9852642,"Longitude":-2.1076118},"BottomRight":{"Latitude":53.9830159,"Longitude":-2.1037882}},"Address":{"Label":"17 West Street, Skipton, BD23 3, United Kingdom","Country":"GBR","State":"England","County":"North Yorkshire","City":"Skipton","District":"Gargrave","Street":"West Street","HouseNumber":"17","PostalCode":"BD23 3","AdditionalData":[{"value":"United Kingdom","key":"CountryName"},{"value":"England","key":"StateName"},{"value":"North Yorkshire","key":"CountyName"}]},"MapReference":{"ReferenceId":"716505374","Spot":0.31,"SideOfStreet":"right","StateId":"20248595","CountyId":"20346756","CityId":"20347237","DistrictId":"20347267"}}}]}]}}