{"Response":{"MetaInfo":{"Timestamp":"2020-03-28T11:41:55.781+0000","NextPageInformation":"2"},"View":[{"_type":"SearchResultsViewType","ViewId":0,"Result":[{"Relevance":1.0,"Distance":0.0,"Direction":0.0,"MatchLevel":"district","MatchQuality":{"Country":1.0,"State":1.0,"County":1.0,"City":1.0,"District":1.0,"PostalCode":1.0},"Location":{"LocationId":"NT_yC8f3MD9y20EzAY4OiH1uB","LocationType":"point","DisplayPosition":{"Latitude":53.9649911,"Longitude":9.6227677},"MapView":{"TopLeft":{"Latitude":53.98012,"Longitude":9.60164},"BottomRight":{"Latitude":53.95649,"Longitude":9.6362}},"Address":{"Label":"Hohenlockstedt, Schleswig-Holstein, Deutschland","Country":"DEU","State":"Schleswig-Holstein","County":"Steinburg","City":"Hohenlockstedt","District":"Hohenlockstedt","PostalCode":"25551","AdditionalData":[{"value":"Deutschland","key":"CountryName"},{"value":"Schleswig-Holstein","key":"StateName"},{"value":"Steinburg","key":"CountyName"}]},"MapReference":{"ReferenceId":"1267598164","SideOfStreet":"neither","CountryId":"20147700","StateId":"20147701","CountyId":"20150962","CityId":"20151083","DistrictId":"20151085"}}},{"Relevance":1.0,"Distance":10.8,"MatchLevel":"houseNumber","MatchQuality":{"Country":1.0,"State":1.0,"County":1.0,"City":1.0,"District":1.0,"Street":[1.0],"HouseNumber":1.0,"PostalCode":1.0},"MatchType":"interpolated","Location":{"LocationId":"NT_G0H1KVnYUqiunPtt2qUPKA_4YjQ","LocationType":"point","DisplayPosition":{"Latitude":53.96522,"Longitude":9.62231},"MapView":{"TopLeft":{"Latitude":53.9663442,"Longitude":9.6203991},"BottomRight":{"Latitude":53.9640958,"Longitude":9.6242209}},"Address":{"Label":"Kieler Straße 86B, 25551 Hohenlockstedt, Deutschland","Country":"DEU","State":"Schleswig-Holstein","County":"Steinburg","City":"Hohenlockstedt","District":"Hohenlockstedt","Street":"Kieler Straße","HouseNumber":"86B","PostalCode":"25551","AdditionalData":[{"value":"Deutschland","key":"CountryName"},{"value":"Schleswig-Holstein","key":"StateName"},{"value":"Steinburg","key":"CountyName"}]},"MapReference":{"ReferenceId":"586490751","Spot":0.84,"SideOfStreet":"right","CountryId":"20147700","StateId":"20147701","CountyId":"20150962","CityId":"20151083","DistrictId":"20151085","AddressId":"195645814","RoadLinkId":"36873232"}}},{"Relevance":1.0,"Distance":35.1,"MatchLevel":"houseNumber","MatchQuality":{"Country":1.0,"State":1.0,"County":1.0,"City":1.0,"District":1.0,"Street":[1.0],"HouseNumber":1.0,"PostalCode":1.0},"MatchType":"interpolated","Location":{"LocationId":"NT_G0H1KVnYUqiunPtt2qUPKA_5ATQ","LocationType":"point","DisplayPosition":{"Latitude":53.96544,"Longitude":9.62253},"MapView":{"TopLeft":{"Latitude":53.9665642,"Longitude":9.6206191},"BottomRight":{"Latitude":53.9643158,"Longitude":9.6244409}},"Address":{"Label":"Kieler Straße 90A, 25551 Hohenlockstedt, Deutschland","Country":"DEU","State":"Schleswig-Holstein","County":"Steinburg","City":"Hohenlockstedt","District":"Hohenlockstedt","Street":"Kieler Straße","HouseNumber":"90A","PostalCode":"25551","AdditionalData":[{"value":"Deutschland","key":"CountryName"},{"value":"Schleswig-Holstein","key":"StateName"},{"value":"Steinburg","key":"CountyName"}]},"MapReference":{"ReferenceId":"835588998","Spot":0.04,"SideOfStreet":"right","CountryId":"20147700","StateId":"20147701","CountyId":"20150962","CityId":"20151083","DistrictId":"20151085","AddressId":"193390919","RoadLinkId":"218869869"}}},{"Relevance":1.0,"Distance":81.6,"MatchLevel":"houseNumber","MatchQuality":{"Country":1.0,"State":1.0,"County":1.0,"City":1.0,"District":1.0,"Street":[1.0],"HouseNumber":1.0,"PostalCode":1.0},"MatchType":"interpolated","Location":{"LocationId":"NT_PNqhS.v8RWUAJfhNRkReHC_0A","LocationType":"point","DisplayPosition":{"Latitude":53.96554,"Longitude":9.62194},"MapView":{"TopLeft":{"Latitude":53.9666642,"Longitude":9.6200291},"BottomRight":{"Latitude":53.9644158,"Longitude":9.6238509}},"Address":{"Label":"Birkenallee 4, 25551 Hohenlockstedt, Deutschland","Country":"DEU","State":"Schleswig-Holstein","County":"Steinburg","City":"Hohenlockstedt","District":"Hohenlockstedt","Street":"Birkenallee","HouseNumber":"4","PostalCode":"25551","AdditionalData":[{"value":"Deutschland","key":"CountryName"},{"value":"Schleswig-Holstein","key":"StateName"},{"value":"Steinburg","key":"CountyName"}]},"MapReference":{"ReferenceId":"781900378","Spot":0.21,"SideOfStreet":"left","CountryId":"20147700","StateId":"20147701","CountyId":"20150962","CityId":"20151083","DistrictId":"20151085","AddressId":"195250417","RoadLinkId":"174850677"}}},{"Relevance":1.0,"Distance":86.9,"MatchLevel":"street","MatchQuality":{"Country":1.0,"State":1.0,"County":1.0,"City":1.0,"District":1.0,"PostalCode":1.0},"Location":{"LocationId":"NT_8PjIsdw0SsDimLhwjxMGaC_l_1264935318_R","LocationType":"point","DisplayPosition":{"Latitude":53.965,"Longitude":9.62144},"MapView":{"TopLeft":{"Latitude":53.96527,"Longitude":9.62085},"BottomRight":{"Latitude":53.96458,"Longitude":9.62144}},"Address":{"Label":"25551 Hohenlockstedt, Deutschland","Country":"DEU","State":"Schleswig-Holstein","County":"Steinburg","City":"Hohenlockstedt","District":"Hohenlockstedt","PostalCode":"25551","AdditionalData":[{"value":"Deutschland","key":"CountryName"},{"value":"Schleswig-Holstein","key":"StateName"},{"value":"Steinburg","key":"CountyName"}]},"MapReference":{"ReferenceId":"1264935318","Spot":0.43,"SideOfStreet":"right","CountryId":"20147700","StateId":"20147701","CountyId":"20150962","CityId":"20151083","DistrictId":"20151085"}}},{"Relevance":1.0,"Distance":97.7,"MatchLevel":"houseNumber","MatchQuality":{"Country":1.0,"State":1.0,"County":1.0,"City":1.0,"District":1.0,"Street":[1.0],"HouseNumber":1.0,"PostalCode":1.0},"MatchType":"interpolated","Location":{"LocationId":"NT_Fk6ALyVW1-suxjtMSSxELD_l_1264935319_R_xA","LocationType":"point","DisplayPosition":{"Latitude":53.9645,"Longitude":9.62136},"MapView":{"TopLeft":{"Latitude":53.9656242,"Longitude":9.6194491},"BottomRight":{"Latitude":53.9633759,"Longitude":9.6232709}},"Address":{"Label":"Helgolandstraße 1, 25551 Hohenlockstedt, Deutschland","Country":"DEU","State":"Schleswig-Holstein","County":"Steinburg","City":"Hohenlockstedt","District":"Hohenlockstedt","Street":"Helgolandstraße","HouseNumber":"1","PostalCode":"25551","AdditionalData":[{"value":"Deutschland","key":"CountryName"},{"value":"Schleswig-Holstein","key":"StateName"},{"value":"Steinburg","key":"CountyName"}]},"MapReference":{"ReferenceId":"1264935319","Spot":0.47,"SideOfStreet":"right","CountryId":"20147700","StateId":"20147701","CountyId":"20150962","CityId":"20151083","DistrictId":"20151085"}}},{"Relevance":1.0,"Distance":98.2,"MatchLevel":"houseNumber","MatchQuality":{"Country":1.0,"State":1.0,"County":1.0,"City":1.0,"District":1.0,"Street":[1.0],"HouseNumber":1.0,"PostalCode":1.0},"MatchType":"interpolated","Location":{"LocationId":"NT_X8rwRdOZNhRYeuX-GBvfqA_zA","LocationType":"point","DisplayPosition":{"Latitude":53.96398,"Longitude":9.62289},"MapView":{"TopLeft":{"Latitude":53.9651042,"Longitude":9.6209791},"BottomRight":{"Latitude":53.9628558,"Longitude":9.6248009}},"Address":{"Label":"Lohbarbeker Weg 3, 25551 Lohbarbek, Deutschland","Country":"DEU","State":"Schleswig-Holstein","County":"Steinburg","City":"Lohbarbek","District":"Hohenlockstedt","Street":"Lohbarbeker Weg","HouseNumber":"3","PostalCode":"25551","AdditionalData":[{"value":"Deutschland","key":"CountryName"},{"value":"Schleswig-Holstein","key":"StateName"},{"value":"Steinburg","key":"CountyName"}]},"MapReference":{"ReferenceId":"586490752","Spot":0.19,"SideOfStreet":"left","CountryId":"20147700","StateId":"20147701","CountyId":"20150962","CityId":"20151150","DistrictId":"20386271","AddressId":"193350393","RoadLinkId":"36511604"}}},{"Relevance":1.0,"Distance":101.2,"MatchLevel":"houseNumber","MatchQuality":{"Country":1.0,"State":1.0,"County":1.0,"City":1.0,"District":1.0,"Street":[1.0],"HouseNumber":1.0,"PostalCode":1.0},"MatchType":"interpolated","Location":{"LocationId":"NT_Fk6ALyVW1-suxjtMSSxELD_5A","LocationType":"point","DisplayPosition":{"Latitude":53.96465,"Longitude":9.62089},"MapView":{"TopLeft":{"Latitude":53.9657742,"Longitude":9.6189791},"BottomRight":{"Latitude":53.9635258,"Longitude":9.6228009}},"Address":{"Label":"Helgolandstraße 11, 25551 Hohenlockstedt, Deutschland","Country":"DEU","State":"Schleswig-Holstein","County":"Steinburg","City":"Hohenlockstedt","District":"Hohenlockstedt","Street":"Helgolandstraße","HouseNumber":"11","PostalCode":"25551","AdditionalData":[{"value":"Deutschland","key":"CountryName"},{"value":"Schleswig-Holstein","key":"StateName"},{"value":"Steinburg","key":"CountyName"}]},"MapReference":{"ReferenceId":"1265194051","Spot":0.53,"SideOfStreet":"right","CountryId":"20147700","StateId":"20147701","CountyId":"20150962","CityId":"20151083","DistrictId":"20151085","AddressId":"194270125","RoadLinkId":"591409921"}}},{"Relevance":1.0,"Distance":104.1,"MatchLevel":"houseNumber","MatchQuality":{"Country":1.0,"State":1.0,"County":1.0,"City":1.0,"District":1.0,"Street":[1.0],"HouseNumber":1.0,"PostalCode":1.0},"MatchType":"interpolated","Location":{"LocationId":"NT_G0H1KVnYUqiunPtt2qUPKA_3YD","LocationType":"point","DisplayPosition":{"Latitude":53.96438,"Longitude":9.62151},"MapView":{"TopLeft":{"Latitude":53.9655042,"Longitude":9.6195991},"BottomRight":{"Latitude":53.9632558,"Longitude":9.6234209}},"Address":{"Label":"Kieler Straße 76, 25551 Hohenlockstedt, Deutschland","Country":"DEU","State":"Schleswig-Holstein","County":"Steinburg","City":"Hohenlockstedt","District":"Hohenlockstedt","Street":"Kieler Straße","HouseNumber":"76","PostalCode":"25551","AdditionalData":[{"value":"Deutschland","key":"CountryName"},{"value":"Schleswig-Holstein","key":"StateName"},{"value":"Steinburg","key":"CountyName"}]},"MapReference":{"ReferenceId":"586490750","Spot":0.84,"SideOfStreet":"right","CountryId":"20147700","StateId":"20147701","CountyId":"20150962","CityId":"20151083","DistrictId":"20151085","AddressId":"194918805","RoadLinkId":"36736012"}}},{"Relevance":1.0,"Distance":124.4,"MatchLevel":"houseNumber","MatchQuality":{"Country":1.0,"State":1.0,"County":1.0,"City":1.0,"District":1.0,"Street":[1.0],"HouseNumber":1.0,"PostalCode":1.0},"MatchType":"interpolated","Location":{"LocationId":"NT_9u7NeiiWD3ODyUVRTN2uXC_yA","LocationType":"point","DisplayPosition":{"Latitude":53.96395,"Longitude":9.62207},"MapView":{"TopLeft":{"Latitude":53.9650742,"Longitude":9.6201591},"BottomRight":{"Latitude":53.9628258,"Longitude":9.6239809}},"Address":{"Label":"Lohbarbeker Weg 2, 25551 Hohenlockstedt, Deutschland","Country":"DEU","State":"Schleswig-Holstein","County":"Steinburg","City":"Hohenlockstedt","District":"Hohenlockstedt","Street":"Lohbarbeker Weg","HouseNumber":"2","PostalCode":"25551","AdditionalData":[{"value":"Deutschland","key":"CountryName"},{"value":"Schleswig-Holstein","key":"StateName"},{"value":"Steinburg","key":"CountyName"}]},"MapReference":{"ReferenceId":"539273923","Spot":0.12,"SideOfStreet":"left","CountryId":"20147700","StateId":"20147701","CountyId":"20150962","CityId":"20151083","DistrictId":"20151085","AddressId":"192532614","RoadLinkId":"36467276"}}}]}]}}