{"Response":{"MetaInfo":{"Timestamp":"2020-03-28T12:01:07.097+0000","NextPageInformation":"2"},"View":[{"_type":"SearchResultsViewType","ViewId":0,"Result":[{"Relevance":1.0,"Distance":0.0,"Direction":0.0,"MatchLevel":"district","MatchQuality":{"Country":1.0,"State":1.0,"County":1.0,"City":1.0,"District":1.0,"PostalCode":1.0},"Location":{"LocationId":"NT_2GGR5aSiKfTFZl8mgjDCMC","LocationType":"point","DisplayPosition":{"Latitude":53.9805491,"Longitude":-1.1529182},"MapView":{"TopLeft":{"Latitude":53.98554,"Longitude":-1.16061},"BottomRight":{"Latitude":53.97111,"Longitude":-1.14208}},"Address":{"Label":"Upper Poppleton, York, England, United Kingdom","Country":"GBR","State":"England","County":"North Yorkshire","City":"York","District":"Upper Poppleton","PostalCode":"YO26 6","AdditionalData":[{"value":"United Kingdom","key":"CountryName"},{"value":"England","key":"StateName"},{"value":"North Yorkshire","key":"CountyName"}]},"MapReference":{"ReferenceId":"26978975","SideOfStreet":"neither","StateId":"20248595","CountyId":"20346756","CityId":"20347419","DistrictId":"20347612"}}},{"Relevance":1.0,"Distance":4.9,"MatchLevel":"street","MatchQuality":{"Country":1.0,"State":1.0,"County":1.0,"City":1.0,"District":1.0,"PostalCode":1.0},"Location":{"LocationId":"NT_DWH9E9CLisBEVVpxAQy-5A_l_756453305_R","LocationType":"point","DisplayPosition":{"Latitude":53.9805162,"Longitude":-1.1529675},"MapView":{"TopLeft":{"Latitude":53.98061,"Longitude":-1.15318},"BottomRight":{"Latitude":53.9804,"Longitude":-1.15289}},"Address":{"Label":"York, YO26 6, United Kingdom","Country":"GBR","State":"England","County":"North Yorkshire","City":"York","District":"Upper Poppleton","PostalCode":"YO26 6","AdditionalData":[{"value":"United Kingdom","key":"CountryName"},{"value":"England","key":"StateName"},{"value":"North Yorkshire","key":"CountyName"}]},"MapReference":{"ReferenceId":"756453305","Spot":0.37,"SideOfStreet":"right","StateId":"20248595","CountyId":"20346756","CityId":"20347419","DistrictId":"20347612"}}},{"Relevance":1.0,"Distance":16.7,"MatchLevel":"street","MatchQuality":{"Country":1.0,"State":1.0,"County":1.0,"City":1.0,"District":1.0,"PostalCode":1.0},"Location":{"LocationId":"NT_DWH9E9CLisBEVVpxAQy-5A_l_756453304_R","LocationType":"point","DisplayPosition":{"Latitude":53.9804,"Longitude":-1.15289},"MapView":{"TopLeft":{"Latitude":53.9804,"Longitude":-1.15304},"BottomRight":{"Latitude":53.97999,"Longitude":-1.15277}},"Address":{"Label":"York, YO26 6, United Kingdom","Country":"GBR","State":"England","County":"North Yorkshire","City":"York","District":"Upper Poppleton","PostalCode":"YO26 6","AdditionalData":[{"value":"United Kingdom","key":"CountryName"},{"value":"England","key":"StateName"},{"value":"North Yorkshire","key":"CountyName"}]},"MapReference":{"ReferenceId":"756453304","Spot":1.0,"SideOfStreet":"right","StateId":"20248595","CountyId":"20346756","CityId":"20347419","DistrictId":"20347612"}}},{"Relevance":1.0,"Distance":17.0,"MatchLevel":"street","MatchQuality":{"Country":1.0,"State":1.0,"County":1.0,"City":1.0,"District":1.0,"Street":[1.0],"PostalCode":1.0},"Location":{"LocationId":"NT_998AYE-B0YYLQ3LNZdd6OC_l_1141888859_R","LocationType":"point","DisplayPosition":{"Latitude":53.9805398,"Longitude":-1.1531775},"MapView":{"TopLeft":{"Latitude":53.98061,"Longitude":-1.15318},"BottomRight":{"Latitude":53.97999,"Longitude":-1.15304}},"Address":{"Label":"Main Street, York, YO26 6, United Kingdom","Country":"GBR","State":"England","County":"North Yorkshire","City":"York","District":"Upper Poppleton","Street":"Main Street","PostalCode":"YO26 6","AdditionalData":[{"value":"United Kingdom","key":"CountryName"},{"value":"England","key":"StateName"},{"value":"North Yorkshire","key":"CountyName"}]},"MapReference":{"ReferenceId":"1141888859","Spot":0.89,"SideOfStreet":"right","StateId":"20248595","CountyId":"20346756","CityId":"20347419","DistrictId":"20347612"}}},{"Relevance":1.0,"Distance":18.4,"MatchLevel":"street","MatchQuality":{"Country":1.0,"State":1.0,"County":1.0,"City":1.0,"District":1.0,"Street":[1.0],"PostalCode":1.0},"Location":{"LocationId":"NT_998AYE-B0YYLQ3LNZdd6OC_l_756453303_R","LocationType":"point","DisplayPosition":{"Latitude":53.98061,"Longitude":-1.15318},"MapView":{"TopLeft":{"Latitude":53.9817,"Longitude":-1.15361},"BottomRight":{"Latitude":53.98061,"Longitude":-1.15318}},"Address":{"Label":"Main Street, York, YO26 6, United Kingdom","Country":"GBR","State":"England","County":"North Yorkshire","City":"York","District":"Upper Poppleton","Street":"Main Street","PostalCode":"YO26 6","AdditionalData":[{"value":"United Kingdom","key":"CountryName"},{"value":"England","key":"StateName"},{"value":"North Yorkshire","key":"CountyName"}]},"MapReference":{"ReferenceId":"756453303","Spot":0.0,"SideOfStreet":"right","StateId":"20248595","CountyId":"20346756","CityId":"20347419","DistrictId":"20347612"}}},{"Relevance":1.0,"Distance":27.6,"MatchLevel":"postalCode","MatchQuality":{"PostalCode":1.0},"Location":{"LocationId":"NT_998AYE-B0YYLQ3LNZdd6OC_l_1141888859_R","LocationType":"point","DisplayPosition":{"Latitude":53.98037,"Longitude":-1.15321},"MapView":{"TopLeft":{"Latitude":53.9893632,"Longitude":-1.168503},"BottomRight":{"Latitude":53.9713768,"Longitude":-1.137917}},"Address":{"Label":"YO26 6EQ, York, England, United Kingdom","Country":"GBR","State":"England","County":"North Yorkshire","City":"York","PostalCode":"YO26 6EQ","AdditionalData":[{"value":"United Kingdom","key":"CountryName"},{"value":"England","key":"StateName"},{"value":"North Yorkshire","key":"CountyName"}]},"MapReference":{"ReferenceId":"1141888859","Spot":0.89,"SideOfStreet":"neither","StateId":"20248595","CountyId":"20346756","CityId":"20347419"}}},{"Relevance":1.0,"Distance":62.7,"MatchLevel":"street","MatchQuality":{"Country":1.0,"State":1.0,"County":1.0,"City":1.0,"District":1.0,"Street":[1.0],"PostalCode":1.0},"Location":{"LocationId":"NT_998AYE-B0YYLQ3LNZdd6OC_l_1141888858_R","LocationType":"point","DisplayPosition":{"Latitude":53.97999,"Longitude":-1.15304},"MapView":{"TopLeft":{"Latitude":53.97999,"Longitude":-1.15304},"BottomRight":{"Latitude":53.97993,"Longitude":-1.15295}},"Address":{"Label":"Main Street, York, YO26 6, United Kingdom","Country":"GBR","State":"England","County":"North Yorkshire","City":"York","District":"Upper Poppleton","Street":"Main Street","PostalCode":"YO26 6","AdditionalData":[{"value":"United Kingdom","key":"CountryName"},{"value":"England","key":"StateName"},{"value":"North Yorkshire","key":"CountyName"}]},"MapReference":{"ReferenceId":"1141888858","Spot":1.0,"SideOfStreet":"right","StateId":"20248595","CountyId":"20346756","CityId":"20347419","DistrictId":"20347612"}}},{"Relevance":1.0,"Distance":68.9,"MatchLevel":"street","MatchQuality":{"Country":1.0,"State":1.0,"County":1.0,"City":1.0,"District":1.0,"Street":[1.0],"PostalCode":1.0},"Location":{"LocationId":"NT_KSDVKBxXOergmo-.lT0qRC_l_1062163533_R","LocationType":"point","DisplayPosition":{"Latitude":53.97993,"Longitude":-1.15295},"MapView":{"TopLeft":{"Latitude":53.97993,"Longitude":-1.15295},"BottomRight":{"Latitude":53.97961,"Longitude":-1.15216}},"Address":{"Label":"Station Road, York, YO26 6, United Kingdom","Country":"GBR","State":"England","County":"North Yorkshire","City":"York","District":"Upper Poppleton","Street":"Station Road","PostalCode":"YO26 6","AdditionalData":[{"value":"United Kingdom","key":"CountryName"},{"value":"England","key":"StateName"},{"value":"North Yorkshire","key":"CountyName"}]},"MapReference":{"ReferenceId":"1062163533","Spot":1.0,"SideOfStreet":"right","StateId":"20248595","CountyId":"20346756","CityId":"20347419","DistrictId":"20347612"}}},{"Relevance":1.0,"Distance":68.9,"MatchLevel":"street","MatchQuality":{"Country":1.0,"State":1.0,"County":1.0,"City":1.0,"District":1.0,"Street":[1.0],"PostalCode":1.0},"Location":{"LocationId":"NT_Pj3MYRJQoHyRa.0VY-yXKD_l_26978957_L","LocationType":"point","DisplayPosition":{"Latitude":53.97993,"Longitude":-1.15295},"MapView":{"TopLeft":{"Latitude":53.97993,"Longitude":-1.15463},"BottomRight":{"Latitude":53.97879,"Longitude":-1.15295}},"Address":{"Label":"Hodgson Lane, York, YO26 6, United Kingdom","Country":"GBR","State":"England","County":"North Yorkshire","City":"York","District":"Upper Poppleton","Street":"Hodgson Lane","PostalCode":"YO26 6","AdditionalData":[{"value":"United Kingdom","key":"CountryName"},{"value":"England","key":"StateName"},{"value":"North Yorkshire","key":"CountyName"}]},"MapReference":{"ReferenceId":"26978957","Spot":1.0,"SideOfStreet":"left","StateId":"20248595","CountyId":"20346756","CityId":"20347419","DistrictId":"20347612"}}},{"Relevance":1.0,"Distance":77.8,"MatchLevel":"postalCode","MatchQuality":{"PostalCode":1.0},"Location":{"LocationId":"NT_998AYE-B0YYLQ3LNZdd6OC_l_756453303_R","LocationType":"point","DisplayPosition":{"Latitude":53.98121,"Longitude":-1.15331},"MapView":{"TopLeft":{"Latitude":53.9902032,"Longitude":-1.1686033},"BottomRight":{"Latitude":53.9722168,"Longitude":-1.1380167}},"Address":{"Label":"YO26 6EL, York, England, United Kingdom","Country":"GBR","State":"England","County":"North Yorkshire","City":"York","PostalCode":"YO26 6EL","AdditionalData":[{"value":"United Kingdom","key":"CountryName"},{"value":"England","key":"StateName"},{"value":"North Yorkshire","key":"CountyName"}]},"MapReference":{"ReferenceId":"756453303","Spot":0.0,"SideOfStreet":"neither","StateId":"20248595","CountyId":"20346756","CityId":"20347419"}}}]}]}}