{"Response":{"MetaInfo":{"Timestamp":"2020-03-28T10:43:29.839+0000","NextPageInformation":"2"},"View":[{"_type":"SearchResultsViewType","ViewId":0,"Result":[{"Relevance":1.0,"Distance":0.0,"Direction":0.0,"MatchLevel":"district","MatchQuality":{"Country":1.0,"County":1.0,"City":1.0,"District":1.0,"PostalCode":1.0},"Location":{"LocationId":"NT_qjLLlyha7vmZQebug6vK6C","LocationType":"point","DisplayPosition":{"Latitude":53.9441199,"Longitude":-8.9540051},"MapView":{"TopLeft":{"Latitude":53.94903,"Longitude":-8.96358},"BottomRight":{"Latitude":53.93428,"Longitude":-8.93289}},"Address":{"Label":"Swinford, Claremorris, Ireland","Country":"IRL","County":"County Mayo","City":"Claremorris","District":"Swinford","AdditionalData":[{"value":"Ireland","key":"CountryName"},{"value":"County Mayo","key":"CountyName"}]},"MapReference":{"ReferenceId":"589579113","SideOfStreet":"neither","CountryId":"20403667","CountyId":"20411215","CityId":"20538828","DistrictId":"20539592"}}},{"Relevance":1.0,"Distance":15.0,"MatchLevel":"houseNumber","MatchQuality":{"Country":1.0,"County":1.0,"City":1.0,"District":1.0,"Street":[1.0],"HouseNumber":1.0,"PostalCode":1.0},"MatchType":"interpolated","Location":{"LocationId":"NT_cdr3CotSe3GH1J0NQxdt.B_zA","LocationType":"point","DisplayPosition":{"Latitude":53.94396,"Longitude":-8.9535},"MapView":{"TopLeft":{"Latitude":53.9450842,"Longitude":-8.95541},"BottomRight":{"Latitude":53.9428358,"Longitude":-8.95159}},"Address":{"Label":"3 Circular Road, Claremorris, County Mayo, F12 W243, Ireland","Country":"IRL","County":"County Mayo","City":"Claremorris","District":"Swinford","Street":"Circular Road","HouseNumber":"3","PostalCode":"F12 W243","AdditionalData":[{"value":"Ireland","key":"CountryName"},{"value":"County Mayo","key":"CountyName"}]},"MapReference":{"ReferenceId":"589577873","Spot":0.21,"SideOfStreet":"left","CountryId":"20403667","CountyId":"20411215","CityId":"20538828","DistrictId":"20539592","AddressId":"214665420","RoadLinkId":"86790431"}}},{"Relevance":1.0,"Distance":21.2,"MatchLevel":"postalCode","MatchQuality":{"PostalCode":1.0},"MatchType":"interpolated","Location":{"LocationId":"NT_cdr3CotSe3GH1J0NQxdt.B_zA","LocationType":"point","DisplayPosition":{"Latitude":53.94394,"Longitude":-8.9539},"MapView":{"TopLeft":{"Latitude":53.9529332,"Longitude":-8.9691796},"BottomRight":{"Latitude":53.9349468,"Longitude":-8.9386204}},"Address":{"Label":"F12 Y9R2, Claremorris, Ireland","Country":"IRL","County":"County Mayo","City":"Claremorris","PostalCode":"F12 Y9R2","AdditionalData":[{"value":"Ireland","key":"CountryName"},{"value":"County Mayo","key":"CountyName"}]},"MapReference":{"ReferenceId":"589577873","Spot":0.21,"SideOfStreet":"neither","CountryId":"20403667","CountyId":"20411215","CityId":"20538828"}}},{"Relevance":1.0,"Distance":38.8,"MatchLevel":"street","MatchQuality":{"Country":1.0,"County":1.0,"City":1.0,"District":1.0,"PostalCode":1.0},"Location":{"LocationId":"NT_SS9hiW9XSDEJbLPfMF4DpB_l_589577875_R","LocationType":"point","DisplayPosition":{"Latitude":53.9437804,"Longitude":-8.9541409},"MapView":{"TopLeft":{"Latitude":53.94384,"Longitude":-8.95429},"BottomRight":{"Latitude":53.9436,"Longitude":-8.95369}},"Address":{"Label":"Claremorris, County Mayo, F12, Ireland","Country":"IRL","County":"County Mayo","City":"Claremorris","District":"Swinford","PostalCode":"F12","AdditionalData":[{"value":"Ireland","key":"CountryName"},{"value":"County Mayo","key":"CountyName"}]},"MapReference":{"ReferenceId":"589577875","Spot":0.75,"SideOfStreet":"right","CountryId":"20403667","CountyId":"20411215","CityId":"20538828","DistrictId":"20539592"}}},{"Relevance":1.0,"Distance":61.4,"MatchLevel":"houseNumber","MatchQuality":{"Country":1.0,"County":1.0,"City":1.0,"District":1.0,"Street":[1.0],"PostalCode":1.0},"MatchType":"interpolated","Location":{"LocationId":"NT_dug5IBFfo5MsjF3VLqnHQA","LocationType":"point","DisplayPosition":{"Latitude":53.9436,"Longitude":-8.95369},"MapView":{"TopLeft":{"Latitude":53.9447242,"Longitude":-8.9555999},"BottomRight":{"Latitude":53.9424758,"Longitude":-8.9517801}},"Address":{"Label":"\"College House\" Station Road, Claremorris, County Mayo, F12 V126, Ireland","Country":"IRL","County":"County Mayo","City":"Claremorris","District":"Swinford","Street":"Station Road","PostalCode":"F12 V126","AdditionalData":[{"value":"Ireland","key":"CountryName"},{"value":"County Mayo","key":"CountyName"}],"Building":"College House"},"MapReference":{"ReferenceId":"589577879","Spot":1.0,"SideOfStreet":"left","CountryId":"20403667","CountyId":"20411215","CityId":"20538828","DistrictId":"20539592","AddressId":"743648636","RoadLinkId":"86864846"}}},{"Relevance":1.0,"Distance":70.7,"MatchLevel":"postalCode","MatchQuality":{"PostalCode":1.0},"MatchType":"interpolated","Location":{"LocationId":"NT_5QO4hVXIAzzGm6mSCdbTbB_xA","LocationType":"point","DisplayPosition":{"Latitude":53.94418,"Longitude":-8.95508},"MapView":{"TopLeft":{"Latitude":53.9531732,"Longitude":-8.9703597},"BottomRight":{"Latitude":53.9351868,"Longitude":-8.9398003}},"Address":{"Label":"F12 CT88, Claremorris, Ireland","Country":"IRL","County":"County Mayo","City":"Claremorris","PostalCode":"F12 CT88","AdditionalData":[{"value":"Ireland","key":"CountryName"},{"value":"County Mayo","key":"CountyName"}]},"MapReference":{"ReferenceId":"913462975","Spot":0.87,"SideOfStreet":"neither","CountryId":"20403667","CountyId":"20411215","CityId":"20538828"}}},{"Relevance":1.0,"Distance":77.2,"MatchLevel":"houseNumber","MatchQuality":{"Country":1.0,"County":1.0,"City":1.0,"District":1.0,"Street":[1.0],"HouseNumber":1.0,"PostalCode":1.0},"MatchType":"interpolated","Location":{"LocationId":"NT_5QO4hVXIAzzGm6mSCdbTbB_xA","LocationType":"point","DisplayPosition":{"Latitude":53.94476,"Longitude":-8.95446},"MapView":{"TopLeft":{"Latitude":53.9458842,"Longitude":-8.95637},"BottomRight":{"Latitude":53.9436358,"Longitude":-8.95255}},"Address":{"Label":"1 Ardcarra, Claremorris, County Mayo, F12 A524, Ireland","Country":"IRL","County":"County Mayo","City":"Claremorris","District":"Swinford","Street":"Ardcarra","HouseNumber":"1","PostalCode":"F12 A524","AdditionalData":[{"value":"Ireland","key":"CountryName"},{"value":"County Mayo","key":"CountyName"}]},"MapReference":{"ReferenceId":"913462975","Spot":0.87,"SideOfStreet":"left","CountryId":"20403667","CountyId":"20411215","CityId":"20538828","DistrictId":"20539592","AddressId":"677478129","RoadLinkId":"271300376"}}},{"Relevance":1.0,"Distance":87.9,"MatchLevel":"postalCode","MatchQuality":{"PostalCode":1.0},"MatchType":"interpolated","Location":{"LocationId":"NT_dug5IBFfo5MsjF3VLqnHQA","LocationType":"point","DisplayPosition":{"Latitude":53.94363,"Longitude":-8.95506},"MapView":{"TopLeft":{"Latitude":53.9526232,"Longitude":-8.9703395},"BottomRight":{"Latitude":53.9346368,"Longitude":-8.9397805}},"Address":{"Label":"F12 WK83, Claremorris, Ireland","Country":"IRL","County":"County Mayo","City":"Claremorris","PostalCode":"F12 WK83","AdditionalData":[{"value":"Ireland","key":"CountryName"},{"value":"County Mayo","key":"CountyName"}]},"MapReference":{"ReferenceId":"589577879","Spot":1.0,"SideOfStreet":"neither","CountryId":"20403667","CountyId":"20411215","CityId":"20538828"}}},{"Relevance":1.0,"Distance":97.0,"MatchLevel":"houseNumber","MatchQuality":{"Country":1.0,"County":1.0,"City":1.0,"District":1.0,"Street":[1.0],"HouseNumber":1.0,"PostalCode":1.0},"MatchType":"interpolated","Location":{"LocationId":"NT_w7Gj78YA6Yap8R6F.7hRhD_3A","LocationType":"point","DisplayPosition":{"Latitude":53.94502,"Longitude":-8.95441},"MapView":{"TopLeft":{"Latitude":53.9461442,"Longitude":-8.95632},"BottomRight":{"Latitude":53.9438958,"Longitude":-8.9525}},"Address":{"Label":"7 Carrabeg Estate, Claremorris, County Mayo, F12 Y803, Ireland","Country":"IRL","County":"County Mayo","City":"Claremorris","District":"Swinford","Street":"Carrabeg Estate","HouseNumber":"7","PostalCode":"F12 Y803","AdditionalData":[{"value":"Ireland","key":"CountryName"},{"value":"County Mayo","key":"CountyName"}]},"MapReference":{"ReferenceId":"913462976","Spot":0.35,"SideOfStreet":"left","CountryId":"20403667","CountyId":"20411215","CityId":"20538828","DistrictId":"20539592","AddressId":"359883376","RoadLinkId":"271300374"}}},{"Relevance":1.0,"Distance":106.6,"MatchLevel":"postalCode","MatchQuality":{"PostalCode":1.0},"MatchType":"interpolated","Location":{"LocationId":"NT_w7Gj78YA6Yap8R6F.7hRhD_3A","LocationType":"point","DisplayPosition":{"Latitude":53.94499,"Longitude":-8.95469},"MapView":{"TopLeft":{"Latitude":53.9539832,"Longitude":-8.96997},"BottomRight":{"Latitude":53.9359968,"Longitude":-8.93941}},"Address":{"Label":"F12 YN44, Claremorris, Ireland","Country":"IRL","County":"County Mayo","City":"Claremorris","PostalCode":"F12 YN44","AdditionalData":[{"value":"Ireland","key":"CountryName"},{"value":"County Mayo","key":"CountyName"}]},"MapReference":{"ReferenceId":"913462976","Spot":0.35,"SideOfStreet":"neither","CountryId":"20403667","CountyId":"20411215","CityId":"20538828"}}}]}]}}