{"Response":{"MetaInfo":{"Timestamp":"2020-03-31T17:03:31.615+0000","NextPageInformation":"2"},"View":[{"_type":"SearchResultsViewType","ViewId":0,"Result":[{"Relevance":1.0,"Distance":0.0,"Direction":0.0,"MatchLevel":"district","MatchQuality":{"Country":1.0,"County":1.0,"City":1.0,"District":1.0,"PostalCode":1.0},"Location":{"LocationId":"NT_NTRdq8bsyDzYUIiPvnFZnC","LocationType":"point","DisplayPosition":{"Latitude":54.0,"Longitude":-6.4167},"MapView":{"TopLeft":{"Latitude":54.0295,"Longitude":-6.4454},"BottomRight":{"Latitude":53.96925,"Longitude":-6.34686}},"Address":{"Label":"Dundalk, Ireland","Country":"IRL","County":"County Louth","City":"Dundalk","District":"Dundalk","AdditionalData":[{"value":"Ireland","key":"CountryName"},{"value":"County Louth","key":"CountyName"}]},"MapReference":{"ReferenceId":"931712877","SideOfStreet":"neither","CountryId":"20403667","CountyId":"20411212","CityId":"20536642","DistrictId":"20612502"}}},{"Relevance":1.0,"Distance":2.3,"MatchLevel":"houseNumber","MatchQuality":{"Country":1.0,"County":1.0,"City":1.0,"District":1.0,"Street":[1.0],"PostalCode":1.0},"MatchType":"interpolated","Location":{"LocationId":"NT_k0sEC5Jc3.ZhCqO6157uzB","LocationType":"point","DisplayPosition":{"Latitude":54.00002,"Longitude":-6.41671},"MapView":{"TopLeft":{"Latitude":54.0011442,"Longitude":-6.4186225},"BottomRight":{"Latitude":53.9988958,"Longitude":-6.4147975}},"Address":{"Label":"\"Oriel Park\" Carrickmacross Road, Dundalk, County Louth, A91 KAX0, Ireland","Country":"IRL","County":"County Louth","City":"Dundalk","District":"Dundalk","Street":"Carrickmacross Road","PostalCode":"A91 KAX0","AdditionalData":[{"value":"Ireland","key":"CountryName"},{"value":"County Louth","key":"CountyName"}],"Building":"Oriel Park"},"MapReference":{"ReferenceId":"587799118","Spot":0.45,"SideOfStreet":"right","CountryId":"20403667","CountyId":"20411212","CityId":"20536642","DistrictId":"20612502","AddressId":"359969356","RoadLinkId":"86497633"}}},{"Relevance":1.0,"Distance":3.4,"MatchLevel":"postalCode","MatchQuality":{"PostalCode":1.0},"MatchType":"interpolated","Location":{"LocationId":"NT_k0sEC5Jc3.ZhCqO6157uzB","LocationType":"point","DisplayPosition":{"Latitude":54.00002,"Longitude":-6.41666},"MapView":{"TopLeft":{"Latitude":54.0090132,"Longitude":-6.4319602},"BottomRight":{"Latitude":53.9910268,"Longitude":-6.4013598}},"Address":{"Label":"A91 KP73, Dundalk, Ireland","Country":"IRL","County":"County Louth","City":"Dundalk","PostalCode":"A91 KP73","AdditionalData":[{"value":"Ireland","key":"CountryName"},{"value":"County Louth","key":"CountyName"}]},"MapReference":{"ReferenceId":"587799118","Spot":0.45,"SideOfStreet":"neither","CountryId":"20403667","CountyId":"20411212","CityId":"20536642"}}},{"Relevance":1.0,"Distance":38.3,"MatchLevel":"houseNumber","MatchQuality":{"Country":1.0,"County":1.0,"City":1.0,"District":1.0,"Street":[1.0],"HouseNumber":1.0,"PostalCode":1.0},"MatchType":"interpolated","Location":{"LocationId":"NT_Uspe1q0PuH501TGGl5ImPD_l_781580929_R_yA","LocationType":"point","DisplayPosition":{"Latitude":54.0001,"Longitude":-6.41726},"MapView":{"TopLeft":{"Latitude":54.0012242,"Longitude":-6.4191725},"BottomRight":{"Latitude":53.9989759,"Longitude":-6.4153475}},"Address":{"Label":"2 Mount Avenue, Dundalk, County Louth, A91, Ireland","Country":"IRL","County":"County Louth","City":"Dundalk","District":"Dundalk","Street":"Mount Avenue","HouseNumber":"2","PostalCode":"A91","AdditionalData":[{"value":"Ireland","key":"CountryName"},{"value":"County Louth","key":"CountyName"}]},"MapReference":{"ReferenceId":"781580929","Spot":0.29,"SideOfStreet":"right","CountryId":"20403667","CountyId":"20411212","CityId":"20536642","DistrictId":"20612502"}}},{"Relevance":1.0,"Distance":64.9,"MatchLevel":"postalCode","MatchQuality":{"PostalCode":1.0},"MatchType":"interpolated","Location":{"LocationId":"NT_k0sEC5Jc3.ZhCqO6157uzB","LocationType":"point","DisplayPosition":{"Latitude":54.00005,"Longitude":-6.41571},"MapView":{"TopLeft":{"Latitude":54.0090432,"Longitude":-6.4310102},"BottomRight":{"Latitude":53.9910568,"Longitude":-6.4004098}},"Address":{"Label":"A91 N2A8, Dundalk, Ireland","Country":"IRL","County":"County Louth","City":"Dundalk","PostalCode":"A91 N2A8","AdditionalData":[{"value":"Ireland","key":"CountryName"},{"value":"County Louth","key":"CountyName"}]},"MapReference":{"ReferenceId":"587799119","Spot":0.79,"SideOfStreet":"neither","CountryId":"20403667","CountyId":"20411212","CityId":"20536642"}}},{"Relevance":1.0,"Distance":69.5,"MatchLevel":"postalCode","MatchQuality":{"PostalCode":1.0},"MatchType":"interpolated","Location":{"LocationId":"NT_k0sEC5Jc3.ZhCqO6157uzB","LocationType":"point","DisplayPosition":{"Latitude":54.00013,"Longitude":-6.41774},"MapView":{"TopLeft":{"Latitude":54.0091232,"Longitude":-6.4330402},"BottomRight":{"Latitude":53.9911368,"Longitude":-6.4024398}},"Address":{"Label":"A91 N5T3, Dundalk, Ireland","Country":"IRL","County":"County Louth","City":"Dundalk","PostalCode":"A91 N5T3","AdditionalData":[{"value":"Ireland","key":"CountryName"},{"value":"County Louth","key":"CountyName"}]},"MapReference":{"ReferenceId":"554481798","Spot":0.75,"SideOfStreet":"neither","CountryId":"20403667","CountyId":"20411212","CityId":"20536642"}}},{"Relevance":1.0,"Distance":70.6,"MatchLevel":"houseNumber","MatchQuality":{"Country":1.0,"County":1.0,"City":1.0,"District":1.0,"Street":[1.0],"PostalCode":1.0},"MatchType":"interpolated","Location":{"LocationId":"NT_k0sEC5Jc3.ZhCqO6157uzB","LocationType":"point","DisplayPosition":{"Latitude":54.0,"Longitude":-6.41778},"MapView":{"TopLeft":{"Latitude":54.0011242,"Longitude":-6.4196925},"BottomRight":{"Latitude":53.9988758,"Longitude":-6.4158675}},"Address":{"Label":"\"Lynmar\" Carrickmacross Road, Dundalk, County Louth, A91 A8N8, Ireland","Country":"IRL","County":"County Louth","City":"Dundalk","District":"Dundalk","Street":"Carrickmacross Road","PostalCode":"A91 A8N8","AdditionalData":[{"value":"Ireland","key":"CountryName"},{"value":"County Louth","key":"CountyName"}],"Building":"Lynmar"},"MapReference":{"ReferenceId":"554481798","Spot":0.75,"SideOfStreet":"right","CountryId":"20403667","CountyId":"20411212","CityId":"20536642","DistrictId":"20612502","AddressId":"743659717","RoadLinkId":"172243380"}}},{"Relevance":1.0,"Distance":83.9,"MatchLevel":"houseNumber","MatchQuality":{"Country":1.0,"County":1.0,"City":1.0,"District":1.0,"Street":[1.0],"PostalCode":1.0},"MatchType":"interpolated","Location":{"LocationId":"NT_k0sEC5Jc3.ZhCqO6157uzB","LocationType":"point","DisplayPosition":{"Latitude":54.00006,"Longitude":-6.41542},"MapView":{"TopLeft":{"Latitude":54.0011842,"Longitude":-6.4173325},"BottomRight":{"Latitude":53.9989358,"Longitude":-6.4135075}},"Address":{"Label":"\"Dealga Service Station\" Carrickmacross Road, Dundalk, County Louth, A91 CP27, Ireland","Country":"IRL","County":"County Louth","City":"Dundalk","District":"Dundalk","Street":"Carrickmacross Road","PostalCode":"A91 CP27","AdditionalData":[{"value":"Ireland","key":"CountryName"},{"value":"County Louth","key":"CountyName"}],"Building":"Dealga Service Station"},"MapReference":{"ReferenceId":"587799119","Spot":0.79,"SideOfStreet":"right","CountryId":"20403667","CountyId":"20411212","CityId":"20536642","DistrictId":"20612502","AddressId":"743663507","RoadLinkId":"86819491"}}},{"Relevance":1.0,"Distance":103.9,"MatchLevel":"postalCode","MatchQuality":{"PostalCode":1.0},"MatchType":"interpolated","Location":{"LocationId":"NT_k0sEC5Jc3.ZhCqO6157uzB_xA","LocationType":"point","DisplayPosition":{"Latitude":54.00031,"Longitude":-6.4152},"MapView":{"TopLeft":{"Latitude":54.0093032,"Longitude":-6.4305003},"BottomRight":{"Latitude":53.9913168,"Longitude":-6.3998997}},"Address":{"Label":"A91 V092, Dundalk, Ireland","Country":"IRL","County":"County Louth","City":"Dundalk","PostalCode":"A91 V092","AdditionalData":[{"value":"Ireland","key":"CountryName"},{"value":"County Louth","key":"CountyName"}]},"MapReference":{"ReferenceId":"786127352","Spot":0.64,"SideOfStreet":"neither","CountryId":"20403667","CountyId":"20411212","CityId":"20536642"}}},{"Relevance":1.0,"Distance":115.5,"MatchLevel":"houseNumber","MatchQuality":{"Country":1.0,"County":1.0,"City":1.0,"District":1.0,"Street":[1.0],"PostalCode":1.0},"MatchType":"interpolated","Location":{"LocationId":"NT_Uspe1q0PuH501TGGl5ImPD","LocationType":"point","DisplayPosition":{"Latitude":54.00063,"Longitude":-6.41807},"MapView":{"TopLeft":{"Latitude":54.0017542,"Longitude":-6.4199826},"BottomRight":{"Latitude":53.9995058,"Longitude":-6.4161574}},"Address":{"Label":"\"Ingle Nook\" Mount Avenue, Dundalk, County Louth, A91 W2T8, Ireland","Country":"IRL","County":"County Louth","City":"Dundalk","District":"Dundalk","Street":"Mount Avenue","PostalCode":"A91 W2T8","AdditionalData":[{"value":"Ireland","key":"CountryName"},{"value":"County Louth","key":"CountyName"}],"Building":"Ingle Nook"},"MapReference":{"ReferenceId":"781580930","Spot":0.31,"SideOfStreet":"right","CountryId":"20403667","CountyId":"20411212","CityId":"20536642","DistrictId":"20612502","AddressId":"743647870","RoadLinkId":"174497705"}}}]}]}}