{"Response":{"MetaInfo":{"Timestamp":"2020-03-28T10:56:03.945+0000","NextPageInformation":"2"},"View":[{"_type":"SearchResultsViewType","ViewId":0,"Result":[{"Relevance":1.0,"Distance":0.0,"Direction":0.0,"MatchLevel":"district","MatchQuality":{"Country":1.0,"State":1.0,"County":1.0,"City":1.0,"District":1.0,"PostalCode":1.0},"Location":{"LocationId":"NT_ht1TeU2Jw1P7kGuKq6hzQA","LocationType":"point","DisplayPosition":{"Latitude":54.0794713,"Longitude":13.3819997},"MapView":{"TopLeft":{"Latitude":54.11056,"Longitude":13.34453},"BottomRight":{"Latitude":54.06482,"Longitude":13.46118}},"Address":{"Label":"Greifswald, Mecklenburg-Vorpommern, Deutschland","Country":"DEU","State":"Mecklenburg-Vorpommern","County":"Vorpommern-Greifswald","City":"Greifswald","District":"Greifswald","PostalCode":"17489","AdditionalData":[{"value":"Deutschland","key":"CountryName"},{"value":"Mecklenburg-Vorpommern","key":"StateName"},{"value":"Vorpommern-Greifswald","key":"CountyName"}]},"MapReference":{"ReferenceId":"53643234","SideOfStreet":"neither","CountryId":"20147700","StateId":"20189515","CountyId":"20190674","CityId":"20189517","DistrictId":"20189519"}}},{"Relevance":1.0,"Distance":13.5,"MatchLevel":"landmark","MatchQuality":{"Country":1.0,"State":1.0,"County":1.0,"City":1.0,"District":1.0,"PostalCode":1.0,"Name":1.0},"Location":{"LocationId":"NT_nc7z2DovBz9itxsJejpj8D","LocationType":"industrialComplex","Name":"Technologiepark Greifswald","DisplayPosition":{"Latitude":54.07861,"Longitude":13.37686},"MapView":{"TopLeft":{"Latitude":54.08433,"Longitude":13.36891},"BottomRight":{"Latitude":54.07289,"Longitude":13.39949}},"Address":{"Label":"17489 Greifswald, Deutschland","Country":"DEU","State":"Mecklenburg-Vorpommern","County":"Vorpommern-Greifswald","City":"Greifswald","District":"Greifswald","PostalCode":"17489","AdditionalData":[{"value":"Deutschland","key":"CountryName"},{"value":"Mecklenburg-Vorpommern","key":"StateName"},{"value":"Vorpommern-Greifswald","key":"CountyName"}]},"MapReference":{"CountryId":"20147700","StateId":"20189515","CountyId":"20190674","CityId":"20189517","DistrictId":"20189519","PlaceId":"1410079538"}}},{"Relevance":1.0,"Distance":13.5,"MatchLevel":"street","MatchQuality":{"Country":1.0,"State":1.0,"County":1.0,"City":1.0,"District":1.0,"Street":[1.0],"PostalCode":1.0},"Location":{"LocationId":"NT_TNUBMOrUQ.Yivybc.1rH4B_l_1224054126_R","LocationType":"point","DisplayPosition":{"Latitude":54.0795025,"Longitude":13.3818001},"MapView":{"TopLeft":{"Latitude":54.07963,"Longitude":13.38177},"BottomRight":{"Latitude":54.07931,"Longitude":13.38182}},"Address":{"Label":"Gützkower Landstraße, 17489 Greifswald, Deutschland","Country":"DEU","State":"Mecklenburg-Vorpommern","County":"Vorpommern-Greifswald","City":"Greifswald","District":"Greifswald","Street":"Gützkower Landstraße","PostalCode":"17489","AdditionalData":[{"value":"Deutschland","key":"CountryName"},{"value":"Mecklenburg-Vorpommern","key":"StateName"},{"value":"Vorpommern-Greifswald","key":"CountyName"}]},"MapReference":{"ReferenceId":"1224054126","Spot":0.6,"SideOfStreet":"right","CountryId":"20147700","StateId":"20189515","CountyId":"20190674","CityId":"20189517","DistrictId":"20189519"}}},{"Relevance":1.0,"Distance":23.4,"MatchLevel":"street","MatchQuality":{"Country":1.0,"State":1.0,"County":1.0,"City":1.0,"District":1.0,"Street":[1.0],"PostalCode":1.0},"Location":{"LocationId":"NT_TNUBMOrUQ.Yivybc.1rH4B_l_1224054125_R","LocationType":"point","DisplayPosition":{"Latitude":54.07931,"Longitude":13.38177},"MapView":{"TopLeft":{"Latitude":54.07931,"Longitude":13.3817},"BottomRight":{"Latitude":54.07881,"Longitude":13.38177}},"Address":{"Label":"Gützkower Landstraße, 17489 Greifswald, Deutschland","Country":"DEU","State":"Mecklenburg-Vorpommern","County":"Vorpommern-Greifswald","City":"Greifswald","District":"Greifswald","Street":"Gützkower Landstraße","PostalCode":"17489","AdditionalData":[{"value":"Deutschland","key":"CountryName"},{"value":"Mecklenburg-Vorpommern","key":"StateName"},{"value":"Vorpommern-Greifswald","key":"CountyName"}]},"MapReference":{"ReferenceId":"1224054125","Spot":1.0,"SideOfStreet":"right","CountryId":"20147700","StateId":"20189515","CountyId":"20190674","CityId":"20189517","DistrictId":"20189519"}}},{"Relevance":1.0,"Distance":26.7,"MatchLevel":"houseNumber","MatchQuality":{"Country":1.0,"State":1.0,"County":1.0,"City":1.0,"District":1.0,"Street":[1.0],"HouseNumber":1.0,"PostalCode":1.0},"MatchType":"interpolated","Location":{"LocationId":"NT_TNUBMOrUQ.Yivybc.1rH4B_3AD","LocationType":"point","DisplayPosition":{"Latitude":54.07969,"Longitude":13.38183},"MapView":{"TopLeft":{"Latitude":54.0808142,"Longitude":13.3799138},"BottomRight":{"Latitude":54.0785658,"Longitude":13.3837462}},"Address":{"Label":"Gützkower Landstraße 70, 17489 Greifswald, Deutschland","Country":"DEU","State":"Mecklenburg-Vorpommern","County":"Vorpommern-Greifswald","City":"Greifswald","District":"Greifswald","Street":"Gützkower Landstraße","HouseNumber":"70","PostalCode":"17489","AdditionalData":[{"value":"Deutschland","key":"CountryName"},{"value":"Mecklenburg-Vorpommern","key":"StateName"},{"value":"Vorpommern-Greifswald","key":"CountyName"}]},"MapReference":{"ReferenceId":"1222503500","Spot":0.09,"SideOfStreet":"right","CountryId":"20147700","StateId":"20189515","CountyId":"20190674","CityId":"20189517","DistrictId":"20189519","AddressId":"183968139","RoadLinkId":"540213610"}}},{"Relevance":1.0,"Distance":85.9,"MatchLevel":"houseNumber","MatchQuality":{"Country":1.0,"State":1.0,"County":1.0,"City":1.0,"District":1.0,"Street":[1.0],"HouseNumber":1.0,"PostalCode":1.0},"MatchType":"interpolated","Location":{"LocationId":"NT_TNUBMOrUQ.Yivybc.1rH4B_2kD","LocationType":"point","DisplayPosition":{"Latitude":54.07872,"Longitude":13.38169},"MapView":{"TopLeft":{"Latitude":54.0798442,"Longitude":13.3797739},"BottomRight":{"Latitude":54.0775958,"Longitude":13.3836061}},"Address":{"Label":"Gützkower Landstraße 69, 17489 Greifswald, Deutschland","Country":"DEU","State":"Mecklenburg-Vorpommern","County":"Vorpommern-Greifswald","City":"Greifswald","District":"Greifswald","Street":"Gützkower Landstraße","HouseNumber":"69","PostalCode":"17489","AdditionalData":[{"value":"Deutschland","key":"CountryName"},{"value":"Mecklenburg-Vorpommern","key":"StateName"},{"value":"Vorpommern-Greifswald","key":"CountyName"}]},"MapReference":{"ReferenceId":"1222503255","Spot":0.72,"SideOfStreet":"right","CountryId":"20147700","StateId":"20189515","CountyId":"20190674","CityId":"20189517","DistrictId":"20189519","AddressId":"183968131","RoadLinkId":"540213232"}}},{"Relevance":1.0,"Distance":92.3,"MatchLevel":"street","MatchQuality":{"Country":1.0,"State":1.0,"County":1.0,"City":1.0,"District":1.0,"Street":[1.0],"PostalCode":1.0},"Location":{"LocationId":"NT_TNUBMOrUQ.Yivybc.1rH4B_l_781460068_R","LocationType":"point","DisplayPosition":{"Latitude":54.0803,"Longitude":13.38192},"MapView":{"TopLeft":{"Latitude":54.08046,"Longitude":13.38192},"BottomRight":{"Latitude":54.0803,"Longitude":13.38195}},"Address":{"Label":"Gützkower Landstraße, 17489 Greifswald, Deutschland","Country":"DEU","State":"Mecklenburg-Vorpommern","County":"Vorpommern-Greifswald","City":"Greifswald","District":"Greifswald","Street":"Gützkower Landstraße","PostalCode":"17489","AdditionalData":[{"value":"Deutschland","key":"CountryName"},{"value":"Mecklenburg-Vorpommern","key":"StateName"},{"value":"Vorpommern-Greifswald","key":"CountyName"}]},"MapReference":{"ReferenceId":"781460068","Spot":0.0,"SideOfStreet":"right","CountryId":"20147700","StateId":"20189515","CountyId":"20190674","CityId":"20189517","DistrictId":"20189519"}}},{"Relevance":1.0,"Distance":92.3,"MatchLevel":"street","MatchQuality":{"Country":1.0,"State":1.0,"County":1.0,"City":1.0,"District":1.0,"Street":[1.0],"PostalCode":1.0},"Location":{"LocationId":"NT_UjiptyywVhl02dnAJd.WIA_l_1222502592_L","LocationType":"point","DisplayPosition":{"Latitude":54.0803,"Longitude":13.38192},"MapView":{"TopLeft":{"Latitude":54.08031,"Longitude":13.38161},"BottomRight":{"Latitude":54.0803,"Longitude":13.38192}},"Address":{"Label":"Siemensallee, 17489 Greifswald, Deutschland","Country":"DEU","State":"Mecklenburg-Vorpommern","County":"Vorpommern-Greifswald","City":"Greifswald","District":"Greifswald","Street":"Siemensallee","PostalCode":"17489","AdditionalData":[{"value":"Deutschland","key":"CountryName"},{"value":"Mecklenburg-Vorpommern","key":"StateName"},{"value":"Vorpommern-Greifswald","key":"CountyName"}]},"MapReference":{"ReferenceId":"1222502592","Spot":0.0,"SideOfStreet":"left","CountryId":"20147700","StateId":"20189515","CountyId":"20190674","CityId":"20189517","DistrictId":"20189519"}}},{"Relevance":1.0,"Distance":96.7,"MatchLevel":"street","MatchQuality":{"Country":1.0,"State":1.0,"County":1.0,"City":1.0,"District":1.0,"Street":[1.0],"PostalCode":1.0},"Location":{"LocationId":"NT_UjiptyywVhl02dnAJd.WIA_l_1222502593_L","LocationType":"point","DisplayPosition":{"Latitude":54.08031,"Longitude":13.38161},"MapView":{"TopLeft":{"Latitude":54.08034,"Longitude":13.38108},"BottomRight":{"Latitude":54.08031,"Longitude":13.38161}},"Address":{"Label":"Siemensallee, 17489 Greifswald, Deutschland","Country":"DEU","State":"Mecklenburg-Vorpommern","County":"Vorpommern-Greifswald","City":"Greifswald","District":"Greifswald","Street":"Siemensallee","PostalCode":"17489","AdditionalData":[{"value":"Deutschland","key":"CountryName"},{"value":"Mecklenburg-Vorpommern","key":"StateName"},{"value":"Vorpommern-Greifswald","key":"CountyName"}]},"MapReference":{"ReferenceId":"1222502593","Spot":0.0,"SideOfStreet":"left","CountryId":"20147700","StateId":"20189515","CountyId":"20190674","CityId":"20189517","DistrictId":"20189519"}}},{"Relevance":1.0,"Distance":110.2,"MatchLevel":"houseNumber","MatchQuality":{"Country":1.0,"State":1.0,"County":1.0,"City":1.0,"District":1.0,"Street":[1.0],"HouseNumber":1.0,"PostalCode":1.0},"MatchType":"interpolated","Location":{"LocationId":"NT_UjiptyywVhl02dnAJd.WIA_yA","LocationType":"point","DisplayPosition":{"Latitude":54.08035,"Longitude":13.3807},"MapView":{"TopLeft":{"Latitude":54.0814742,"Longitude":13.3787838},"BottomRight":{"Latitude":54.0792258,"Longitude":13.3826162}},"Address":{"Label":"Siemensallee 2, 17489 Greifswald, Deutschland","Country":"DEU","State":"Mecklenburg-Vorpommern","County":"Vorpommern-Greifswald","City":"Greifswald","District":"Greifswald","Street":"Siemensallee","HouseNumber":"2","PostalCode":"17489","AdditionalData":[{"value":"Deutschland","key":"CountryName"},{"value":"Mecklenburg-Vorpommern","key":"StateName"},{"value":"Vorpommern-Greifswald","key":"CountyName"}]},"MapReference":{"ReferenceId":"1224113717","Spot":0.68,"SideOfStreet":"left","CountryId":"20147700","StateId":"20189515","CountyId":"20190674","CityId":"20189517","DistrictId":"20189519","AddressId":"184104742","RoadLinkId":"542236018"}}}]}]}}