{"Response":{"MetaInfo":{"Timestamp":"2020-03-28T10:54:56.927+0000","NextPageInformation":"2"},"View":[{"_type":"SearchResultsViewType","ViewId":0,"Result":[{"Relevance":1.0,"Distance":0.0,"Direction":0.0,"MatchLevel":"district","MatchQuality":{"Country":1.0,"State":1.0,"County":1.0,"City":1.0,"District":1.0,"PostalCode":1.0},"Location":{"LocationId":"NT_sFXP8fusGMon0KPR3w2cbC","LocationType":"point","DisplayPosition":{"Latitude":54.0902615,"Longitude":12.1184652},"MapView":{"TopLeft":{"Latitude":54.11196,"Longitude":12.08436},"BottomRight":{"Latitude":54.07989,"Longitude":12.1276}},"Address":{"Label":"Kröpeliner-Tor-Vorstadt, Rostock, Mecklenburg-Vorpommern, Deutschland","Country":"DEU","State":"Mecklenburg-Vorpommern","County":"Rostock (Stadt)","City":"Rostock","District":"Kröpeliner-Tor-Vorstadt","PostalCode":"18057","AdditionalData":[{"value":"Deutschland","key":"CountryName"},{"value":"Mecklenburg-Vorpommern","key":"StateName"},{"value":"Rostock (Stadt)","key":"CountyName"}]},"MapReference":{"ReferenceId":"53591728","SideOfStreet":"neither","CountryId":"20147700","StateId":"20189515","CountyId":"20189530","CityId":"20189531","DistrictId":"20359552"}}},{"Relevance":1.0,"Distance":6.5,"MatchLevel":"houseNumber","MatchQuality":{"Country":1.0,"State":1.0,"County":1.0,"City":1.0,"District":1.0,"Street":[1.0],"HouseNumber":1.0,"PostalCode":1.0},"MatchType":"interpolated","Location":{"LocationId":"NT_D-ThurJD7IA-H5LxKv9-xA_xQDM","LocationType":"point","DisplayPosition":{"Latitude":54.09007,"Longitude":12.11849},"MapView":{"TopLeft":{"Latitude":54.0911942,"Longitude":12.1165733},"BottomRight":{"Latitude":54.0889458,"Longitude":12.1204067}},"Address":{"Label":"Doberaner Straße 140, 18057 Rostock, Deutschland","Country":"DEU","State":"Mecklenburg-Vorpommern","County":"Rostock (Stadt)","City":"Rostock","District":"Kröpeliner-Tor-Vorstadt","Street":"Doberaner Straße","HouseNumber":"140","PostalCode":"18057","AdditionalData":[{"value":"Deutschland","key":"CountryName"},{"value":"Mecklenburg-Vorpommern","key":"StateName"},{"value":"Rostock (Stadt)","key":"CountyName"}]},"MapReference":{"ReferenceId":"64989031","Spot":0.85,"SideOfStreet":"right","CountryId":"20147700","StateId":"20189515","CountyId":"20189530","CityId":"20189531","DistrictId":"20359552","AddressId":"184456185","RoadLinkId":"37941858"}}},{"Relevance":1.0,"Distance":29.1,"MatchLevel":"houseNumber","MatchQuality":{"Country":1.0,"State":1.0,"County":1.0,"City":1.0,"District":1.0,"Street":[1.0],"HouseNumber":1.0,"PostalCode":1.0},"MatchType":"interpolated","Location":{"LocationId":"NT_D-ThurJD7IA-H5LxKv9-xA_zAD","LocationType":"point","DisplayPosition":{"Latitude":54.09001,"Longitude":12.11834},"MapView":{"TopLeft":{"Latitude":54.0911342,"Longitude":12.1164233},"BottomRight":{"Latitude":54.0888858,"Longitude":12.1202567}},"Address":{"Label":"Doberaner Straße 30, 18057 Rostock, Deutschland","Country":"DEU","State":"Mecklenburg-Vorpommern","County":"Rostock (Stadt)","City":"Rostock","District":"Kröpeliner-Tor-Vorstadt","Street":"Doberaner Straße","HouseNumber":"30","PostalCode":"18057","AdditionalData":[{"value":"Deutschland","key":"CountryName"},{"value":"Mecklenburg-Vorpommern","key":"StateName"},{"value":"Rostock (Stadt)","key":"CountyName"}]},"MapReference":{"ReferenceId":"53591737","Spot":0.86,"SideOfStreet":"left","CountryId":"20147700","StateId":"20189515","CountyId":"20189530","CityId":"20189531","DistrictId":"20359552","AddressId":"183979436","RoadLinkId":"37697835"}}},{"Relevance":1.0,"Distance":48.9,"MatchLevel":"street","MatchQuality":{"Country":1.0,"State":1.0,"County":1.0,"City":1.0,"District":1.0,"Street":[1.0],"PostalCode":1.0},"Location":{"LocationId":"NT_YCeT1FsLowPH94748HKakC_l_64989033_R","LocationType":"point","DisplayPosition":{"Latitude":54.09031,"Longitude":12.11772},"MapView":{"TopLeft":{"Latitude":54.09031,"Longitude":12.11766},"BottomRight":{"Latitude":54.09023,"Longitude":12.11772}},"Address":{"Label":"Margaretenstraße, 18057 Rostock, Deutschland","Country":"DEU","State":"Mecklenburg-Vorpommern","County":"Rostock (Stadt)","City":"Rostock","District":"Kröpeliner-Tor-Vorstadt","Street":"Margaretenstraße","PostalCode":"18057","AdditionalData":[{"value":"Deutschland","key":"CountryName"},{"value":"Mecklenburg-Vorpommern","key":"StateName"},{"value":"Rostock (Stadt)","key":"CountyName"}]},"MapReference":{"ReferenceId":"64989033","Spot":1.0,"SideOfStreet":"right","CountryId":"20147700","StateId":"20189515","CountyId":"20189530","CityId":"20189531","DistrictId":"20359552"}}},{"Relevance":1.0,"Distance":63.8,"MatchLevel":"houseNumber","MatchQuality":{"Country":1.0,"State":1.0,"County":1.0,"City":1.0,"District":1.0,"Street":[1.0],"HouseNumber":1.0,"PostalCode":1.0},"MatchType":"interpolated","Location":{"LocationId":"NT_D-ThurJD7IA-H5LxKv9-xA_xMTN","LocationType":"point","DisplayPosition":{"Latitude":54.09037,"Longitude":12.11752},"MapView":{"TopLeft":{"Latitude":54.0914942,"Longitude":12.1156033},"BottomRight":{"Latitude":54.0892458,"Longitude":12.1194367}},"Address":{"Label":"Doberaner Straße 135, 18057 Rostock, Deutschland","Country":"DEU","State":"Mecklenburg-Vorpommern","County":"Rostock (Stadt)","City":"Rostock","District":"Kröpeliner-Tor-Vorstadt","Street":"Doberaner Straße","HouseNumber":"135","PostalCode":"18057","AdditionalData":[{"value":"Deutschland","key":"CountryName"},{"value":"Mecklenburg-Vorpommern","key":"StateName"},{"value":"Rostock (Stadt)","key":"CountyName"}]},"MapReference":{"ReferenceId":"64989032","Spot":0.2,"SideOfStreet":"right","CountryId":"20147700","StateId":"20189515","CountyId":"20189530","CityId":"20189531","DistrictId":"20359552","AddressId":"184063868","RoadLinkId":"37842552"}}},{"Relevance":1.0,"Distance":67.6,"MatchLevel":"houseNumber","MatchQuality":{"Country":1.0,"State":1.0,"County":1.0,"City":1.0,"District":1.0,"Street":[1.0],"HouseNumber":1.0,"PostalCode":1.0},"MatchType":"interpolated","Location":{"LocationId":"NT_D-ThurJD7IA-H5LxKv9-xA_zQD","LocationType":"point","DisplayPosition":{"Latitude":54.0903,"Longitude":12.11743},"MapView":{"TopLeft":{"Latitude":54.0914242,"Longitude":12.1155133},"BottomRight":{"Latitude":54.0891758,"Longitude":12.1193467}},"Address":{"Label":"Doberaner Straße 34, 18057 Rostock, Deutschland","Country":"DEU","State":"Mecklenburg-Vorpommern","County":"Rostock (Stadt)","City":"Rostock","District":"Kröpeliner-Tor-Vorstadt","Street":"Doberaner Straße","HouseNumber":"34","PostalCode":"18057","AdditionalData":[{"value":"Deutschland","key":"CountryName"},{"value":"Mecklenburg-Vorpommern","key":"StateName"},{"value":"Rostock (Stadt)","key":"CountyName"}]},"MapReference":{"ReferenceId":"53591588","Spot":0.23,"SideOfStreet":"left","CountryId":"20147700","StateId":"20189515","CountyId":"20189530","CityId":"20189531","DistrictId":"20359552","AddressId":"183991955","RoadLinkId":"38026228"}}},{"Relevance":1.0,"Distance":73.8,"MatchLevel":"houseNumber","MatchQuality":{"Country":1.0,"State":1.0,"County":1.0,"City":1.0,"District":1.0,"Street":[1.0],"HouseNumber":1.0,"PostalCode":1.0},"MatchType":"interpolated","Location":{"LocationId":"NT_YCeT1FsLowPH94748HKakC_2UD","LocationType":"point","DisplayPosition":{"Latitude":54.08998,"Longitude":12.11744},"MapView":{"TopLeft":{"Latitude":54.0911042,"Longitude":12.1155233},"BottomRight":{"Latitude":54.0888558,"Longitude":12.1193567}},"Address":{"Label":"Margaretenstraße 65, 18057 Rostock, Deutschland","Country":"DEU","State":"Mecklenburg-Vorpommern","County":"Rostock (Stadt)","City":"Rostock","District":"Kröpeliner-Tor-Vorstadt","Street":"Margaretenstraße","HouseNumber":"65","PostalCode":"18057","AdditionalData":[{"value":"Deutschland","key":"CountryName"},{"value":"Mecklenburg-Vorpommern","key":"StateName"},{"value":"Rostock (Stadt)","key":"CountyName"}]},"MapReference":{"ReferenceId":"53591630","Spot":0.52,"SideOfStreet":"left","CountryId":"20147700","StateId":"20189515","CountyId":"20189530","CityId":"20189531","DistrictId":"20359552","AddressId":"184118827","RoadLinkId":"37421781"}}},{"Relevance":1.0,"Distance":114.5,"MatchLevel":"houseNumber","MatchQuality":{"Country":1.0,"State":1.0,"County":1.0,"City":1.0,"District":1.0,"Street":[1.0],"HouseNumber":1.0,"PostalCode":1.0},"MatchType":"interpolated","Location":{"LocationId":"NT_nueIRfNDm0kVDK20Q7n7GA_xED","LocationType":"point","DisplayPosition":{"Latitude":54.08926,"Longitude":12.11806},"MapView":{"TopLeft":{"Latitude":54.0903842,"Longitude":12.1161434},"BottomRight":{"Latitude":54.0881358,"Longitude":12.1199766}},"Address":{"Label":"Leonhardstraße 11, 18057 Rostock, Deutschland","Country":"DEU","State":"Mecklenburg-Vorpommern","County":"Rostock (Stadt)","City":"Rostock","District":"Kröpeliner-Tor-Vorstadt","Street":"Leonhardstraße","HouseNumber":"11","PostalCode":"18057","AdditionalData":[{"value":"Deutschland","key":"CountryName"},{"value":"Mecklenburg-Vorpommern","key":"StateName"},{"value":"Rostock (Stadt)","key":"CountyName"}]},"MapReference":{"ReferenceId":"53591722","Spot":0.61,"SideOfStreet":"left","CountryId":"20147700","StateId":"20189515","CountyId":"20189530","CityId":"20189531","DistrictId":"20359552","AddressId":"183918481","RoadLinkId":"37921432"}}},{"Relevance":1.0,"Distance":119.9,"MatchLevel":"houseNumber","MatchQuality":{"Country":1.0,"State":1.0,"County":1.0,"City":1.0,"District":1.0,"Street":[1.0],"HouseNumber":1.0,"PostalCode":1.0},"MatchType":"interpolated","Location":{"LocationId":"NT_YCeT1FsLowPH94748HKakC_xA","LocationType":"point","DisplayPosition":{"Latitude":54.08958,"Longitude":12.11708},"MapView":{"TopLeft":{"Latitude":54.0907042,"Longitude":12.1151634},"BottomRight":{"Latitude":54.0884558,"Longitude":12.1189966}},"Address":{"Label":"Margaretenstraße 1, 18057 Rostock, Deutschland","Country":"DEU","State":"Mecklenburg-Vorpommern","County":"Rostock (Stadt)","City":"Rostock","District":"Kröpeliner-Tor-Vorstadt","Street":"Margaretenstraße","HouseNumber":"1","PostalCode":"18057","AdditionalData":[{"value":"Deutschland","key":"CountryName"},{"value":"Mecklenburg-Vorpommern","key":"StateName"},{"value":"Rostock (Stadt)","key":"CountyName"}]},"MapReference":{"ReferenceId":"53591668","Spot":0.72,"SideOfStreet":"right","CountryId":"20147700","StateId":"20189515","CountyId":"20189530","CityId":"20189531","DistrictId":"20359552","AddressId":"184414993","RoadLinkId":"37899612"}}},{"Relevance":1.0,"Distance":120.6,"MatchLevel":"houseNumber","MatchQuality":{"Country":1.0,"State":1.0,"County":1.0,"City":1.0,"District":1.0,"Street":[1.0],"HouseNumber":1.0,"PostalCode":1.0},"MatchType":"interpolated","Location":{"LocationId":"NT_UBFbeKrd2BrULbQ4BLnOzA_zID","LocationType":"point","DisplayPosition":{"Latitude":54.09139,"Longitude":12.11895},"MapView":{"TopLeft":{"Latitude":54.0925142,"Longitude":12.1170333},"BottomRight":{"Latitude":54.0902658,"Longitude":12.1208667}},"Address":{"Label":"Patriotischer Weg 32, 18057 Rostock, Deutschland","Country":"DEU","State":"Mecklenburg-Vorpommern","County":"Rostock (Stadt)","City":"Rostock","District":"Kröpeliner-Tor-Vorstadt","Street":"Patriotischer Weg","HouseNumber":"32","PostalCode":"18057","AdditionalData":[{"value":"Deutschland","key":"CountryName"},{"value":"Mecklenburg-Vorpommern","key":"StateName"},{"value":"Rostock (Stadt)","key":"CountyName"}]},"MapReference":{"ReferenceId":"1047864356","Spot":0.95,"SideOfStreet":"left","CountryId":"20147700","StateId":"20189515","CountyId":"20189530","CityId":"20189531","DistrictId":"20359552","AddressId":"184046649","RoadLinkId":"368022624"}}}]}]}}