{"Response":{"MetaInfo":{"Timestamp":"2020-03-28T11:02:43.740+0000","NextPageInformation":"2"},"View":[{"_type":"SearchResultsViewType","ViewId":0,"Result":[{"Relevance":1.0,"Distance":-11.6,"MatchLevel":"landmark","MatchQuality":{"Country":1.0,"State":1.0,"County":1.0,"City":1.0,"District":1.0,"Street":[1.0],"HouseNumber":1.0,"PostalCode":1.0,"Name":1.0},"Location":{"LocationId":"NT_hdc-tbvyysv4IBvzomd-kD_p_p-ip2pAMEuJ.hRAKEYK4hC","LocationType":"hospital","Name":"Universitätsklinikum Rostock","DisplayPosition":{"Latitude":54.08529,"Longitude":12.10173},"MapView":{"TopLeft":{"Latitude":54.0864142,"Longitude":12.0998135},"BottomRight":{"Latitude":54.0841658,"Longitude":12.1036465}},"Address":{"Label":"Schillingallee 35, 18057 Rostock, Deutschland","Country":"DEU","State":"Mecklenburg-Vorpommern","County":"Rostock (Stadt)","City":"Rostock","District":"Hansaviertel","Street":"Schillingallee","HouseNumber":"35","PostalCode":"18057","AdditionalData":[{"value":"Deutschland","key":"CountryName"},{"value":"Mecklenburg-Vorpommern","key":"StateName"},{"value":"Rostock (Stadt)","key":"CountyName"}]},"MapReference":{"CountryId":"20147700","StateId":"20189515","CountyId":"20189530","CityId":"20189531","DistrictId":"20359550","PlaceId":"50668586"}}},{"Relevance":1.0,"Distance":0.0,"Direction":0.0,"MatchLevel":"district","MatchQuality":{"Country":1.0,"State":1.0,"County":1.0,"City":1.0,"District":1.0,"PostalCode":1.0},"Location":{"LocationId":"NT_mmGZceJzXlQAuYSREeAUJA","LocationType":"point","DisplayPosition":{"Latitude":54.0839182,"Longitude":12.1003366},"MapView":{"TopLeft":{"Latitude":54.09329,"Longitude":12.08688},"BottomRight":{"Latitude":54.07646,"Longitude":12.11622}},"Address":{"Label":"Hansaviertel, Rostock, Mecklenburg-Vorpommern, Deutschland","Country":"DEU","State":"Mecklenburg-Vorpommern","County":"Rostock (Stadt)","City":"Rostock","District":"Hansaviertel","PostalCode":"18057","AdditionalData":[{"value":"Deutschland","key":"CountryName"},{"value":"Mecklenburg-Vorpommern","key":"StateName"},{"value":"Rostock (Stadt)","key":"CountyName"}]},"MapReference":{"ReferenceId":"53592183","SideOfStreet":"neither","CountryId":"20147700","StateId":"20189515","CountyId":"20189530","CityId":"20189531","DistrictId":"20359550"}}},{"Relevance":1.0,"Distance":11.7,"MatchLevel":"street","MatchQuality":{"Country":1.0,"State":1.0,"County":1.0,"City":1.0,"District":1.0,"Street":[1.0],"PostalCode":1.0},"Location":{"LocationId":"NT_IcHxi2nV2xuXstoQrXcWvA_l_53592118_R","LocationType":"point","DisplayPosition":{"Latitude":54.0838147,"Longitude":12.1003057},"MapView":{"TopLeft":{"Latitude":54.08407,"Longitude":12.09945},"BottomRight":{"Latitude":54.08336,"Longitude":12.10183}},"Address":{"Label":"Ernst-Heydemann-Straße, 18057 Rostock, Deutschland","Country":"DEU","State":"Mecklenburg-Vorpommern","County":"Rostock (Stadt)","City":"Rostock","District":"Hansaviertel","Street":"Ernst-Heydemann-Straße","PostalCode":"18057","AdditionalData":[{"value":"Deutschland","key":"CountryName"},{"value":"Mecklenburg-Vorpommern","key":"StateName"},{"value":"Rostock (Stadt)","key":"CountyName"}]},"MapReference":{"ReferenceId":"53592118","Spot":0.64,"SideOfStreet":"right","CountryId":"20147700","StateId":"20189515","CountyId":"20189530","CityId":"20189531","DistrictId":"20359550"}}},{"Relevance":1.0,"Distance":45.2,"MatchLevel":"street","MatchQuality":{"Country":1.0,"State":1.0,"County":1.0,"City":1.0,"District":1.0,"Street":[1.0],"PostalCode":1.0},"Location":{"LocationId":"NT_IcHxi2nV2xuXstoQrXcWvA_l_53659560_L","LocationType":"point","DisplayPosition":{"Latitude":54.0841819,"Longitude":12.100864},"MapView":{"TopLeft":{"Latitude":54.08456,"Longitude":12.10086},"BottomRight":{"Latitude":54.08405,"Longitude":12.10258}},"Address":{"Label":"Ernst-Heydemann-Straße, 18057 Rostock, Deutschland","Country":"DEU","State":"Mecklenburg-Vorpommern","County":"Rostock (Stadt)","City":"Rostock","District":"Hansaviertel","Street":"Ernst-Heydemann-Straße","PostalCode":"18057","AdditionalData":[{"value":"Deutschland","key":"CountryName"},{"value":"Mecklenburg-Vorpommern","key":"StateName"},{"value":"Rostock (Stadt)","key":"CountyName"}]},"MapReference":{"ReferenceId":"53659560","Spot":0.13,"SideOfStreet":"left","CountryId":"20147700","StateId":"20189515","CountyId":"20189530","CityId":"20189531","DistrictId":"20359550"}}},{"Relevance":1.0,"Distance":59.2,"MatchLevel":"street","MatchQuality":{"Country":1.0,"State":1.0,"County":1.0,"City":1.0,"District":1.0,"Street":[1.0],"PostalCode":1.0},"Location":{"LocationId":"NT_2WVJsygYCgcDOYWaUlBCBC_l_53592059_R","LocationType":"point","DisplayPosition":{"Latitude":54.08415,"Longitude":12.09952},"MapView":{"TopLeft":{"Latitude":54.08415,"Longitude":12.09945},"BottomRight":{"Latitude":54.08407,"Longitude":12.09952}},"Address":{"Label":"Schillingallee, 18057 Rostock, Deutschland","Country":"DEU","State":"Mecklenburg-Vorpommern","County":"Rostock (Stadt)","City":"Rostock","District":"Hansaviertel","Street":"Schillingallee","PostalCode":"18057","AdditionalData":[{"value":"Deutschland","key":"CountryName"},{"value":"Mecklenburg-Vorpommern","key":"StateName"},{"value":"Rostock (Stadt)","key":"CountyName"}]},"MapReference":{"ReferenceId":"53592059","Spot":1.0,"SideOfStreet":"right","CountryId":"20147700","StateId":"20189515","CountyId":"20189530","CityId":"20189531","DistrictId":"20359550"}}},{"Relevance":1.0,"Distance":60.2,"MatchLevel":"landmark","MatchQuality":{"Country":1.0,"State":1.0,"County":1.0,"City":1.0,"District":1.0,"Street":[1.0],"PostalCode":1.0,"Name":1.0},"Location":{"LocationId":"NT_oNMMPx4AtzdmnzUUdsR9HC_p_duY.iuEXI7UW7AOdMDD71C","LocationType":"sportsComplex","Name":"Ostseestadion","DisplayPosition":{"Latitude":54.08642,"Longitude":12.09508},"MapView":{"TopLeft":{"Latitude":54.08673,"Longitude":12.0876},"BottomRight":{"Latitude":54.08193,"Longitude":12.10152}},"Address":{"Label":"Kopernikusstraße, 18057 Rostock, Deutschland","Country":"DEU","State":"Mecklenburg-Vorpommern","County":"Rostock (Stadt)","City":"Rostock","District":"Hansaviertel","Street":"Kopernikusstraße","PostalCode":"18057","AdditionalData":[{"value":"Deutschland","key":"CountryName"},{"value":"Mecklenburg-Vorpommern","key":"StateName"},{"value":"Rostock (Stadt)","key":"CountyName"}]},"MapReference":{"CountryId":"20147700","StateId":"20189515","CountyId":"20189530","CityId":"20189531","DistrictId":"20359550","PlaceId":"50668143"}}},{"Relevance":1.0,"Distance":60.2,"MatchLevel":"street","MatchQuality":{"Country":1.0,"State":1.0,"County":1.0,"City":1.0,"District":1.0,"Street":[1.0],"PostalCode":1.0},"Location":{"LocationId":"NT_U.3K0AxqzUatJ.e7SktGZC_l_1048969308_R","LocationType":"point","DisplayPosition":{"Latitude":54.08407,"Longitude":12.09945},"MapView":{"TopLeft":{"Latitude":54.08407,"Longitude":12.09848},"BottomRight":{"Latitude":54.08302,"Longitude":12.09945}},"Address":{"Label":"Schillingallee, 18059 Rostock, Deutschland","Country":"DEU","State":"Mecklenburg-Vorpommern","County":"Rostock (Stadt)","City":"Rostock","District":"Hansaviertel","Street":"Schillingallee","PostalCode":"18059","AdditionalData":[{"value":"Deutschland","key":"CountryName"},{"value":"Mecklenburg-Vorpommern","key":"StateName"},{"value":"Rostock (Stadt)","key":"CountyName"}]},"MapReference":{"ReferenceId":"1048969308","Spot":1.0,"SideOfStreet":"right","CountryId":"20147700","StateId":"20189515","CountyId":"20189530","CityId":"20189531","DistrictId":"20359550"}}},{"Relevance":1.0,"Distance":91.2,"MatchLevel":"houseNumber","MatchQuality":{"Country":1.0,"State":1.0,"County":1.0,"City":1.0,"District":1.0,"Street":[1.0],"HouseNumber":1.0,"PostalCode":1.0},"MatchType":"interpolated","Location":{"LocationId":"NT_IcHxi2nV2xuXstoQrXcWvA_2A","LocationType":"point","DisplayPosition":{"Latitude":54.08382,"Longitude":12.10181},"MapView":{"TopLeft":{"Latitude":54.0849442,"Longitude":12.0998936},"BottomRight":{"Latitude":54.0826958,"Longitude":12.1037264}},"Address":{"Label":"Ernst-Heydemann-Straße 6, 18057 Rostock, Deutschland","Country":"DEU","State":"Mecklenburg-Vorpommern","County":"Rostock (Stadt)","City":"Rostock","District":"Hansaviertel","Street":"Ernst-Heydemann-Straße","HouseNumber":"6","PostalCode":"18057","AdditionalData":[{"value":"Deutschland","key":"CountryName"},{"value":"Mecklenburg-Vorpommern","key":"StateName"},{"value":"Rostock (Stadt)","key":"CountyName"}]},"MapReference":{"ReferenceId":"53659559","Spot":0.33,"SideOfStreet":"left","CountryId":"20147700","StateId":"20189515","CountyId":"20189530","CityId":"20189531","DistrictId":"20359550","AddressId":"184104081","RoadLinkId":"37649927"}}},{"Relevance":1.0,"Distance":101.3,"MatchLevel":"landmark","MatchQuality":{"Country":1.0,"State":1.0,"County":1.0,"City":1.0,"District":1.0,"Street":[1.0],"PostalCode":1.0,"Name":1.0},"Location":{"LocationId":"NT_zLnPjvFBvKH.2s20KcbKVB_p_2oDXRgf3roOc4iYSTqTV9A","LocationType":"park","Name":"Barnstorfer Anlagen","DisplayPosition":{"Latitude":54.08202,"Longitude":12.09805},"MapView":{"TopLeft":{"Latitude":54.08302,"Longitude":12.08688},"BottomRight":{"Latitude":54.07801,"Longitude":12.10279}},"Address":{"Label":"Platz der Jugend, 18059 Rostock, Deutschland","Country":"DEU","State":"Mecklenburg-Vorpommern","County":"Rostock (Stadt)","City":"Rostock","District":"Hansaviertel","Street":"Platz der Jugend","PostalCode":"18059","AdditionalData":[{"value":"Deutschland","key":"CountryName"},{"value":"Mecklenburg-Vorpommern","key":"StateName"},{"value":"Rostock (Stadt)","key":"CountyName"}]},"MapReference":{"CountryId":"20147700","StateId":"20189515","CountyId":"20189530","CityId":"20189531","DistrictId":"20359550","PlaceId":"1138135878"}}},{"Relevance":1.0,"Distance":111.6,"MatchLevel":"houseNumber","MatchQuality":{"Country":1.0,"State":1.0,"County":1.0,"City":1.0,"District":1.0,"Street":[1.0],"HouseNumber":1.0,"PostalCode":1.0},"MatchType":"interpolated","Location":{"LocationId":"NT_2WVJsygYCgcDOYWaUlBCBC_3ATQ","LocationType":"point","DisplayPosition":{"Latitude":54.08492,"Longitude":12.10024},"MapView":{"TopLeft":{"Latitude":54.0860442,"Longitude":12.0983236},"BottomRight":{"Latitude":54.0837958,"Longitude":12.1021564}},"Address":{"Label":"Schillingallee 70A, 18057 Rostock, Deutschland","Country":"DEU","State":"Mecklenburg-Vorpommern","County":"Rostock (Stadt)","City":"Rostock","District":"Hansaviertel","Street":"Schillingallee","HouseNumber":"70A","PostalCode":"18057","AdditionalData":[{"value":"Deutschland","key":"CountryName"},{"value":"Mecklenburg-Vorpommern","key":"StateName"},{"value":"Rostock (Stadt)","key":"CountyName"}]},"MapReference":{"ReferenceId":"53592054","Spot":0.63,"SideOfStreet":"left","CountryId":"20147700","StateId":"20189515","CountyId":"20189530","CityId":"20189531","DistrictId":"20359550","AddressId":"790000377","RoadLinkId":"37475164"}}}]}]}}