{"Response":{"MetaInfo":{"Timestamp":"2020-03-28T10:32:55.520+0000","NextPageInformation":"2"},"View":[{"_type":"SearchResultsViewType","ViewId":0,"Result":[{"Relevance":1.0,"Distance":0.0,"Direction":0.0,"MatchLevel":"district","MatchQuality":{"Country":1.0,"State":1.0,"County":1.0,"City":1.0,"District":1.0,"PostalCode":1.0},"Location":{"LocationId":"NT_f5GaWhdfQDWagO66EoZBMC","LocationType":"point","DisplayPosition":{"Latitude":54.1993998,"Longitude":-2.9479823},"MapView":{"TopLeft":{"Latitude":54.20297,"Longitude":-2.95582},"BottomRight":{"Latitude":54.19765,"Longitude":-2.94434}},"Address":{"Label":"Cartmel, Grange-over-Sands, England, United Kingdom","Country":"GBR","State":"England","County":"Cumbria","City":"Grange-over-Sands","District":"Cartmel","PostalCode":"LA11 6","AdditionalData":[{"value":"United Kingdom","key":"CountryName"},{"value":"England","key":"StateName"},{"value":"Cumbria","key":"CountyName"}]},"MapReference":{"ReferenceId":"27517956","SideOfStreet":"neither","StateId":"20248595","CountyId":"20339026","CityId":"20346328","DistrictId":"20346333"}}},{"Relevance":1.0,"Distance":11.2,"MatchLevel":"street","MatchQuality":{"Country":1.0,"State":1.0,"County":1.0,"City":1.0,"District":1.0,"Street":[1.0],"PostalCode":1.0},"Location":{"LocationId":"NT_PXrjD3EKGKlqD8epqgEF0A_l_27572475_L","LocationType":"point","DisplayPosition":{"Latitude":54.1992991,"Longitude":-2.9479767},"MapView":{"TopLeft":{"Latitude":54.19933,"Longitude":-2.9485},"BottomRight":{"Latitude":54.19927,"Longitude":-2.94728}},"Address":{"Label":"Haggs Lane, Grange-over-Sands, LA11 6, United Kingdom","Country":"GBR","State":"England","County":"Cumbria","City":"Grange-over-Sands","District":"Cartmel","Street":"Haggs Lane","PostalCode":"LA11 6","AdditionalData":[{"value":"United Kingdom","key":"CountryName"},{"value":"England","key":"StateName"},{"value":"Cumbria","key":"CountyName"}]},"MapReference":{"ReferenceId":"27572475","Spot":0.43,"SideOfStreet":"left","StateId":"20248595","CountyId":"20339026","CityId":"20346328","DistrictId":"20346333"}}},{"Relevance":1.0,"Distance":36.6,"MatchLevel":"street","MatchQuality":{"Country":1.0,"State":1.0,"County":1.0,"City":1.0,"District":1.0,"Street":[1.0],"PostalCode":1.0},"Location":{"LocationId":"NT_VQRaXw4Thw3RiCWNosq38D_l_27517975_R","LocationType":"point","DisplayPosition":{"Latitude":54.19927,"Longitude":-2.9485},"MapView":{"TopLeft":{"Latitude":54.19974,"Longitude":-2.94924},"BottomRight":{"Latitude":54.19927,"Longitude":-2.9485}},"Address":{"Label":"Town End Meadow, Grange-over-Sands, LA11 6, United Kingdom","Country":"GBR","State":"England","County":"Cumbria","City":"Grange-over-Sands","District":"Cartmel","Street":"Town End Meadow","PostalCode":"LA11 6","AdditionalData":[{"value":"United Kingdom","key":"CountryName"},{"value":"England","key":"StateName"},{"value":"Cumbria","key":"CountyName"}]},"MapReference":{"ReferenceId":"27517975","Spot":0.0,"SideOfStreet":"right","StateId":"20248595","CountyId":"20339026","CityId":"20346328","DistrictId":"20346333"}}},{"Relevance":1.0,"Distance":36.6,"MatchLevel":"street","MatchQuality":{"Country":1.0,"State":1.0,"County":1.0,"City":1.0,"District":1.0,"Street":[1.0],"PostalCode":1.0},"Location":{"LocationId":"NT_PXrjD3EKGKlqD8epqgEF0A_l_27517983_L","LocationType":"point","DisplayPosition":{"Latitude":54.19927,"Longitude":-2.9485},"MapView":{"TopLeft":{"Latitude":54.19927,"Longitude":-2.94914},"BottomRight":{"Latitude":54.19923,"Longitude":-2.9485}},"Address":{"Label":"Haggs Lane, Grange-over-Sands, LA11 6, United Kingdom","Country":"GBR","State":"England","County":"Cumbria","City":"Grange-over-Sands","District":"Cartmel","Street":"Haggs Lane","PostalCode":"LA11 6","AdditionalData":[{"value":"United Kingdom","key":"CountryName"},{"value":"England","key":"StateName"},{"value":"Cumbria","key":"CountyName"}]},"MapReference":{"ReferenceId":"27517983","Spot":1.0,"SideOfStreet":"left","StateId":"20248595","CountyId":"20339026","CityId":"20346328","DistrictId":"20346333"}}},{"Relevance":1.0,"Distance":46.3,"MatchLevel":"street","MatchQuality":{"Country":1.0,"State":1.0,"County":1.0,"City":1.0,"District":1.0,"Street":[1.0],"PostalCode":1.0},"Location":{"LocationId":"NT_PXrjD3EKGKlqD8epqgEF0A_l_849058782_L","LocationType":"point","DisplayPosition":{"Latitude":54.19933,"Longitude":-2.94728},"MapView":{"TopLeft":{"Latitude":54.19946,"Longitude":-2.94728},"BottomRight":{"Latitude":54.19933,"Longitude":-2.94536}},"Address":{"Label":"Haggs Lane, Grange-over-Sands, LA11 6, United Kingdom","Country":"GBR","State":"England","County":"Cumbria","City":"Grange-over-Sands","District":"Cartmel","Street":"Haggs Lane","PostalCode":"LA11 6","AdditionalData":[{"value":"United Kingdom","key":"CountryName"},{"value":"England","key":"StateName"},{"value":"Cumbria","key":"CountyName"}]},"MapReference":{"ReferenceId":"849058782","Spot":0.0,"SideOfStreet":"left","StateId":"20248595","CountyId":"20339026","CityId":"20346328","DistrictId":"20346333"}}},{"Relevance":1.0,"Distance":62.3,"MatchLevel":"postalCode","MatchQuality":{"PostalCode":1.0},"Location":{"LocationId":"NT_PXrjD3EKGKlqD8epqgEF0A_l_849058782_L","LocationType":"point","DisplayPosition":{"Latitude":54.1993,"Longitude":-2.94704},"MapView":{"TopLeft":{"Latitude":54.2082932,"Longitude":-2.9624139},"BottomRight":{"Latitude":54.1903068,"Longitude":-2.9316661}},"Address":{"Label":"LA11 6PH, Grange-over-Sands, England, United Kingdom","Country":"GBR","State":"England","County":"Cumbria","City":"Grange-over-Sands","PostalCode":"LA11 6PH","AdditionalData":[{"value":"United Kingdom","key":"CountryName"},{"value":"England","key":"StateName"},{"value":"Cumbria","key":"CountyName"}]},"MapReference":{"ReferenceId":"849058782","Spot":0.0,"SideOfStreet":"neither","StateId":"20248595","CountyId":"20339026","CityId":"20346328"}}},{"Relevance":1.0,"Distance":65.3,"MatchLevel":"postalCode","MatchQuality":{"PostalCode":1.0},"Location":{"LocationId":"NT_VQRaXw4Thw3RiCWNosq38D_l_27517975_R","LocationType":"point","DisplayPosition":{"Latitude":54.19974,"Longitude":-2.9488},"MapView":{"TopLeft":{"Latitude":54.2087332,"Longitude":-2.964174},"BottomRight":{"Latitude":54.1907468,"Longitude":-2.933426}},"Address":{"Label":"LA11 6QG, Grange-over-Sands, England, United Kingdom","Country":"GBR","State":"England","County":"Cumbria","City":"Grange-over-Sands","PostalCode":"LA11 6QG","AdditionalData":[{"value":"United Kingdom","key":"CountryName"},{"value":"England","key":"StateName"},{"value":"Cumbria","key":"CountyName"}]},"MapReference":{"ReferenceId":"27517975","Spot":0.0,"SideOfStreet":"neither","StateId":"20248595","CountyId":"20339026","CityId":"20346328"}}},{"Relevance":1.0,"Distance":77.6,"MatchLevel":"street","MatchQuality":{"Country":1.0,"State":1.0,"County":1.0,"City":1.0,"District":1.0,"Street":[1.0],"PostalCode":1.0},"Location":{"LocationId":"NT_PXrjD3EKGKlqD8epqgEF0A_l_27517990_L","LocationType":"point","DisplayPosition":{"Latitude":54.19923,"Longitude":-2.94914},"MapView":{"TopLeft":{"Latitude":54.19923,"Longitude":-2.94987},"BottomRight":{"Latitude":54.19913,"Longitude":-2.94914}},"Address":{"Label":"Haggs Lane, Grange-over-Sands, LA11 6, United Kingdom","Country":"GBR","State":"England","County":"Cumbria","City":"Grange-over-Sands","District":"Cartmel","Street":"Haggs Lane","PostalCode":"LA11 6","AdditionalData":[{"value":"United Kingdom","key":"CountryName"},{"value":"England","key":"StateName"},{"value":"Cumbria","key":"CountyName"}]},"MapReference":{"ReferenceId":"27517990","Spot":1.0,"SideOfStreet":"left","StateId":"20248595","CountyId":"20339026","CityId":"20346328","DistrictId":"20346333"}}},{"Relevance":1.0,"Distance":77.6,"MatchLevel":"street","MatchQuality":{"Country":1.0,"State":1.0,"County":1.0,"City":1.0,"District":1.0,"PostalCode":1.0},"Location":{"LocationId":"NT_Ra93Y6sGmFgLfcMYXFikqC_l_27517984_R","LocationType":"point","DisplayPosition":{"Latitude":54.19923,"Longitude":-2.94914},"MapView":{"TopLeft":{"Latitude":54.19945,"Longitude":-2.94978},"BottomRight":{"Latitude":54.19923,"Longitude":-2.94914}},"Address":{"Label":"Grange-over-Sands, LA11 6, United Kingdom","Country":"GBR","State":"England","County":"Cumbria","City":"Grange-over-Sands","District":"Cartmel","PostalCode":"LA11 6","AdditionalData":[{"value":"United Kingdom","key":"CountryName"},{"value":"England","key":"StateName"},{"value":"Cumbria","key":"CountyName"}]},"MapReference":{"ReferenceId":"27517984","Spot":0.0,"SideOfStreet":"right","StateId":"20248595","CountyId":"20339026","CityId":"20346328","DistrictId":"20346333"}}},{"Relevance":1.0,"Distance":83.8,"MatchLevel":"postalCode","MatchQuality":{"PostalCode":1.0},"Location":{"LocationId":"NT_PXrjD3EKGKlqD8epqgEF0A_l_27517990_L","LocationType":"point","DisplayPosition":{"Latitude":54.19917,"Longitude":-2.94921},"MapView":{"TopLeft":{"Latitude":54.2081632,"Longitude":-2.9645838},"BottomRight":{"Latitude":54.1901768,"Longitude":-2.9338362}},"Address":{"Label":"LA11 6PJ, Grange-over-Sands, England, United Kingdom","Country":"GBR","State":"England","County":"Cumbria","City":"Grange-over-Sands","PostalCode":"LA11 6PJ","AdditionalData":[{"value":"United Kingdom","key":"CountryName"},{"value":"England","key":"StateName"},{"value":"Cumbria","key":"CountyName"}]},"MapReference":{"ReferenceId":"27517990","Spot":1.0,"SideOfStreet":"neither","StateId":"20248595","CountyId":"20339026","CityId":"20346328"}}}]}]}}