{"Response":{"MetaInfo":{"Timestamp":"2020-03-28T11:00:29.483+0000","NextPageInformation":"2"},"View":[{"_type":"SearchResultsViewType","ViewId":0,"Result":[{"Relevance":1.0,"Distance":-146.8,"MatchLevel":"landmark","MatchQuality":{"Country":1.0,"State":1.0,"County":1.0,"City":1.0,"PostalCode":1.0,"Name":1.0},"Location":{"LocationId":"NT_7BhQ1q7u71TsImDZMUjvGB","LocationType":"island","Name":"Helgoland","DisplayPosition":{"Latitude":54.181,"Longitude":7.88603},"MapView":{"TopLeft":{"Latitude":54.18964,"Longitude":7.86861},"BottomRight":{"Latitude":54.17236,"Longitude":7.89465}},"Address":{"Label":"27498 Helgoland, Deutschland","Country":"DEU","State":"Schleswig-Holstein","County":"Pinneberg","City":"Helgoland","PostalCode":"27498","AdditionalData":[{"value":"Deutschland","key":"CountryName"},{"value":"Schleswig-Holstein","key":"StateName"},{"value":"Pinneberg","key":"CountyName"}]},"MapReference":{"CountryId":"20147700","StateId":"20147701","CountyId":"20149202","CityId":"20149272","PlaceId":"50393604"}}},{"Relevance":1.0,"Distance":-23.3,"MatchLevel":"landmark","MatchQuality":{"Country":1.0,"State":1.0,"County":1.0,"City":1.0,"District":1.0,"Street":[1.0],"HouseNumber":1.0,"PostalCode":1.0,"Name":1.0},"Location":{"LocationId":"NT_ov2jGHufBsBK6VoiqPv78C_p_3OrYLKtA5fmcOsM3g9Y2jD","LocationType":"hospital","Name":"Paracelsus Nordseeklinik Helgoland","DisplayPosition":{"Latitude":54.17894,"Longitude":7.88674},"MapView":{"TopLeft":{"Latitude":54.1800642,"Longitude":7.8848192},"BottomRight":{"Latitude":54.1778158,"Longitude":7.8886608}},"Address":{"Label":"Invasorenpfad 1040, 27498 Helgoland, Deutschland","Country":"DEU","State":"Schleswig-Holstein","County":"Pinneberg","City":"Helgoland","District":"Helgoland","Street":"Invasorenpfad","HouseNumber":"1040","PostalCode":"27498","AdditionalData":[{"value":"Deutschland","key":"CountryName"},{"value":"Schleswig-Holstein","key":"StateName"},{"value":"Pinneberg","key":"CountyName"}]},"MapReference":{"CountryId":"20147700","StateId":"20147701","CountyId":"20149202","CityId":"20149272","DistrictId":"20149274","PlaceId":"58157321"}}},{"Relevance":1.0,"Distance":0.0,"Direction":0.0,"MatchLevel":"city","MatchQuality":{"Country":1.0,"State":1.0,"County":1.0,"City":1.0,"PostalCode":1.0},"Location":{"LocationId":"NT_LQ6kVVksNZNeedq9Y6dA6B","LocationType":"point","DisplayPosition":{"Latitude":54.1786686,"Longitude":7.8867677},"MapView":{"TopLeft":{"Latitude":54.18964,"Longitude":7.86861},"BottomRight":{"Latitude":54.17236,"Longitude":7.91957}},"Address":{"Label":"Helgoland, Schleswig-Holstein, Deutschland","Country":"DEU","State":"Schleswig-Holstein","County":"Pinneberg","City":"Helgoland","PostalCode":"27498","AdditionalData":[{"value":"Deutschland","key":"CountryName"},{"value":"Schleswig-Holstein","key":"StateName"},{"value":"Pinneberg","key":"CountyName"}]},"MapReference":{"ReferenceId":"539188770","SideOfStreet":"neither","CountryId":"20147700","StateId":"20147701","CountyId":"20149202","CityId":"20149272"}}},{"Relevance":1.0,"Distance":16.8,"MatchLevel":"houseNumber","MatchQuality":{"Country":1.0,"State":1.0,"County":1.0,"City":1.0,"District":1.0,"Street":[1.0],"HouseNumber":1.0,"PostalCode":1.0},"MatchType":"interpolated","Location":{"LocationId":"NT_-l2FzX3BoV9IYuTWkoNoZC_xADNwA","LocationType":"point","DisplayPosition":{"Latitude":54.1789,"Longitude":7.88679},"MapView":{"TopLeft":{"Latitude":54.1800242,"Longitude":7.8848692},"BottomRight":{"Latitude":54.1777758,"Longitude":7.8887108}},"Address":{"Label":"Invasorenpfad 1040, 27498 Helgoland, Deutschland","Country":"DEU","State":"Schleswig-Holstein","County":"Pinneberg","City":"Helgoland","District":"Helgoland","Street":"Invasorenpfad","HouseNumber":"1040","PostalCode":"27498","AdditionalData":[{"value":"Deutschland","key":"CountryName"},{"value":"Schleswig-Holstein","key":"StateName"},{"value":"Pinneberg","key":"CountyName"}]},"MapReference":{"ReferenceId":"704222582","Spot":0.79,"SideOfStreet":"left","CountryId":"20147700","StateId":"20147701","CountyId":"20149202","CityId":"20149272","DistrictId":"20149274","AddressId":"249100933","RoadLinkId":"94825731"}}},{"Relevance":1.0,"Distance":56.9,"MatchLevel":"houseNumber","MatchQuality":{"Country":1.0,"State":1.0,"County":1.0,"City":1.0,"District":1.0,"Street":[1.0],"HouseNumber":1.0,"PostalCode":1.0},"MatchType":"interpolated","Location":{"LocationId":"NT_-l2FzX3BoV9IYuTWkoNoZC_l_762113224_L_xQDM","LocationType":"point","DisplayPosition":{"Latitude":54.1792201,"Longitude":7.8863937},"MapView":{"TopLeft":{"Latitude":54.1803443,"Longitude":7.8844729},"BottomRight":{"Latitude":54.178096,"Longitude":7.8883145}},"Address":{"Label":"Invasorenpfad 140, 27498 Helgoland, Deutschland","Country":"DEU","State":"Schleswig-Holstein","County":"Pinneberg","City":"Helgoland","District":"Helgoland","Street":"Invasorenpfad","HouseNumber":"140","PostalCode":"27498","AdditionalData":[{"value":"Deutschland","key":"CountryName"},{"value":"Schleswig-Holstein","key":"StateName"},{"value":"Pinneberg","key":"CountyName"}]},"MapReference":{"ReferenceId":"762113224","Spot":0.52,"SideOfStreet":"left","CountryId":"20147700","StateId":"20147701","CountyId":"20149202","CityId":"20149272","DistrictId":"20149274"}}},{"Relevance":1.0,"Distance":69.0,"MatchLevel":"houseNumber","MatchQuality":{"Country":1.0,"State":1.0,"County":1.0,"City":1.0,"District":1.0,"Street":[1.0],"HouseNumber":1.0,"PostalCode":1.0},"MatchType":"interpolated","Location":{"LocationId":"NT_L.0tmo.2jU8aZlC.mYRg8A_xAjN1A","LocationType":"point","DisplayPosition":{"Latitude":54.17831,"Longitude":7.88815},"MapView":{"TopLeft":{"Latitude":54.1794342,"Longitude":7.8862292},"BottomRight":{"Latitude":54.1771858,"Longitude":7.8900708}},"Address":{"Label":"Hafenstraße 1065, 27498 Helgoland, Deutschland","Country":"DEU","State":"Schleswig-Holstein","County":"Pinneberg","City":"Helgoland","District":"Helgoland","Street":"Hafenstraße","HouseNumber":"1065","PostalCode":"27498","AdditionalData":[{"value":"Deutschland","key":"CountryName"},{"value":"Schleswig-Holstein","key":"StateName"},{"value":"Pinneberg","key":"CountyName"}]},"MapReference":{"ReferenceId":"539189019","Spot":0.45,"SideOfStreet":"left","CountryId":"20147700","StateId":"20147701","CountyId":"20149202","CityId":"20149272","DistrictId":"20149274","AddressId":"196744658","RoadLinkId":"37279800"}}},{"Relevance":1.0,"Distance":80.6,"MatchLevel":"street","MatchQuality":{"Country":1.0,"State":1.0,"County":1.0,"City":1.0,"District":1.0,"Street":[1.0],"PostalCode":1.0},"Location":{"LocationId":"NT_JMP5J0e50IhKC.4e6cOegC_l_744047057_R","LocationType":"point","DisplayPosition":{"Latitude":54.17933,"Longitude":7.88626},"MapView":{"TopLeft":{"Latitude":54.17988,"Longitude":7.88626},"BottomRight":{"Latitude":54.17933,"Longitude":7.88648}},"Address":{"Label":"Kütt-Wai, 27498 Helgoland, Deutschland","Country":"DEU","State":"Schleswig-Holstein","County":"Pinneberg","City":"Helgoland","District":"Helgoland","Street":"Kütt-Wai","PostalCode":"27498","AdditionalData":[{"value":"Deutschland","key":"CountryName"},{"value":"Schleswig-Holstein","key":"StateName"},{"value":"Pinneberg","key":"CountyName"}]},"MapReference":{"ReferenceId":"744047057","Spot":0.0,"SideOfStreet":"right","CountryId":"20147700","StateId":"20147701","CountyId":"20149202","CityId":"20149272","DistrictId":"20149274"}}},{"Relevance":1.0,"Distance":80.6,"MatchLevel":"street","MatchQuality":{"Country":1.0,"State":1.0,"County":1.0,"City":1.0,"District":1.0,"Street":[1.0],"PostalCode":1.0},"Location":{"LocationId":"NT_-l2FzX3BoV9IYuTWkoNoZC_l_762113225_L","LocationType":"point","DisplayPosition":{"Latitude":54.17933,"Longitude":7.88626},"MapView":{"TopLeft":{"Latitude":54.17975,"Longitude":7.88618},"BottomRight":{"Latitude":54.17933,"Longitude":7.88626}},"Address":{"Label":"Invasorenpfad, 27498 Helgoland, Deutschland","Country":"DEU","State":"Schleswig-Holstein","County":"Pinneberg","City":"Helgoland","District":"Helgoland","Street":"Invasorenpfad","PostalCode":"27498","AdditionalData":[{"value":"Deutschland","key":"CountryName"},{"value":"Schleswig-Holstein","key":"StateName"},{"value":"Pinneberg","key":"CountyName"}]},"MapReference":{"ReferenceId":"762113225","Spot":0.0,"SideOfStreet":"left","CountryId":"20147700","StateId":"20147701","CountyId":"20149202","CityId":"20149272","DistrictId":"20149274"}}},{"Relevance":1.0,"Distance":82.0,"MatchLevel":"houseNumber","MatchQuality":{"Country":1.0,"State":1.0,"County":1.0,"City":1.0,"District":1.0,"Street":[1.0],"HouseNumber":1.0,"PostalCode":1.0},"MatchType":"interpolated","Location":{"LocationId":"NT_L.0tmo.2jU8aZlC.mYRg8A_xATM0A","LocationType":"point","DisplayPosition":{"Latitude":54.1789,"Longitude":7.88807},"MapView":{"TopLeft":{"Latitude":54.1800242,"Longitude":7.8861492},"BottomRight":{"Latitude":54.1777758,"Longitude":7.8899908}},"Address":{"Label":"Hafenstraße 1014, 27498 Helgoland, Deutschland","Country":"DEU","State":"Schleswig-Holstein","County":"Pinneberg","City":"Helgoland","District":"Helgoland","Street":"Hafenstraße","HouseNumber":"1014","PostalCode":"27498","AdditionalData":[{"value":"Deutschland","key":"CountryName"},{"value":"Schleswig-Holstein","key":"StateName"},{"value":"Pinneberg","key":"CountyName"}]},"MapReference":{"ReferenceId":"554752832","Spot":0.16,"SideOfStreet":"left","CountryId":"20147700","StateId":"20147701","CountyId":"20149202","CityId":"20149272","DistrictId":"20149274","AddressId":"196554399","RoadLinkId":"36838460"}}},{"Relevance":1.0,"Distance":117.8,"MatchLevel":"houseNumber","MatchQuality":{"Country":1.0,"State":1.0,"County":1.0,"City":1.0,"Street":[1.0],"HouseNumber":1.0,"PostalCode":1.0},"MatchType":"interpolated","Location":{"LocationId":"NT_XJG9p5mbPDA8xkyn-WL90D_xQTO3A","LocationType":"point","DisplayPosition":{"Latitude":54.17753,"Longitude":7.88578},"MapView":{"TopLeft":{"Latitude":54.1786542,"Longitude":7.8838593},"BottomRight":{"Latitude":54.1764058,"Longitude":7.8877007}},"Address":{"Label":"Am Wassersturzbecken 1497, 27498 Helgoland, Deutschland","Country":"DEU","State":"Schleswig-Holstein","County":"Pinneberg","City":"Helgoland","Street":"Am Wassersturzbecken","HouseNumber":"1497","PostalCode":"27498","AdditionalData":[{"value":"Deutschland","key":"CountryName"},{"value":"Schleswig-Holstein","key":"StateName"},{"value":"Pinneberg","key":"CountyName"}]},"MapReference":{"ReferenceId":"927524293","Spot":1.0,"SideOfStreet":"right","CountryId":"20147700","StateId":"20147701","CountyId":"20149202","CityId":"20149272","AddressId":"364913119","RoadLinkId":"282927957"}}}]}]}}