{"Response":{"MetaInfo":{"Timestamp":"2020-03-28T10:41:15.198+0000","NextPageInformation":"2"},"View":[{"_type":"SearchResultsViewType","ViewId":0,"Result":[{"Relevance":1.0,"Distance":-1058.0,"MatchLevel":"landmark","MatchQuality":{"Country":1.0,"Name":1.0},"Location":{"LocationId":"NT_cmCimu-6VQBcDqSe9cTXsC","LocationType":"island","Name":"Isle of Man","DisplayPosition":{"Latitude":54.23581,"Longitude":-4.51481},"MapView":{"TopLeft":{"Latitude":54.41819,"Longitude":-4.7944},"BottomRight":{"Latitude":54.05342,"Longitude":-4.30771}},"Address":{"Label":"Isle of Man","Country":"IMN","AdditionalData":[{"value":"Isle of Man","key":"CountryName"}]},"MapReference":{"CountryId":"20486695","PlaceId":"546442586"}}},{"Relevance":1.0,"Distance":0.0,"Direction":0.0,"MatchLevel":"district","MatchQuality":{"Country":1.0,"City":1.0,"District":1.0,"PostalCode":1.0},"Location":{"LocationId":"NT_Uu3rHQCV5AiauAJ4siZIiA","LocationType":"point","DisplayPosition":{"Latitude":54.1761038,"Longitude":-4.4557411},"MapView":{"TopLeft":{"Latitude":54.18489,"Longitude":-4.47462},"BottomRight":{"Latitude":54.16557,"Longitude":-4.43151}},"Address":{"Label":"Onchan, Isle of Man","Country":"IMN","City":"Onchan","District":"Onchan","PostalCode":"IM3 1","AdditionalData":[{"value":"Isle of Man","key":"CountryName"}]},"MapReference":{"ReferenceId":"792859670","SideOfStreet":"neither","CountryId":"20486695","CityId":"20486725","DistrictId":"20486778"}}},{"Relevance":1.0,"Distance":41.8,"MatchLevel":"houseNumber","MatchQuality":{"Country":1.0,"City":1.0,"District":1.0,"Street":[1.0],"HouseNumber":1.0,"PostalCode":1.0},"MatchType":"interpolated","Location":{"LocationId":"NT_HGf2D5eGxXnGf9.X2yR2gA_l_565926584_L_zgD","LocationType":"point","DisplayPosition":{"Latitude":54.1762702,"Longitude":-4.4549217},"MapView":{"TopLeft":{"Latitude":54.1773944,"Longitude":-4.4568423},"BottomRight":{"Latitude":54.1751461,"Longitude":-4.453001}},"Address":{"Label":"38, Nursery Avenue, Onchan, IM3 4, Isle of Man","Country":"IMN","City":"Onchan","District":"Onchan","Street":"Nursery Avenue","HouseNumber":"38","PostalCode":"IM3 4","AdditionalData":[{"value":"Isle of Man","key":"CountryName"}]},"MapReference":{"ReferenceId":"565926584","Spot":0.19,"SideOfStreet":"left","CountryId":"20486695","CityId":"20486725","DistrictId":"20486778"}}},{"Relevance":1.0,"Distance":61.3,"MatchLevel":"street","MatchQuality":{"Country":1.0,"City":1.0,"District":1.0,"Street":[1.0],"PostalCode":1.0},"Location":{"LocationId":"NT_6-Y9jdPRZEKKHPQjw9pA7D_l_565926593_L","LocationType":"point","DisplayPosition":{"Latitude":54.1757,"Longitude":-4.4551},"MapView":{"TopLeft":{"Latitude":54.17596,"Longitude":-4.4551},"BottomRight":{"Latitude":54.1757,"Longitude":-4.45452}},"Address":{"Label":"Stoney Road, Onchan, IM3 4, Isle of Man","Country":"IMN","City":"Onchan","District":"Onchan","Street":"Stoney Road","PostalCode":"IM3 4","AdditionalData":[{"value":"Isle of Man","key":"CountryName"}]},"MapReference":{"ReferenceId":"565926593","Spot":0.0,"SideOfStreet":"left","CountryId":"20486695","CityId":"20486725","DistrictId":"20486778"}}},{"Relevance":1.0,"Distance":67.5,"MatchLevel":"street","MatchQuality":{"Country":1.0,"City":1.0,"District":1.0,"Street":[1.0],"PostalCode":1.0},"Location":{"LocationId":"NT_6-Y9jdPRZEKKHPQjw9pA7D_l_565926592_L","LocationType":"point","DisplayPosition":{"Latitude":54.1755234,"Longitude":-4.4554361},"MapView":{"TopLeft":{"Latitude":54.1757,"Longitude":-4.45569},"BottomRight":{"Latitude":54.17539,"Longitude":-4.4551}},"Address":{"Label":"Stoney Road, Onchan, IM3 4, Isle of Man","Country":"IMN","City":"Onchan","District":"Onchan","Street":"Stoney Road","PostalCode":"IM3 4","AdditionalData":[{"value":"Isle of Man","key":"CountryName"}]},"MapReference":{"ReferenceId":"565926592","Spot":0.43,"SideOfStreet":"left","CountryId":"20486695","CityId":"20486725","DistrictId":"20486778"}}},{"Relevance":1.0,"Distance":79.4,"MatchLevel":"street","MatchQuality":{"Country":1.0,"City":1.0,"District":1.0,"Street":[1.0],"PostalCode":1.0},"Location":{"LocationId":"NT_6-Y9jdPRZEKKHPQjw9pA7D_l_565926587_L","LocationType":"point","DisplayPosition":{"Latitude":54.17539,"Longitude":-4.45569},"MapView":{"TopLeft":{"Latitude":54.17539,"Longitude":-4.45638},"BottomRight":{"Latitude":54.17502,"Longitude":-4.45569}},"Address":{"Label":"Stoney Road, Onchan, IM3 4, Isle of Man","Country":"IMN","City":"Onchan","District":"Onchan","Street":"Stoney Road","PostalCode":"IM3 4","AdditionalData":[{"value":"Isle of Man","key":"CountryName"}]},"MapReference":{"ReferenceId":"565926587","Spot":1.0,"SideOfStreet":"left","CountryId":"20486695","CityId":"20486725","DistrictId":"20486778"}}},{"Relevance":1.0,"Distance":82.0,"MatchLevel":"houseNumber","MatchQuality":{"Country":1.0,"City":1.0,"District":1.0,"Street":[1.0],"HouseNumber":1.0,"PostalCode":1.0},"MatchType":"interpolated","Location":{"LocationId":"NT_p3ykeFYWYVAC-R7rKR06jA_l_565926594_L_yQD","LocationType":"point","DisplayPosition":{"Latitude":54.1755592,"Longitude":-4.4548925},"MapView":{"TopLeft":{"Latitude":54.1766833,"Longitude":-4.4568131},"BottomRight":{"Latitude":54.174435,"Longitude":-4.4529719}},"Address":{"Label":"24, Church Avenue, Onchan, IM3 4, Isle of Man","Country":"IMN","City":"Onchan","District":"Onchan","Street":"Church Avenue","HouseNumber":"24","PostalCode":"IM3 4","AdditionalData":[{"value":"Isle of Man","key":"CountryName"}]},"MapReference":{"ReferenceId":"565926594","Spot":0.76,"SideOfStreet":"left","CountryId":"20486695","CityId":"20486725","DistrictId":"20486778"}}},{"Relevance":1.0,"Distance":84.5,"MatchLevel":"houseNumber","MatchQuality":{"Country":1.0,"City":1.0,"District":1.0,"Street":[1.0],"HouseNumber":1.0,"PostalCode":1.0},"MatchType":"interpolated","Location":{"LocationId":"NT_SD4o7GXDfVu7ILeoTeKtxD_l_565926589_R_yAD","LocationType":"point","DisplayPosition":{"Latitude":54.175246,"Longitude":-4.45548},"MapView":{"TopLeft":{"Latitude":54.1763702,"Longitude":-4.4574006},"BottomRight":{"Latitude":54.1741219,"Longitude":-4.4535594}},"Address":{"Label":"20, Elm Drive, Onchan, IM3 4, Isle of Man","Country":"IMN","City":"Onchan","District":"Onchan","Street":"Elm Drive","HouseNumber":"20","PostalCode":"IM3 4","AdditionalData":[{"value":"Isle of Man","key":"CountryName"}]},"MapReference":{"ReferenceId":"565926589","Spot":0.74,"SideOfStreet":"right","CountryId":"20486695","CityId":"20486725","DistrictId":"20486778"}}},{"Relevance":1.0,"Distance":96.3,"MatchLevel":"houseNumber","MatchQuality":{"Country":1.0,"City":1.0,"District":1.0,"Street":[1.0],"HouseNumber":1.0,"PostalCode":1.0},"MatchType":"interpolated","Location":{"LocationId":"NT_yLOaNez3IUZHwXvK5SBRtB_l_792360090_R_yA","LocationType":"point","DisplayPosition":{"Latitude":54.17537,"Longitude":-4.45687},"MapView":{"TopLeft":{"Latitude":54.1764942,"Longitude":-4.4587906},"BottomRight":{"Latitude":54.1742459,"Longitude":-4.4549494}},"Address":{"Label":"2, Avondale Road, Onchan, IM3 1, Isle of Man","Country":"IMN","City":"Onchan","District":"Onchan","Street":"Avondale Road","HouseNumber":"2","PostalCode":"IM3 1","AdditionalData":[{"value":"Isle of Man","key":"CountryName"}]},"MapReference":{"ReferenceId":"792360090","Spot":0.18,"SideOfStreet":"right","CountryId":"20486695","CityId":"20486725","DistrictId":"20486778"}}},{"Relevance":1.0,"Distance":96.4,"MatchLevel":"houseNumber","MatchQuality":{"Country":1.0,"City":1.0,"District":1.0,"Street":[1.0],"HouseNumber":1.0,"PostalCode":1.0},"MatchType":"interpolated","Location":{"LocationId":"NT_HGf2D5eGxXnGf9.X2yR2gA_l_565926586_L_zAD","LocationType":"point","DisplayPosition":{"Latitude":54.1758267,"Longitude":-4.454338},"MapView":{"TopLeft":{"Latitude":54.1769508,"Longitude":-4.4562587},"BottomRight":{"Latitude":54.1747025,"Longitude":-4.4524174}},"Address":{"Label":"30, Nursery Avenue, Onchan, IM3 4, Isle of Man","Country":"IMN","City":"Onchan","District":"Onchan","Street":"Nursery Avenue","HouseNumber":"30","PostalCode":"IM3 4","AdditionalData":[{"value":"Isle of Man","key":"CountryName"}]},"MapReference":{"ReferenceId":"565926586","Spot":0.76,"SideOfStreet":"left","CountryId":"20486695","CityId":"20486725","DistrictId":"20486778"}}}]}]}}