{"Response":{"MetaInfo":{"Timestamp":"2020-03-28T10:35:22.310+0000","NextPageInformation":"2"},"View":[{"_type":"SearchResultsViewType","ViewId":0,"Result":[{"Relevance":1.0,"Distance":0.0,"Direction":0.0,"MatchLevel":"district","MatchQuality":{"Country":1.0,"State":1.0,"County":1.0,"City":1.0,"District":1.0,"PostalCode":1.0},"Location":{"LocationId":"NT_RMkMyX7o.gl50JWACJCfqD","LocationType":"point","DisplayPosition":{"Latitude":54.1231925,"Longitude":-1.3301604},"MapView":{"TopLeft":{"Latitude":54.1286,"Longitude":-1.33629},"BottomRight":{"Latitude":54.12023,"Longitude":-1.32517}},"Address":{"Label":"Brafferton, York, England, United Kingdom","Country":"GBR","State":"England","County":"North Yorkshire","City":"York","District":"Brafferton","PostalCode":"YO61 2","AdditionalData":[{"value":"United Kingdom","key":"CountryName"},{"value":"England","key":"StateName"},{"value":"North Yorkshire","key":"CountyName"}]},"MapReference":{"ReferenceId":"762675185","SideOfStreet":"neither","StateId":"20248595","CountyId":"20346756","CityId":"20347419","DistrictId":"20347445"}}},{"Relevance":1.0,"Distance":9.3,"MatchLevel":"street","MatchQuality":{"Country":1.0,"State":1.0,"County":1.0,"City":1.0,"District":1.0,"Street":[1.0],"PostalCode":1.0},"Location":{"LocationId":"NT_7-7voa0QVSXQ90NbDG6LmD_l_26940170_L","LocationType":"point","DisplayPosition":{"Latitude":54.1231103,"Longitude":-1.3301357},"MapView":{"TopLeft":{"Latitude":54.12324,"Longitude":-1.33078},"BottomRight":{"Latitude":54.12297,"Longitude":-1.32988}},"Address":{"Label":"Dunroyal, York, YO61 2, United Kingdom","Country":"GBR","State":"England","County":"North Yorkshire","City":"York","District":"Helperby","Street":"Dunroyal","PostalCode":"YO61 2","AdditionalData":[{"value":"United Kingdom","key":"CountryName"},{"value":"England","key":"StateName"},{"value":"North Yorkshire","key":"CountyName"}]},"MapReference":{"ReferenceId":"26940170","Spot":0.7,"SideOfStreet":"left","StateId":"20248595","CountyId":"20346756","CityId":"20347419","DistrictId":"20347499"}}},{"Relevance":1.0,"Distance":19.0,"MatchLevel":"street","MatchQuality":{"Country":1.0,"State":1.0,"County":1.0,"City":1.0,"District":1.0,"Street":[1.0],"PostalCode":1.0},"Location":{"LocationId":"NT_qDc0abfPNo8nohs-1nFWvA_l_837665449_L","LocationType":"point","DisplayPosition":{"Latitude":54.12324,"Longitude":-1.32988},"MapView":{"TopLeft":{"Latitude":54.12324,"Longitude":-1.32988},"BottomRight":{"Latitude":54.12307,"Longitude":-1.3296}},"Address":{"Label":"Main Street, York, YO61 2, United Kingdom","Country":"GBR","State":"England","County":"North Yorkshire","City":"York","District":"Helperby","Street":"Main Street","PostalCode":"YO61 2","AdditionalData":[{"value":"United Kingdom","key":"CountryName"},{"value":"England","key":"StateName"},{"value":"North Yorkshire","key":"CountyName"}]},"MapReference":{"ReferenceId":"837665449","Spot":1.0,"SideOfStreet":"left","StateId":"20248595","CountyId":"20346756","CityId":"20347419","DistrictId":"20347499"}}},{"Relevance":1.0,"Distance":19.9,"MatchLevel":"street","MatchQuality":{"Country":1.0,"State":1.0,"County":1.0,"City":1.0,"District":1.0,"Street":[1.0],"PostalCode":1.0},"Location":{"LocationId":"NT_JbdufQ8kkKN2-sbOx5R.YB_l_998977704_L","LocationType":"point","DisplayPosition":{"Latitude":54.1233572,"Longitude":-1.330039},"MapView":{"TopLeft":{"Latitude":54.12365,"Longitude":-1.3304},"BottomRight":{"Latitude":54.12324,"Longitude":-1.32988}},"Address":{"Label":"Main Street, York, YO61 2, United Kingdom","Country":"GBR","State":"England","County":"North Yorkshire","City":"York","District":"Brafferton","Street":"Main Street","PostalCode":"YO61 2","AdditionalData":[{"value":"United Kingdom","key":"CountryName"},{"value":"England","key":"StateName"},{"value":"North Yorkshire","key":"CountyName"}]},"MapReference":{"ReferenceId":"998977704","Spot":0.3,"SideOfStreet":"left","StateId":"20248595","CountyId":"20346756","CityId":"20347419","DistrictId":"20347445"}}},{"Relevance":1.0,"Distance":39.0,"MatchLevel":"street","MatchQuality":{"Country":1.0,"State":1.0,"County":1.0,"City":1.0,"District":1.0,"Street":[1.0],"PostalCode":1.0},"Location":{"LocationId":"NT_qDc0abfPNo8nohs-1nFWvA_l_837665448_L","LocationType":"point","DisplayPosition":{"Latitude":54.12307,"Longitude":-1.3296},"MapView":{"TopLeft":{"Latitude":54.12307,"Longitude":-1.3296},"BottomRight":{"Latitude":54.12228,"Longitude":-1.32851}},"Address":{"Label":"Main Street, York, YO61 2, United Kingdom","Country":"GBR","State":"England","County":"North Yorkshire","City":"York","District":"Helperby","Street":"Main Street","PostalCode":"YO61 2","AdditionalData":[{"value":"United Kingdom","key":"CountryName"},{"value":"England","key":"StateName"},{"value":"North Yorkshire","key":"CountyName"}]},"MapReference":{"ReferenceId":"837665448","Spot":1.0,"SideOfStreet":"left","StateId":"20248595","CountyId":"20346756","CityId":"20347419","DistrictId":"20347499"}}},{"Relevance":1.0,"Distance":39.0,"MatchLevel":"street","MatchQuality":{"Country":1.0,"State":1.0,"County":1.0,"City":1.0,"District":1.0,"Street":[1.0],"PostalCode":1.0},"Location":{"LocationId":"NT_t.Z9ATvFT-PmOqwRF.qqIC_l_837665450_L","LocationType":"point","DisplayPosition":{"Latitude":54.12307,"Longitude":-1.3296},"MapView":{"TopLeft":{"Latitude":54.12343,"Longitude":-1.3296},"BottomRight":{"Latitude":54.12307,"Longitude":-1.3287}},"Address":{"Label":"Drury Lane, York, YO61 2, United Kingdom","Country":"GBR","State":"England","County":"North Yorkshire","City":"York","District":"Helperby","Street":"Drury Lane","PostalCode":"YO61 2","AdditionalData":[{"value":"United Kingdom","key":"CountryName"},{"value":"England","key":"StateName"},{"value":"North Yorkshire","key":"CountyName"}]},"MapReference":{"ReferenceId":"837665450","Spot":0.0,"SideOfStreet":"left","StateId":"20248595","CountyId":"20346756","CityId":"20347419","DistrictId":"20347499"}}},{"Relevance":1.0,"Distance":47.4,"MatchLevel":"street","MatchQuality":{"Country":1.0,"State":1.0,"County":1.0,"City":1.0,"District":1.0,"Street":[1.0],"PostalCode":1.0},"Location":{"LocationId":"NT_7-7voa0QVSXQ90NbDG6LmD_l_26940182_L","LocationType":"point","DisplayPosition":{"Latitude":54.12297,"Longitude":-1.33078},"MapView":{"TopLeft":{"Latitude":54.12297,"Longitude":-1.33179},"BottomRight":{"Latitude":54.12277,"Longitude":-1.33078}},"Address":{"Label":"Dunroyal, York, YO61 2, United Kingdom","Country":"GBR","State":"England","County":"North Yorkshire","City":"York","District":"Helperby","Street":"Dunroyal","PostalCode":"YO61 2","AdditionalData":[{"value":"United Kingdom","key":"CountryName"},{"value":"England","key":"StateName"},{"value":"North Yorkshire","key":"CountyName"}]},"MapReference":{"ReferenceId":"26940182","Spot":1.0,"SideOfStreet":"left","StateId":"20248595","CountyId":"20346756","CityId":"20347419","DistrictId":"20347499"}}},{"Relevance":1.0,"Distance":49.1,"MatchLevel":"postalCode","MatchQuality":{"PostalCode":1.0},"Location":{"LocationId":"NT_qDc0abfPNo8nohs-1nFWvA_l_837665448_L","LocationType":"point","DisplayPosition":{"Latitude":54.12296,"Longitude":-1.32952},"MapView":{"TopLeft":{"Latitude":54.1319532,"Longitude":-1.3448655},"BottomRight":{"Latitude":54.1139668,"Longitude":-1.3141745}},"Address":{"Label":"YO61 2PR, York, England, United Kingdom","Country":"GBR","State":"England","County":"North Yorkshire","City":"York","PostalCode":"YO61 2PR","AdditionalData":[{"value":"United Kingdom","key":"CountryName"},{"value":"England","key":"StateName"},{"value":"North Yorkshire","key":"CountyName"}]},"MapReference":{"ReferenceId":"837665448","Spot":1.0,"SideOfStreet":"neither","StateId":"20248595","CountyId":"20346756","CityId":"20347419"}}},{"Relevance":1.0,"Distance":53.2,"MatchLevel":"street","MatchQuality":{"Country":1.0,"State":1.0,"County":1.0,"City":1.0,"District":1.0,"Street":[1.0],"PostalCode":1.0},"Location":{"LocationId":"NT_JbdufQ8kkKN2-sbOx5R.YB_l_998977705_L","LocationType":"point","DisplayPosition":{"Latitude":54.12365,"Longitude":-1.3304},"MapView":{"TopLeft":{"Latitude":54.12462,"Longitude":-1.33129},"BottomRight":{"Latitude":54.12365,"Longitude":-1.3304}},"Address":{"Label":"Main Street, York, YO61 2, United Kingdom","Country":"GBR","State":"England","County":"North Yorkshire","City":"York","District":"Brafferton","Street":"Main Street","PostalCode":"YO61 2","AdditionalData":[{"value":"United Kingdom","key":"CountryName"},{"value":"England","key":"StateName"},{"value":"North Yorkshire","key":"CountyName"}]},"MapReference":{"ReferenceId":"998977705","Spot":0.0,"SideOfStreet":"left","StateId":"20248595","CountyId":"20346756","CityId":"20347419","DistrictId":"20347445"}}},{"Relevance":1.0,"Distance":54.1,"MatchLevel":"street","MatchQuality":{"Country":1.0,"State":1.0,"County":1.0,"City":1.0,"District":1.0,"Street":[1.0],"PostalCode":1.0},"Location":{"LocationId":"NT_EO7VEd33P0UbMu07wtNIeD_l_26940190_R","LocationType":"point","DisplayPosition":{"Latitude":54.1227826,"Longitude":-1.3306087},"MapView":{"TopLeft":{"Latitude":54.12297,"Longitude":-1.33078},"BottomRight":{"Latitude":54.12262,"Longitude":-1.33046}},"Address":{"Label":"Dunroyal Close, York, YO61 2, United Kingdom","Country":"GBR","State":"England","County":"North Yorkshire","City":"York","District":"Helperby","Street":"Dunroyal Close","PostalCode":"YO61 2","AdditionalData":[{"value":"United Kingdom","key":"CountryName"},{"value":"England","key":"StateName"},{"value":"North Yorkshire","key":"CountyName"}]},"MapReference":{"ReferenceId":"26940190","Spot":0.46,"SideOfStreet":"right","StateId":"20248595","CountyId":"20346756","CityId":"20347419","DistrictId":"20347499"}}}]}]}}