{"Response":{"MetaInfo":{"Timestamp":"2020-03-28T10:46:47.108+0000","NextPageInformation":"2"},"View":[{"_type":"SearchResultsViewType","ViewId":0,"Result":[{"Relevance":1.0,"Distance":0.0,"Direction":0.0,"MatchLevel":"district","MatchQuality":{"Country":1.0,"State":1.0,"County":1.0,"City":1.0,"District":1.0,"PostalCode":1.0},"Location":{"LocationId":"NT_aMe0LfaBO8rYUTx4TKU9UA","LocationType":"point","DisplayPosition":{"Latitude":54.1890886,"Longitude":19.42579},"MapView":{"TopLeft":{"Latitude":54.22666,"Longitude":19.35887},"BottomRight":{"Latitude":54.1346,"Longitude":19.48097}},"Address":{"Label":"Elbląg, Woj. Warmińsko-Mazurskie, Polska","Country":"POL","State":"Woj. Warmińsko-Mazurskie","County":"Elbląg","City":"Elbląg","District":"Elbląg","PostalCode":"82-300","AdditionalData":[{"value":"Polska","key":"CountryName"},{"value":"Woj. Warmińsko-Mazurskie","key":"StateName"},{"value":"Elbląg","key":"CountyName"}]},"MapReference":{"ReferenceId":"917399216","SideOfStreet":"neither","CountryId":"20624059","StateId":"20629651","CountyId":"20629652","CityId":"20629653","DistrictId":"20646648"}}},{"Relevance":1.0,"Distance":26.4,"MatchLevel":"houseNumber","MatchQuality":{"Country":1.0,"State":1.0,"County":1.0,"City":1.0,"District":1.0,"Street":[1.0],"HouseNumber":1.0,"PostalCode":1.0},"MatchType":"interpolated","Location":{"LocationId":"NT_-joAIsE3c-EdNJCezy24kC_5A","LocationType":"point","DisplayPosition":{"Latitude":54.18884,"Longitude":19.4253},"MapView":{"TopLeft":{"Latitude":54.1899642,"Longitude":19.4233788},"BottomRight":{"Latitude":54.1877158,"Longitude":19.4272212}},"Address":{"Label":"ulica Jana Myliusa 9, 82-300 Elbląg, Polska","Country":"POL","State":"Woj. Warmińsko-Mazurskie","County":"Elbląg","City":"Elbląg","District":"Elbląg","Street":"ulica Jana Myliusa","HouseNumber":"9","PostalCode":"82-300","AdditionalData":[{"value":"Polska","key":"CountryName"},{"value":"Woj. Warmińsko-Mazurskie","key":"StateName"},{"value":"Elbląg","key":"CountyName"}]},"MapReference":{"ReferenceId":"743620752","Spot":0.5,"SideOfStreet":"right","CountryId":"20624059","StateId":"20629651","CountyId":"20629652","CityId":"20629653","DistrictId":"20646648","AddressId":"211455498","RoadLinkId":"141735274"}}},{"Relevance":1.0,"Distance":38.0,"MatchLevel":"houseNumber","MatchQuality":{"Country":1.0,"State":1.0,"County":1.0,"City":1.0,"District":1.0,"Street":[1.0],"HouseNumber":1.0,"PostalCode":1.0},"MatchType":"interpolated","Location":{"LocationId":"NT_-joAIsE3c-EdNJCezy24kC_1A","LocationType":"point","DisplayPosition":{"Latitude":54.18955,"Longitude":19.42577},"MapView":{"TopLeft":{"Latitude":54.1906742,"Longitude":19.4238487},"BottomRight":{"Latitude":54.1884258,"Longitude":19.4276913}},"Address":{"Label":"ulica Jana Myliusa 5, 82-300 Elbląg, Polska","Country":"POL","State":"Woj. Warmińsko-Mazurskie","County":"Elbląg","City":"Elbląg","District":"Elbląg","Street":"ulica Jana Myliusa","HouseNumber":"5","PostalCode":"82-300","AdditionalData":[{"value":"Polska","key":"CountryName"},{"value":"Woj. Warmińsko-Mazurskie","key":"StateName"},{"value":"Elbląg","key":"CountyName"}]},"MapReference":{"ReferenceId":"1131409634","Spot":0.22,"SideOfStreet":"left","CountryId":"20624059","StateId":"20629651","CountyId":"20629652","CityId":"20629653","DistrictId":"20646648","AddressId":"210672977","RoadLinkId":"441402119"}}},{"Relevance":1.0,"Distance":40.0,"MatchLevel":"street","MatchQuality":{"Country":1.0,"State":1.0,"County":1.0,"City":1.0,"District":1.0,"Street":[1.0],"PostalCode":1.0},"Location":{"LocationId":"NT_-joAIsE3c-EdNJCezy24kC_l_1131409633_L","LocationType":"point","DisplayPosition":{"Latitude":54.18942,"Longitude":19.42603},"MapView":{"TopLeft":{"Latitude":54.18945,"Longitude":19.426},"BottomRight":{"Latitude":54.18939,"Longitude":19.42608}},"Address":{"Label":"ulica Jana Myliusa, 82-300 Elbląg, Polska","Country":"POL","State":"Woj. Warmińsko-Mazurskie","County":"Elbląg","City":"Elbląg","District":"Elbląg","Street":"ulica Jana Myliusa","PostalCode":"82-300","AdditionalData":[{"value":"Polska","key":"CountryName"},{"value":"Woj. Warmińsko-Mazurskie","key":"StateName"},{"value":"Elbląg","key":"CountyName"}]},"MapReference":{"ReferenceId":"1131409633","Spot":0.58,"SideOfStreet":"left","CountryId":"20624059","StateId":"20629651","CountyId":"20629652","CityId":"20629653","DistrictId":"20646648"}}},{"Relevance":1.0,"Distance":44.2,"MatchLevel":"houseNumber","MatchQuality":{"Country":1.0,"State":1.0,"County":1.0,"City":1.0,"District":1.0,"Street":[1.0],"HouseNumber":1.0,"PostalCode":1.0},"MatchType":"interpolated","Location":{"LocationId":"NT_-joAIsE3c-EdNJCezy24kC_xAD","LocationType":"point","DisplayPosition":{"Latitude":54.18939,"Longitude":19.42641},"MapView":{"TopLeft":{"Latitude":54.1905142,"Longitude":19.4244887},"BottomRight":{"Latitude":54.1882658,"Longitude":19.4283313}},"Address":{"Label":"ulica Jana Myliusa 10, 82-300 Elbląg, Polska","Country":"POL","State":"Woj. Warmińsko-Mazurskie","County":"Elbląg","City":"Elbląg","District":"Elbląg","Street":"ulica Jana Myliusa","HouseNumber":"10","PostalCode":"82-300","AdditionalData":[{"value":"Polska","key":"CountryName"},{"value":"Woj. Warmińsko-Mazurskie","key":"StateName"},{"value":"Elbląg","key":"CountyName"}]},"MapReference":{"ReferenceId":"1131409629","Spot":0.98,"SideOfStreet":"left","CountryId":"20624059","StateId":"20629651","CountyId":"20629652","CityId":"20629653","DistrictId":"20646648","AddressId":"209817955","RoadLinkId":"441402114"}}},{"Relevance":1.0,"Distance":45.4,"MatchLevel":"houseNumber","MatchQuality":{"Country":1.0,"State":1.0,"County":1.0,"City":1.0,"District":1.0,"Street":[1.0],"HouseNumber":1.0,"PostalCode":1.0},"MatchType":"interpolated","Location":{"LocationId":"NT_-joAIsE3c-EdNJCezy24kC_zA","LocationType":"point","DisplayPosition":{"Latitude":54.18939,"Longitude":19.42626},"MapView":{"TopLeft":{"Latitude":54.1905142,"Longitude":19.4243387},"BottomRight":{"Latitude":54.1882658,"Longitude":19.4281813}},"Address":{"Label":"ulica Jana Myliusa 3, 82-300 Elbląg, Polska","Country":"POL","State":"Woj. Warmińsko-Mazurskie","County":"Elbląg","City":"Elbląg","District":"Elbląg","Street":"ulica Jana Myliusa","HouseNumber":"3","PostalCode":"82-300","AdditionalData":[{"value":"Polska","key":"CountryName"},{"value":"Woj. Warmińsko-Mazurskie","key":"StateName"},{"value":"Elbląg","key":"CountyName"}]},"MapReference":{"ReferenceId":"1131409630","Spot":0.56,"SideOfStreet":"left","CountryId":"20624059","StateId":"20629651","CountyId":"20629652","CityId":"20629653","DistrictId":"20646648","AddressId":"211031377","RoadLinkId":"441402115"}}},{"Relevance":1.0,"Distance":63.6,"MatchLevel":"street","MatchQuality":{"Country":1.0,"State":1.0,"County":1.0,"City":1.0,"District":1.0,"Street":[1.0],"PostalCode":1.0},"Location":{"LocationId":"NT_EFdF6r2DExjfMv0xsNGQdA_l_1149876204_R","LocationType":"point","DisplayPosition":{"Latitude":54.18852,"Longitude":19.42569},"MapView":{"TopLeft":{"Latitude":54.18853,"Longitude":19.42538},"BottomRight":{"Latitude":54.18852,"Longitude":19.42569}},"Address":{"Label":"ulica Stanisława Leszczyńskiego, 82-300 Elbląg, Polska","Country":"POL","State":"Woj. Warmińsko-Mazurskie","County":"Elbląg","City":"Elbląg","District":"Elbląg","Street":"ulica Stanisława Leszczyńskiego","PostalCode":"82-300","AdditionalData":[{"value":"Polska","key":"CountryName"},{"value":"Woj. Warmińsko-Mazurskie","key":"StateName"},{"value":"Elbląg","key":"CountyName"}]},"MapReference":{"ReferenceId":"1149876204","Spot":0.0,"SideOfStreet":"right","CountryId":"20624059","StateId":"20629651","CountyId":"20629652","CityId":"20629653","DistrictId":"20646648"}}},{"Relevance":1.0,"Distance":64.3,"MatchLevel":"houseNumber","MatchQuality":{"Country":1.0,"State":1.0,"County":1.0,"City":1.0,"District":1.0,"Street":[1.0],"HouseNumber":1.0,"PostalCode":1.0},"MatchType":"interpolated","Location":{"LocationId":"NT_EFdF6r2DExjfMv0xsNGQdA_2A","LocationType":"point","DisplayPosition":{"Latitude":54.18851,"Longitude":19.42578},"MapView":{"TopLeft":{"Latitude":54.1896342,"Longitude":19.4238588},"BottomRight":{"Latitude":54.1873858,"Longitude":19.4277012}},"Address":{"Label":"ulica Stanisława Leszczyńskiego 6, 82-300 Elbląg, Polska","Country":"POL","State":"Woj. Warmińsko-Mazurskie","County":"Elbląg","City":"Elbląg","District":"Elbląg","Street":"ulica Stanisława Leszczyńskiego","HouseNumber":"6","PostalCode":"82-300","AdditionalData":[{"value":"Polska","key":"CountryName"},{"value":"Woj. Warmińsko-Mazurskie","key":"StateName"},{"value":"Elbląg","key":"CountyName"}]},"MapReference":{"ReferenceId":"1149876203","Spot":0.94,"SideOfStreet":"left","CountryId":"20624059","StateId":"20629651","CountyId":"20629652","CityId":"20629653","DistrictId":"20646648","AddressId":"221993358","RoadLinkId":"455200268"}}},{"Relevance":1.0,"Distance":67.6,"MatchLevel":"street","MatchQuality":{"Country":1.0,"State":1.0,"County":1.0,"City":1.0,"District":1.0,"Street":[1.0],"PostalCode":1.0},"Location":{"LocationId":"NT_EFdF6r2DExjfMv0xsNGQdA_l_1149876202_R","LocationType":"point","DisplayPosition":{"Latitude":54.18853,"Longitude":19.42538},"MapView":{"TopLeft":{"Latitude":54.18853,"Longitude":19.42537},"BottomRight":{"Latitude":54.18838,"Longitude":19.42538}},"Address":{"Label":"ulica Stanisława Leszczyńskiego, 82-300 Elbląg, Polska","Country":"POL","State":"Woj. Warmińsko-Mazurskie","County":"Elbląg","City":"Elbląg","District":"Elbląg","Street":"ulica Stanisława Leszczyńskiego","PostalCode":"82-300","AdditionalData":[{"value":"Polska","key":"CountryName"},{"value":"Woj. Warmińsko-Mazurskie","key":"StateName"},{"value":"Elbląg","key":"CountyName"}]},"MapReference":{"ReferenceId":"1149876202","Spot":1.0,"SideOfStreet":"right","CountryId":"20624059","StateId":"20629651","CountyId":"20629652","CityId":"20629653","DistrictId":"20646648"}}},{"Relevance":1.0,"Distance":78.0,"MatchLevel":"street","MatchQuality":{"Country":1.0,"State":1.0,"County":1.0,"City":1.0,"District":1.0,"PostalCode":1.0},"Location":{"LocationId":"NT_jV6bD4XmEiNL7BEabSa2EB_l_594985542_L","LocationType":"point","DisplayPosition":{"Latitude":54.18938,"Longitude":19.42688},"MapView":{"TopLeft":{"Latitude":54.19018,"Longitude":19.42682},"BottomRight":{"Latitude":54.18938,"Longitude":19.42693}},"Address":{"Label":"82-300 Elbląg, Polska","Country":"POL","State":"Woj. Warmińsko-Mazurskie","County":"Elbląg","City":"Elbląg","District":"Elbląg","PostalCode":"82-300","AdditionalData":[{"value":"Polska","key":"CountryName"},{"value":"Woj. Warmińsko-Mazurskie","key":"StateName"},{"value":"Elbląg","key":"CountyName"}]},"MapReference":{"ReferenceId":"594985542","Spot":0.0,"SideOfStreet":"left","CountryId":"20624059","StateId":"20629651","CountyId":"20629652","CityId":"20629653","DistrictId":"20646648"}}}]}]}}