{"Response":{"MetaInfo":{"Timestamp":"2020-03-28T11:31:01.002+0000","NextPageInformation":"2"},"View":[{"_type":"SearchResultsViewType","ViewId":0,"Result":[{"Relevance":1.0,"Distance":0.0,"Direction":0.0,"MatchLevel":"district","MatchQuality":{"Country":1.0,"State":1.0,"County":1.0,"City":1.0,"District":1.0,"PostalCode":1.0},"Location":{"LocationId":"NT_cHqlJ1-U3gDlgBDBEV8xlC","LocationType":"point","DisplayPosition":{"Latitude":54.195031,"Longitude":16.175293},"MapView":{"TopLeft":{"Latitude":54.24831,"Longitude":16.1149},"BottomRight":{"Latitude":54.13739,"Longitude":16.29343}},"Address":{"Label":"Koszalin, Woj. Zachodniopomorskie, Polska","Country":"POL","State":"Woj. Zachodniopomorskie","County":"Koszalin","City":"Koszalin","District":"Koszalin","PostalCode":"75-007","AdditionalData":[{"value":"Polska","key":"CountryName"},{"value":"Woj. Zachodniopomorskie","key":"StateName"},{"value":"Koszalin","key":"CountyName"}]},"MapReference":{"ReferenceId":"744400590","SideOfStreet":"neither","CountryId":"20624059","StateId":"20631896","CountyId":"20631897","CityId":"20631898","DistrictId":"20646734"}}},{"Relevance":1.0,"Distance":10.2,"MatchLevel":"houseNumber","MatchQuality":{"Country":1.0,"State":1.0,"County":1.0,"City":1.0,"District":1.0,"Street":[1.0],"HouseNumber":1.0,"PostalCode":1.0},"MatchType":"interpolated","Location":{"LocationId":"NT_o-hrQsCStgOs1LUJ3cM7HB_0ID","LocationType":"point","DisplayPosition":{"Latitude":54.19505,"Longitude":16.17514},"MapView":{"TopLeft":{"Latitude":54.1961742,"Longitude":16.1732185},"BottomRight":{"Latitude":54.1939258,"Longitude":16.1770615}},"Address":{"Label":"ulica Niepodległości 42, 75-252 Koszalin, Polska","Country":"POL","State":"Woj. Zachodniopomorskie","County":"Koszalin","City":"Koszalin","District":"Koszalin","Street":"ulica Niepodległości","HouseNumber":"42","PostalCode":"75-252","AdditionalData":[{"value":"Polska","key":"CountryName"},{"value":"Woj. Zachodniopomorskie","key":"StateName"},{"value":"Koszalin","key":"CountyName"}]},"MapReference":{"ReferenceId":"1169374944","Spot":0.12,"SideOfStreet":"right","CountryId":"20624059","StateId":"20631896","CountyId":"20631897","CityId":"20631898","DistrictId":"20646734","AddressId":"222068023","RoadLinkId":"476138062"}}},{"Relevance":1.0,"Distance":14.6,"MatchLevel":"houseNumber","MatchQuality":{"Country":1.0,"State":1.0,"County":1.0,"City":1.0,"District":1.0,"Street":[1.0],"HouseNumber":1.0,"PostalCode":1.0},"MatchType":"interpolated","Location":{"LocationId":"NT_o-hrQsCStgOs1LUJ3cM7HB_0AD","LocationType":"point","DisplayPosition":{"Latitude":54.1949,"Longitude":16.17531},"MapView":{"TopLeft":{"Latitude":54.1960242,"Longitude":16.1733885},"BottomRight":{"Latitude":54.1937758,"Longitude":16.1772315}},"Address":{"Label":"ulica Niepodległości 40, 75-252 Koszalin, Polska","Country":"POL","State":"Woj. Zachodniopomorskie","County":"Koszalin","City":"Koszalin","District":"Koszalin","Street":"ulica Niepodległości","HouseNumber":"40","PostalCode":"75-252","AdditionalData":[{"value":"Polska","key":"CountryName"},{"value":"Woj. Zachodniopomorskie","key":"StateName"},{"value":"Koszalin","key":"CountyName"}]},"MapReference":{"ReferenceId":"1091000220","Spot":0.81,"SideOfStreet":"right","CountryId":"20624059","StateId":"20631896","CountyId":"20631897","CityId":"20631898","DistrictId":"20646734","AddressId":"222068020","RoadLinkId":"405975508"}}},{"Relevance":1.0,"Distance":57.3,"MatchLevel":"houseNumber","MatchQuality":{"Country":1.0,"State":1.0,"County":1.0,"City":1.0,"District":1.0,"Street":[1.0],"HouseNumber":1.0,"PostalCode":1.0},"MatchType":"interpolated","Location":{"LocationId":"NT_o-hrQsCStgOs1LUJ3cM7HB_0YD","LocationType":"point","DisplayPosition":{"Latitude":54.19541,"Longitude":16.17472},"MapView":{"TopLeft":{"Latitude":54.1965342,"Longitude":16.1727984},"BottomRight":{"Latitude":54.1942858,"Longitude":16.1766416}},"Address":{"Label":"ulica Niepodległości 46, 75-252 Koszalin, Polska","Country":"POL","State":"Woj. Zachodniopomorskie","County":"Koszalin","City":"Koszalin","District":"Koszalin","Street":"ulica Niepodległości","HouseNumber":"46","PostalCode":"75-252","AdditionalData":[{"value":"Polska","key":"CountryName"},{"value":"Woj. Zachodniopomorskie","key":"StateName"},{"value":"Koszalin","key":"CountyName"}]},"MapReference":{"ReferenceId":"1169374945","Spot":0.19,"SideOfStreet":"right","CountryId":"20624059","StateId":"20631896","CountyId":"20631897","CityId":"20631898","DistrictId":"20646734","AddressId":"703691009","RoadLinkId":"476138063"}}},{"Relevance":1.0,"Distance":69.5,"MatchLevel":"houseNumber","MatchQuality":{"Country":1.0,"State":1.0,"County":1.0,"City":1.0,"District":1.0,"Street":[1.0],"HouseNumber":1.0,"PostalCode":1.0},"MatchType":"interpolated","Location":{"LocationId":"NT_uUXBd4W7ARtg98a4i5IdBA_1ED","LocationType":"point","DisplayPosition":{"Latitude":54.1952,"Longitude":16.17415},"MapView":{"TopLeft":{"Latitude":54.1963242,"Longitude":16.1722285},"BottomRight":{"Latitude":54.1940758,"Longitude":16.1760715}},"Address":{"Label":"ulica Niepodległości 51, 75-244 Koszalin, Polska","Country":"POL","State":"Woj. Zachodniopomorskie","County":"Koszalin","City":"Koszalin","District":"Koszalin","Street":"ulica Niepodległości","HouseNumber":"51","PostalCode":"75-244","AdditionalData":[{"value":"Polska","key":"CountryName"},{"value":"Woj. Zachodniopomorskie","key":"StateName"},{"value":"Koszalin","key":"CountyName"}]},"MapReference":{"ReferenceId":"743637984","Spot":0.0,"SideOfStreet":"left","CountryId":"20624059","StateId":"20631896","CountyId":"20631897","CityId":"20631898","DistrictId":"20646734","AddressId":"222067363","RoadLinkId":"141747674"}}},{"Relevance":1.0,"Distance":77.6,"MatchLevel":"houseNumber","MatchQuality":{"Country":1.0,"State":1.0,"County":1.0,"City":1.0,"District":1.0,"Street":[1.0],"HouseNumber":1.0,"PostalCode":1.0},"MatchType":"interpolated","Location":{"LocationId":"NT_8sLzM9Y0gwDW9HsM1gstRB_yA","LocationType":"point","DisplayPosition":{"Latitude":54.19428,"Longitude":16.17552},"MapView":{"TopLeft":{"Latitude":54.1954042,"Longitude":16.1735985},"BottomRight":{"Latitude":54.1931558,"Longitude":16.1774415}},"Address":{"Label":"ulica Rzemieślnicza 2, 75-243 Koszalin, Polska","Country":"POL","State":"Woj. Zachodniopomorskie","County":"Koszalin","City":"Koszalin","District":"Koszalin","Street":"ulica Rzemieślnicza","HouseNumber":"2","PostalCode":"75-243","AdditionalData":[{"value":"Polska","key":"CountryName"},{"value":"Woj. Zachodniopomorskie","key":"StateName"},{"value":"Koszalin","key":"CountyName"}]},"MapReference":{"ReferenceId":"743634844","Spot":0.77,"SideOfStreet":"left","CountryId":"20624059","StateId":"20631896","CountyId":"20631897","CityId":"20631898","DistrictId":"20646734","AddressId":"702081405","RoadLinkId":"141746158"}}},{"Relevance":1.0,"Distance":93.7,"MatchLevel":"houseNumber","MatchQuality":{"Country":1.0,"State":1.0,"County":1.0,"City":1.0,"District":1.0,"Street":[1.0],"HouseNumber":1.0,"PostalCode":1.0},"MatchType":"interpolated","Location":{"LocationId":"NT_o-hrQsCStgOs1LUJ3cM7HB_zID","LocationType":"point","DisplayPosition":{"Latitude":54.19429,"Longitude":16.17598},"MapView":{"TopLeft":{"Latitude":54.1954142,"Longitude":16.1740585},"BottomRight":{"Latitude":54.1931658,"Longitude":16.1779015}},"Address":{"Label":"ulica Niepodległości 32, 75-252 Koszalin, Polska","Country":"POL","State":"Woj. Zachodniopomorskie","County":"Koszalin","City":"Koszalin","District":"Koszalin","Street":"ulica Niepodległości","HouseNumber":"32","PostalCode":"75-252","AdditionalData":[{"value":"Polska","key":"CountryName"},{"value":"Woj. Zachodniopomorskie","key":"StateName"},{"value":"Koszalin","key":"CountyName"}]},"MapReference":{"ReferenceId":"594968483","Spot":0.93,"SideOfStreet":"right","CountryId":"20624059","StateId":"20631896","CountyId":"20631897","CityId":"20631898","DistrictId":"20646734","AddressId":"222053205","RoadLinkId":"95276386"}}},{"Relevance":1.0,"Distance":98.3,"MatchLevel":"houseNumber","MatchQuality":{"Country":1.0,"State":1.0,"County":1.0,"City":1.0,"District":1.0,"Street":[1.0],"HouseNumber":1.0,"PostalCode":1.0},"MatchType":"interpolated","Location":{"LocationId":"NT_8sLzM9Y0gwDW9HsM1gstRB_2A","LocationType":"point","DisplayPosition":{"Latitude":54.19429,"Longitude":16.17382},"MapView":{"TopLeft":{"Latitude":54.1954142,"Longitude":16.1718985},"BottomRight":{"Latitude":54.1931658,"Longitude":16.1757415}},"Address":{"Label":"ulica Rzemieślnicza 6, 75-243 Koszalin, Polska","Country":"POL","State":"Woj. Zachodniopomorskie","County":"Koszalin","City":"Koszalin","District":"Koszalin","Street":"ulica Rzemieślnicza","HouseNumber":"6","PostalCode":"75-243","AdditionalData":[{"value":"Polska","key":"CountryName"},{"value":"Woj. Zachodniopomorskie","key":"StateName"},{"value":"Koszalin","key":"CountyName"}]},"MapReference":{"ReferenceId":"743634845","Spot":0.69,"SideOfStreet":"right","CountryId":"20624059","StateId":"20631896","CountyId":"20631897","CityId":"20631898","DistrictId":"20646734","AddressId":"702081406","RoadLinkId":"141746159"}}},{"Relevance":1.0,"Distance":108.8,"MatchLevel":"street","MatchQuality":{"Country":1.0,"State":1.0,"County":1.0,"City":1.0,"District":1.0,"Street":[1.0],"PostalCode":1.0},"Location":{"LocationId":"NT_uUXBd4W7ARtg98a4i5IdBA_l_743637983_R","LocationType":"point","DisplayPosition":{"Latitude":54.19581,"Longitude":16.17428},"MapView":{"TopLeft":{"Latitude":54.19581,"Longitude":16.17389},"BottomRight":{"Latitude":54.19577,"Longitude":16.17428}},"Address":{"Label":"ulica Niepodległości, 75-244 Koszalin, Polska","Country":"POL","State":"Woj. Zachodniopomorskie","County":"Koszalin","City":"Koszalin","District":"Koszalin","Street":"ulica Niepodległości","PostalCode":"75-244","AdditionalData":[{"value":"Polska","key":"CountryName"},{"value":"Woj. Zachodniopomorskie","key":"StateName"},{"value":"Koszalin","key":"CountyName"}]},"MapReference":{"ReferenceId":"743637983","Spot":1.0,"SideOfStreet":"right","CountryId":"20624059","StateId":"20631896","CountyId":"20631897","CityId":"20631898","DistrictId":"20646734"}}},{"Relevance":1.0,"Distance":134.6,"MatchLevel":"houseNumber","MatchQuality":{"Country":1.0,"State":1.0,"County":1.0,"City":1.0,"District":1.0,"Street":[1.0],"HouseNumber":1.0,"PostalCode":1.0},"MatchType":"interpolated","Location":{"LocationId":"NT_o-hrQsCStgOs1LUJ3cM7HB_1AD","LocationType":"point","DisplayPosition":{"Latitude":54.19602,"Longitude":16.17409},"MapView":{"TopLeft":{"Latitude":54.1971442,"Longitude":16.1721684},"BottomRight":{"Latitude":54.1948958,"Longitude":16.1760116}},"Address":{"Label":"ulica Niepodległości 50, 75-252 Koszalin, Polska","Country":"POL","State":"Woj. Zachodniopomorskie","County":"Koszalin","City":"Koszalin","District":"Koszalin","Street":"ulica Niepodległości","HouseNumber":"50","PostalCode":"75-252","AdditionalData":[{"value":"Polska","key":"CountryName"},{"value":"Woj. Zachodniopomorskie","key":"StateName"},{"value":"Koszalin","key":"CountyName"}]},"MapReference":{"ReferenceId":"743637981","Spot":0.68,"SideOfStreet":"right","CountryId":"20624059","StateId":"20631896","CountyId":"20631897","CityId":"20631898","DistrictId":"20646734","AddressId":"222071822","RoadLinkId":"141747673"}}}]}]}}