{"Response":{"MetaInfo":{"Timestamp":"2020-03-28T09:36:36.103+0000","NextPageInformation":"2"},"View":[{"_type":"SearchResultsViewType","ViewId":0,"Result":[{"Relevance":1.0,"Distance":0.0,"Direction":0.0,"MatchLevel":"district","MatchQuality":{"Country":1.0,"State":1.0,"County":1.0,"City":1.0,"District":1.0,"PostalCode":1.0},"Location":{"LocationId":"NT_AYEkZt5tbXJWD4WUWuV8sD","LocationType":"point","DisplayPosition":{"Latitude":54.1009233,"Longitude":12.0801744},"MapView":{"TopLeft":{"Latitude":54.11804,"Longitude":12.05723},"BottomRight":{"Latitude":54.08338,"Longitude":12.09912}},"Address":{"Label":"Reutershagen, Rostock, Mecklenburg-Vorpommern, Deutschland","Country":"DEU","State":"Mecklenburg-Vorpommern","County":"Rostock (Stadt)","City":"Rostock","District":"Reutershagen","PostalCode":"18069","AdditionalData":[{"value":"Deutschland","key":"CountryName"},{"value":"Mecklenburg-Vorpommern","key":"StateName"},{"value":"Rostock (Stadt)","key":"CountyName"}]},"MapReference":{"ReferenceId":"53591068","SideOfStreet":"neither","CountryId":"20147700","StateId":"20189515","CountyId":"20189530","CityId":"20189531","DistrictId":"20189542"}}},{"Relevance":1.0,"Distance":14.9,"MatchLevel":"houseNumber","MatchQuality":{"Country":1.0,"State":1.0,"County":1.0,"City":1.0,"District":1.0,"Street":[1.0],"HouseNumber":1.0,"PostalCode":1.0},"MatchType":"interpolated","Location":{"LocationId":"NT_b2cOPHubI3af113dBME3lC_xYD","LocationType":"point","DisplayPosition":{"Latitude":54.10063,"Longitude":12.0802},"MapView":{"TopLeft":{"Latitude":54.1017542,"Longitude":12.0782828},"BottomRight":{"Latitude":54.0995058,"Longitude":12.0821172}},"Address":{"Label":"Clara-Zetkin-Straße 16, 18069 Rostock, Deutschland","Country":"DEU","State":"Mecklenburg-Vorpommern","County":"Rostock (Stadt)","City":"Rostock","District":"Reutershagen","Street":"Clara-Zetkin-Straße","HouseNumber":"16","PostalCode":"18069","AdditionalData":[{"value":"Deutschland","key":"CountryName"},{"value":"Mecklenburg-Vorpommern","key":"StateName"},{"value":"Rostock (Stadt)","key":"CountyName"}]},"MapReference":{"ReferenceId":"53590886","Spot":0.11,"SideOfStreet":"right","CountryId":"20147700","StateId":"20189515","CountyId":"20189530","CityId":"20189531","DistrictId":"20189542","AddressId":"184462839","RoadLinkId":"37638133"}}},{"Relevance":1.0,"Distance":38.6,"MatchLevel":"street","MatchQuality":{"Country":1.0,"State":1.0,"County":1.0,"City":1.0,"District":1.0,"Street":[1.0],"PostalCode":1.0},"Location":{"LocationId":"NT_FFeIwW2QRAXbi5TnBAIibA_l_1048027398_L","LocationType":"point","DisplayPosition":{"Latitude":54.1012659,"Longitude":12.0802703},"MapView":{"TopLeft":{"Latitude":54.10177,"Longitude":12.07847},"BottomRight":{"Latitude":54.10086,"Longitude":12.08172}},"Address":{"Label":"Hamburger Straße, 18069 Rostock, Deutschland","Country":"DEU","State":"Mecklenburg-Vorpommern","County":"Rostock (Stadt)","City":"Rostock","District":"Reutershagen","Street":"Hamburger Straße","PostalCode":"18069","AdditionalData":[{"value":"Deutschland","key":"CountryName"},{"value":"Mecklenburg-Vorpommern","key":"StateName"},{"value":"Rostock (Stadt)","key":"CountyName"}]},"MapReference":{"ReferenceId":"1048027398","Spot":0.45,"SideOfStreet":"left","CountryId":"20147700","StateId":"20189515","CountyId":"20189530","CityId":"20189531","DistrictId":"20189542"}}},{"Relevance":1.0,"Distance":57.1,"MatchLevel":"houseNumber","MatchQuality":{"Country":1.0,"State":1.0,"County":1.0,"City":1.0,"District":1.0,"Street":[1.0],"HouseNumber":1.0,"PostalCode":1.0},"MatchType":"interpolated","Location":{"LocationId":"NT_FCyCzIdOps6i17a40s8s9B_yA","LocationType":"point","DisplayPosition":{"Latitude":54.10037,"Longitude":12.0803},"MapView":{"TopLeft":{"Latitude":54.1014942,"Longitude":12.0783829},"BottomRight":{"Latitude":54.0992458,"Longitude":12.0822171}},"Address":{"Label":"Franz-Jacob-Straße 2, 18069 Rostock, Deutschland","Country":"DEU","State":"Mecklenburg-Vorpommern","County":"Rostock (Stadt)","City":"Rostock","District":"Reutershagen","Street":"Franz-Jacob-Straße","HouseNumber":"2","PostalCode":"18069","AdditionalData":[{"value":"Deutschland","key":"CountryName"},{"value":"Mecklenburg-Vorpommern","key":"StateName"},{"value":"Rostock (Stadt)","key":"CountyName"}]},"MapReference":{"ReferenceId":"53590922","Spot":0.71,"SideOfStreet":"left","CountryId":"20147700","StateId":"20189515","CountyId":"20189530","CityId":"20189531","DistrictId":"20189542","AddressId":"184448077","RoadLinkId":"37852430"}}},{"Relevance":1.0,"Distance":67.4,"MatchLevel":"houseNumber","MatchQuality":{"Country":1.0,"State":1.0,"County":1.0,"City":1.0,"District":1.0,"Street":[1.0],"HouseNumber":1.0,"PostalCode":1.0},"MatchType":"interpolated","Location":{"LocationId":"NT_b2cOPHubI3af113dBME3lC_0A","LocationType":"point","DisplayPosition":{"Latitude":54.10046,"Longitude":12.08079},"MapView":{"TopLeft":{"Latitude":54.1015842,"Longitude":12.0788728},"BottomRight":{"Latitude":54.0993358,"Longitude":12.0827072}},"Address":{"Label":"Clara-Zetkin-Straße 4, 18069 Rostock, Deutschland","Country":"DEU","State":"Mecklenburg-Vorpommern","County":"Rostock (Stadt)","City":"Rostock","District":"Reutershagen","Street":"Clara-Zetkin-Straße","HouseNumber":"4","PostalCode":"18069","AdditionalData":[{"value":"Deutschland","key":"CountryName"},{"value":"Mecklenburg-Vorpommern","key":"StateName"},{"value":"Rostock (Stadt)","key":"CountyName"}]},"MapReference":{"ReferenceId":"53590910","Spot":0.76,"SideOfStreet":"left","CountryId":"20147700","StateId":"20189515","CountyId":"20189530","CityId":"20189531","DistrictId":"20189542","AddressId":"183900225","RoadLinkId":"37919300"}}},{"Relevance":1.0,"Distance":86.7,"MatchLevel":"street","MatchQuality":{"Country":1.0,"State":1.0,"County":1.0,"City":1.0,"District":1.0,"PostalCode":1.0},"Location":{"LocationId":"NT_HS-fjjvhHy7FUunpJPZxtD_l_1048024103_R","LocationType":"point","DisplayPosition":{"Latitude":54.1017025,"Longitude":12.0801095},"MapView":{"TopLeft":{"Latitude":54.10188,"Longitude":12.07847},"BottomRight":{"Latitude":54.10167,"Longitude":12.08053}},"Address":{"Label":"18069 Rostock, Deutschland","Country":"DEU","State":"Mecklenburg-Vorpommern","County":"Rostock (Stadt)","City":"Rostock","District":"Reutershagen","PostalCode":"18069","AdditionalData":[{"value":"Deutschland","key":"CountryName"},{"value":"Mecklenburg-Vorpommern","key":"StateName"},{"value":"Rostock (Stadt)","key":"CountyName"}]},"MapReference":{"ReferenceId":"1048024103","Spot":0.77,"SideOfStreet":"right","CountryId":"20147700","StateId":"20189515","CountyId":"20189530","CityId":"20189531","DistrictId":"20189542"}}},{"Relevance":1.0,"Distance":90.6,"MatchLevel":"houseNumber","MatchQuality":{"Country":1.0,"State":1.0,"County":1.0,"City":1.0,"District":1.0,"Street":[1.0],"HouseNumber":1.0,"PostalCode":1.0},"MatchType":"interpolated","Location":{"LocationId":"NT_MW9mj1kPeWr9qg8xN4OuAC_yQD","LocationType":"point","DisplayPosition":{"Latitude":54.09995,"Longitude":12.07965},"MapView":{"TopLeft":{"Latitude":54.1010742,"Longitude":12.0777329},"BottomRight":{"Latitude":54.0988258,"Longitude":12.0815671}},"Address":{"Label":"Schulenburgstraße 24, 18069 Rostock, Deutschland","Country":"DEU","State":"Mecklenburg-Vorpommern","County":"Rostock (Stadt)","City":"Rostock","District":"Reutershagen","Street":"Schulenburgstraße","HouseNumber":"24","PostalCode":"18069","AdditionalData":[{"value":"Deutschland","key":"CountryName"},{"value":"Mecklenburg-Vorpommern","key":"StateName"},{"value":"Rostock (Stadt)","key":"CountyName"}]},"MapReference":{"ReferenceId":"53590923","Spot":0.26,"SideOfStreet":"right","CountryId":"20147700","StateId":"20189515","CountyId":"20189530","CityId":"20189531","DistrictId":"20189542","AddressId":"184429641","RoadLinkId":"37970667"}}},{"Relevance":1.0,"Distance":109.9,"MatchLevel":"houseNumber","MatchQuality":{"Country":1.0,"State":1.0,"County":1.0,"City":1.0,"District":1.0,"Street":[1.0],"HouseNumber":1.0,"PostalCode":1.0},"MatchType":"interpolated","Location":{"LocationId":"NT_MW9mj1kPeWr9qg8xN4OuAC_yUD","LocationType":"point","DisplayPosition":{"Latitude":54.09977,"Longitude":12.08032},"MapView":{"TopLeft":{"Latitude":54.1008942,"Longitude":12.0784029},"BottomRight":{"Latitude":54.0986458,"Longitude":12.0822371}},"Address":{"Label":"Schulenburgstraße 25, 18069 Rostock, Deutschland","Country":"DEU","State":"Mecklenburg-Vorpommern","County":"Rostock (Stadt)","City":"Rostock","District":"Reutershagen","Street":"Schulenburgstraße","HouseNumber":"25","PostalCode":"18069","AdditionalData":[{"value":"Deutschland","key":"CountryName"},{"value":"Mecklenburg-Vorpommern","key":"StateName"},{"value":"Rostock (Stadt)","key":"CountyName"}]},"MapReference":{"ReferenceId":"53590960","Spot":0.71,"SideOfStreet":"right","CountryId":"20147700","StateId":"20189515","CountyId":"20189530","CityId":"20189531","DistrictId":"20189542","AddressId":"184101239","RoadLinkId":"37568736"}}},{"Relevance":1.0,"Distance":115.6,"MatchLevel":"houseNumber","MatchQuality":{"Country":1.0,"State":1.0,"County":1.0,"City":1.0,"District":1.0,"Street":[1.0],"HouseNumber":1.0,"PostalCode":1.0},"MatchType":"interpolated","Location":{"LocationId":"NT_LrMU6iiFyxquJPestNrr.D_xAD","LocationType":"point","DisplayPosition":{"Latitude":54.1016,"Longitude":12.08152},"MapView":{"TopLeft":{"Latitude":54.1027242,"Longitude":12.0796028},"BottomRight":{"Latitude":54.1004758,"Longitude":12.0834372}},"Address":{"Label":"Nüßlerweg 10, 18069 Rostock, Deutschland","Country":"DEU","State":"Mecklenburg-Vorpommern","County":"Rostock (Stadt)","City":"Rostock","District":"Reutershagen","Street":"Nüßlerweg","HouseNumber":"10","PostalCode":"18069","AdditionalData":[{"value":"Deutschland","key":"CountryName"},{"value":"Mecklenburg-Vorpommern","key":"StateName"},{"value":"Rostock (Stadt)","key":"CountyName"}]},"MapReference":{"ReferenceId":"53590848","Spot":0.69,"SideOfStreet":"right","CountryId":"20147700","StateId":"20189515","CountyId":"20189530","CityId":"20189531","DistrictId":"20189542","AddressId":"184484217","RoadLinkId":"37973130"}}},{"Relevance":1.0,"Distance":116.0,"MatchLevel":"houseNumber","MatchQuality":{"Country":1.0,"State":1.0,"County":1.0,"City":1.0,"District":1.0,"Street":[1.0],"HouseNumber":1.0,"PostalCode":1.0},"MatchType":"interpolated","Location":{"LocationId":"NT_MW9mj1kPeWr9qg8xN4OuAC_yID","LocationType":"point","DisplayPosition":{"Latitude":54.10024,"Longitude":12.07835},"MapView":{"TopLeft":{"Latitude":54.1013642,"Longitude":12.0764329},"BottomRight":{"Latitude":54.0991158,"Longitude":12.0802671}},"Address":{"Label":"Schulenburgstraße 22, 18069 Rostock, Deutschland","Country":"DEU","State":"Mecklenburg-Vorpommern","County":"Rostock (Stadt)","City":"Rostock","District":"Reutershagen","Street":"Schulenburgstraße","HouseNumber":"22","PostalCode":"18069","AdditionalData":[{"value":"Deutschland","key":"CountryName"},{"value":"Mecklenburg-Vorpommern","key":"StateName"},{"value":"Rostock (Stadt)","key":"CountyName"}]},"MapReference":{"ReferenceId":"53590911","Spot":0.4,"SideOfStreet":"right","CountryId":"20147700","StateId":"20189515","CountyId":"20189530","CityId":"20189531","DistrictId":"20189542","AddressId":"184108355","RoadLinkId":"37944178"}}}]}]}}