{"Response":{"MetaInfo":{"Timestamp":"2020-03-28T10:36:42.005+0000","NextPageInformation":"2"},"View":[{"_type":"SearchResultsViewType","ViewId":0,"Result":[{"Relevance":1.0,"Distance":0.0,"Direction":0.0,"MatchLevel":"district","MatchQuality":{"Country":1.0,"State":1.0,"County":1.0,"City":1.0,"District":1.0,"PostalCode":1.0},"Location":{"LocationId":"NT_12sFtLMEGcIyqzjiyai-.C","LocationType":"point","DisplayPosition":{"Latitude":54.1558355,"Longitude":-3.1795893},"MapView":{"TopLeft":{"Latitude":54.16503,"Longitude":-3.19219},"BottomRight":{"Latitude":54.14559,"Longitude":-3.16273}},"Address":{"Label":"Dalton-in-Furness, England, United Kingdom","Country":"GBR","State":"England","County":"Cumbria","City":"Dalton-in-Furness","District":"Dalton-in-Furness","PostalCode":"LA15 8","AdditionalData":[{"value":"United Kingdom","key":"CountryName"},{"value":"England","key":"StateName"},{"value":"Cumbria","key":"CountyName"}]},"MapReference":{"ReferenceId":"27431439","SideOfStreet":"neither","StateId":"20248595","CountyId":"20339026","CityId":"20346306","DistrictId":"20346307"}}},{"Relevance":1.0,"Distance":39.9,"MatchLevel":"houseNumber","MatchQuality":{"Country":1.0,"State":1.0,"County":1.0,"City":1.0,"District":1.0,"Street":[1.0],"HouseNumber":1.0,"PostalCode":1.0},"MatchType":"interpolated","Location":{"LocationId":"NT_t3Uc-.rBw0R9E89LjntO1B_l_585760864_R_xgD","LocationType":"point","DisplayPosition":{"Latitude":54.1554114,"Longitude":-3.1800086},"MapView":{"TopLeft":{"Latitude":54.1565356,"Longitude":-3.1819283},"BottomRight":{"Latitude":54.1542873,"Longitude":-3.1780889}},"Address":{"Label":"18 Station Road, Dalton-in-Furness, LA15 8, United Kingdom","Country":"GBR","State":"England","County":"Cumbria","City":"Dalton-in-Furness","District":"Dalton-in-Furness","Street":"Station Road","HouseNumber":"18","PostalCode":"LA15 8","AdditionalData":[{"value":"United Kingdom","key":"CountryName"},{"value":"England","key":"StateName"},{"value":"Cumbria","key":"CountyName"}]},"MapReference":{"ReferenceId":"585760864","Spot":0.68,"SideOfStreet":"right","StateId":"20248595","CountyId":"20339026","CityId":"20346306","DistrictId":"20346307"}}},{"Relevance":1.0,"Distance":48.3,"MatchLevel":"houseNumber","MatchQuality":{"Country":1.0,"State":1.0,"County":1.0,"City":1.0,"District":1.0,"Street":[1.0],"HouseNumber":1.0,"PostalCode":1.0},"MatchType":"interpolated","Location":{"LocationId":"NT_t3Uc-.rBw0R9E89LjntO1B_l_585760863_R_xYD","LocationType":"point","DisplayPosition":{"Latitude":54.15563,"Longitude":-3.1803901},"MapView":{"TopLeft":{"Latitude":54.1567542,"Longitude":-3.1823098},"BottomRight":{"Latitude":54.1545059,"Longitude":-3.1784704}},"Address":{"Label":"16 Station Road, Dalton-in-Furness, LA15 8, United Kingdom","Country":"GBR","State":"England","County":"Cumbria","City":"Dalton-in-Furness","District":"Dalton-in-Furness","Street":"Station Road","HouseNumber":"16","PostalCode":"LA15 8","AdditionalData":[{"value":"United Kingdom","key":"CountryName"},{"value":"England","key":"StateName"},{"value":"Cumbria","key":"CountyName"}]},"MapReference":{"ReferenceId":"585760863","Spot":0.25,"SideOfStreet":"right","StateId":"20248595","CountyId":"20339026","CityId":"20346306","DistrictId":"20346307"}}},{"Relevance":1.0,"Distance":51.0,"MatchLevel":"postalCode","MatchQuality":{"PostalCode":1.0},"MatchType":"interpolated","Location":{"LocationId":"NT_t3Uc-.rBw0R9E89LjntO1B_l_585760863_R_xYD","LocationType":"point","DisplayPosition":{"Latitude":54.15563,"Longitude":-3.18029},"MapView":{"TopLeft":{"Latitude":54.1646232,"Longitude":-3.1956476},"BottomRight":{"Latitude":54.1466368,"Longitude":-3.1649324}},"Address":{"Label":"LA15 8DT, Dalton-in-Furness, England, United Kingdom","Country":"GBR","State":"England","County":"Cumbria","City":"Dalton-in-Furness","PostalCode":"LA15 8DT","AdditionalData":[{"value":"United Kingdom","key":"CountryName"},{"value":"England","key":"StateName"},{"value":"Cumbria","key":"CountyName"}]},"MapReference":{"ReferenceId":"585760863","Spot":0.25,"SideOfStreet":"neither","StateId":"20248595","CountyId":"20339026","CityId":"20346306"}}},{"Relevance":1.0,"Distance":51.3,"MatchLevel":"postalCode","MatchQuality":{"PostalCode":1.0},"MatchType":"interpolated","Location":{"LocationId":"NT_fWWdmy-WnMnD2m7t11.4YD_l_27431431_R_5ID","LocationType":"point","DisplayPosition":{"Latitude":54.15565,"Longitude":-3.18031},"MapView":{"TopLeft":{"Latitude":54.1646432,"Longitude":-3.1956677},"BottomRight":{"Latitude":54.1466568,"Longitude":-3.1649523}},"Address":{"Label":"LA15 8AB, Dalton-in-Furness, England, United Kingdom","Country":"GBR","State":"England","County":"Cumbria","City":"Dalton-in-Furness","PostalCode":"LA15 8AB","AdditionalData":[{"value":"United Kingdom","key":"CountryName"},{"value":"England","key":"StateName"},{"value":"Cumbria","key":"CountyName"}]},"MapReference":{"ReferenceId":"27431431","Spot":0.23,"SideOfStreet":"neither","StateId":"20248595","CountyId":"20339026","CityId":"20346306"}}},{"Relevance":1.0,"Distance":53.1,"MatchLevel":"street","MatchQuality":{"Country":1.0,"State":1.0,"County":1.0,"City":1.0,"District":1.0,"Street":[1.0],"PostalCode":1.0},"Location":{"LocationId":"NT_nU9CwM3cp4ri9JehMwpoIA_l_585760865_R","LocationType":"point","DisplayPosition":{"Latitude":54.15554,"Longitude":-3.18023},"MapView":{"TopLeft":{"Latitude":54.15554,"Longitude":-3.18059},"BottomRight":{"Latitude":54.15534,"Longitude":-3.18023}},"Address":{"Label":"Station Mews, Dalton-in-Furness, LA15 8, United Kingdom","Country":"GBR","State":"England","County":"Cumbria","City":"Dalton-in-Furness","District":"Dalton-in-Furness","Street":"Station Mews","PostalCode":"LA15 8","AdditionalData":[{"value":"United Kingdom","key":"CountryName"},{"value":"England","key":"StateName"},{"value":"Cumbria","key":"CountyName"}]},"MapReference":{"ReferenceId":"585760865","Spot":1.0,"SideOfStreet":"right","StateId":"20248595","CountyId":"20339026","CityId":"20346306","DistrictId":"20346307"}}},{"Relevance":1.0,"Distance":53.5,"MatchLevel":"houseNumber","MatchQuality":{"Country":1.0,"State":1.0,"County":1.0,"City":1.0,"District":1.0,"Street":[1.0],"HouseNumber":1.0,"PostalCode":1.0},"MatchType":"interpolated","Location":{"LocationId":"NT_fWWdmy-WnMnD2m7t11.4YD_l_27431431_R_5ID","LocationType":"point","DisplayPosition":{"Latitude":54.1564401,"Longitude":-3.1797898},"MapView":{"TopLeft":{"Latitude":54.1575642,"Longitude":-3.1817095},"BottomRight":{"Latitude":54.1553159,"Longitude":-3.17787}},"Address":{"Label":"92 Market Street, Dalton-in-Furness, LA15 8AB, United Kingdom","Country":"GBR","State":"England","County":"Cumbria","City":"Dalton-in-Furness","District":"Dalton-in-Furness","Street":"Market Street","HouseNumber":"92","PostalCode":"LA15 8AB","AdditionalData":[{"value":"United Kingdom","key":"CountryName"},{"value":"England","key":"StateName"},{"value":"Cumbria","key":"CountyName"}]},"MapReference":{"ReferenceId":"27431431","Spot":0.23,"SideOfStreet":"right","StateId":"20248595","CountyId":"20339026","CityId":"20346306","DistrictId":"20346307"}}},{"Relevance":1.0,"Distance":61.4,"MatchLevel":"street","MatchQuality":{"Country":1.0,"State":1.0,"County":1.0,"City":1.0,"District":1.0,"Street":[1.0],"PostalCode":1.0},"Location":{"LocationId":"NT_Y.sWRg7-CXlQ-jOpRsgTDC_l_27431476_L","LocationType":"point","DisplayPosition":{"Latitude":54.15531,"Longitude":-3.1793},"MapView":{"TopLeft":{"Latitude":54.15626,"Longitude":-3.17954},"BottomRight":{"Latitude":54.15515,"Longitude":-3.17733}},"Address":{"Label":"Beckside Road, Dalton-in-Furness, LA15 8, United Kingdom","Country":"GBR","State":"England","County":"Cumbria","City":"Dalton-in-Furness","District":"Dalton-in-Furness","Street":"Beckside Road","PostalCode":"LA15 8","AdditionalData":[{"value":"United Kingdom","key":"CountryName"},{"value":"England","key":"StateName"},{"value":"Cumbria","key":"CountyName"}]},"MapReference":{"ReferenceId":"27431476","Spot":0.11,"SideOfStreet":"left","StateId":"20248595","CountyId":"20339026","CityId":"20346306","DistrictId":"20346307"}}},{"Relevance":1.0,"Distance":71.5,"MatchLevel":"houseNumber","MatchQuality":{"Country":1.0,"State":1.0,"County":1.0,"City":1.0,"District":1.0,"Street":[1.0],"HouseNumber":1.0,"PostalCode":1.0},"MatchType":"interpolated","Location":{"LocationId":"NT_fWWdmy-WnMnD2m7t11.4YD_l_27431438_L_5UD","LocationType":"point","DisplayPosition":{"Latitude":54.156348,"Longitude":-3.180252},"MapView":{"TopLeft":{"Latitude":54.1574722,"Longitude":-3.1821717},"BottomRight":{"Latitude":54.1552238,"Longitude":-3.1783322}},"Address":{"Label":"95 Market Street, Dalton-in-Furness, LA15 8DL, United Kingdom","Country":"GBR","State":"England","County":"Cumbria","City":"Dalton-in-Furness","District":"Dalton-in-Furness","Street":"Market Street","HouseNumber":"95","PostalCode":"LA15 8DL","AdditionalData":[{"value":"United Kingdom","key":"CountryName"},{"value":"England","key":"StateName"},{"value":"Cumbria","key":"CountyName"}]},"MapReference":{"ReferenceId":"27431438","Spot":0.56,"SideOfStreet":"left","StateId":"20248595","CountyId":"20339026","CityId":"20346306","DistrictId":"20346307"}}},{"Relevance":1.0,"Distance":76.3,"MatchLevel":"street","MatchQuality":{"Country":1.0,"State":1.0,"County":1.0,"City":1.0,"District":1.0,"Street":[1.0],"PostalCode":1.0},"Location":{"LocationId":"NT_t3Uc-.rBw0R9E89LjntO1B_l_585760867_R","LocationType":"point","DisplayPosition":{"Latitude":54.15515,"Longitude":-3.17954},"MapView":{"TopLeft":{"Latitude":54.15515,"Longitude":-3.17954},"BottomRight":{"Latitude":54.15506,"Longitude":-3.17927}},"Address":{"Label":"Station Road, Dalton-in-Furness, LA15 8, United Kingdom","Country":"GBR","State":"England","County":"Cumbria","City":"Dalton-in-Furness","District":"Dalton-in-Furness","Street":"Station Road","PostalCode":"LA15 8","AdditionalData":[{"value":"United Kingdom","key":"CountryName"},{"value":"England","key":"StateName"},{"value":"Cumbria","key":"CountyName"}]},"MapReference":{"ReferenceId":"585760867","Spot":1.0,"SideOfStreet":"right","StateId":"20248595","CountyId":"20339026","CityId":"20346306","DistrictId":"20346307"}}}]}]}}