{"Response":{"MetaInfo":{"Timestamp":"2020-03-28T10:05:35.811+0000","NextPageInformation":"2"},"View":[{"_type":"SearchResultsViewType","ViewId":0,"Result":[{"Relevance":1.0,"Distance":0.0,"Direction":0.0,"MatchLevel":"district","MatchQuality":{"Country":1.0,"State":1.0,"County":1.0,"City":1.0,"District":1.0,"PostalCode":1.0},"Location":{"LocationId":"NT_t7syuQCxfqD3TszUuNZ1sB","LocationType":"point","DisplayPosition":{"Latitude":54.1065509,"Longitude":10.8114122},"MapView":{"TopLeft":{"Latitude":54.1196,"Longitude":10.78408},"BottomRight":{"Latitude":54.0884,"Longitude":10.83769}},"Address":{"Label":"Neustadt in Holstein, Schleswig-Holstein, Deutschland","Country":"DEU","State":"Schleswig-Holstein","County":"Ostholstein","City":"Neustadt in Holstein","District":"Neustadt in Holstein","PostalCode":"23730","AdditionalData":[{"value":"Deutschland","key":"CountryName"},{"value":"Schleswig-Holstein","key":"StateName"},{"value":"Ostholstein","key":"CountyName"}]},"MapReference":{"ReferenceId":"1007238833","SideOfStreet":"neither","CountryId":"20147700","StateId":"20147701","CountyId":"20148990","CityId":"20149109","DistrictId":"20149112"}}},{"Relevance":1.0,"Distance":10.2,"MatchLevel":"houseNumber","MatchQuality":{"Country":1.0,"State":1.0,"County":1.0,"City":1.0,"District":1.0,"Street":[1.0],"HouseNumber":1.0,"PostalCode":1.0},"MatchType":"interpolated","Location":{"LocationId":"NT_AgulQ79-SGXIjCc.PBN6iC_xA","LocationType":"point","DisplayPosition":{"Latitude":54.10644,"Longitude":10.81132},"MapView":{"TopLeft":{"Latitude":54.1075642,"Longitude":10.8094026},"BottomRight":{"Latitude":54.1053158,"Longitude":10.8132374}},"Address":{"Label":"Schiffbrücke 1, 23730 Neustadt in Holstein, Deutschland","Country":"DEU","State":"Schleswig-Holstein","County":"Ostholstein","City":"Neustadt in Holstein","District":"Neustadt in Holstein","Street":"Schiffbrücke","HouseNumber":"1","PostalCode":"23730","AdditionalData":[{"value":"Deutschland","key":"CountryName"},{"value":"Schleswig-Holstein","key":"StateName"},{"value":"Ostholstein","key":"CountyName"}]},"MapReference":{"ReferenceId":"1052026867","Spot":0.52,"SideOfStreet":"right","CountryId":"20147700","StateId":"20147701","CountyId":"20148990","CityId":"20149109","DistrictId":"20149112","AddressId":"195958123","RoadLinkId":"371665691"}}},{"Relevance":1.0,"Distance":27.7,"MatchLevel":"street","MatchQuality":{"Country":1.0,"State":1.0,"County":1.0,"City":1.0,"District":1.0,"Street":[1.0],"PostalCode":1.0},"Location":{"LocationId":"NT_34XuIf1uy1RmWN-xh9v-ZB_l_539184563_R","LocationType":"point","DisplayPosition":{"Latitude":54.1063387,"Longitude":10.8111888},"MapView":{"TopLeft":{"Latitude":54.10672,"Longitude":10.81074},"BottomRight":{"Latitude":54.10602,"Longitude":10.81145}},"Address":{"Label":"Schiffbrücke, 23730 Neustadt in Holstein, Deutschland","Country":"DEU","State":"Schleswig-Holstein","County":"Ostholstein","City":"Neustadt in Holstein","District":"Neustadt in Holstein","Street":"Schiffbrücke","PostalCode":"23730","AdditionalData":[{"value":"Deutschland","key":"CountryName"},{"value":"Schleswig-Holstein","key":"StateName"},{"value":"Ostholstein","key":"CountyName"}]},"MapReference":{"ReferenceId":"539184563","Spot":0.41,"SideOfStreet":"right","CountryId":"20147700","StateId":"20147701","CountyId":"20148990","CityId":"20149109","DistrictId":"20149112"}}},{"Relevance":1.0,"Distance":29.7,"MatchLevel":"houseNumber","MatchQuality":{"Country":1.0,"State":1.0,"County":1.0,"City":1.0,"District":1.0,"Street":[1.0],"HouseNumber":1.0,"PostalCode":1.0},"MatchType":"interpolated","Location":{"LocationId":"NT_4ALZ6AC3kW1Mfd1GCg8l3C_ykD","LocationType":"point","DisplayPosition":{"Latitude":54.10683,"Longitude":10.81099},"MapView":{"TopLeft":{"Latitude":54.1079542,"Longitude":10.8090726},"BottomRight":{"Latitude":54.1057058,"Longitude":10.8129074}},"Address":{"Label":"Brückstraße 29, 23730 Neustadt in Holstein, Deutschland","Country":"DEU","State":"Schleswig-Holstein","County":"Ostholstein","City":"Neustadt in Holstein","District":"Neustadt in Holstein","Street":"Brückstraße","HouseNumber":"29","PostalCode":"23730","AdditionalData":[{"value":"Deutschland","key":"CountryName"},{"value":"Schleswig-Holstein","key":"StateName"},{"value":"Ostholstein","key":"CountyName"}]},"MapReference":{"ReferenceId":"539183647","Spot":1.0,"SideOfStreet":"right","CountryId":"20147700","StateId":"20147701","CountyId":"20148990","CityId":"20149109","DistrictId":"20149112","AddressId":"196295400","RoadLinkId":"36544143"}}},{"Relevance":1.0,"Distance":33.1,"MatchLevel":"houseNumber","MatchQuality":{"Country":1.0,"State":1.0,"County":1.0,"City":1.0,"District":1.0,"Street":[1.0],"HouseNumber":1.0,"PostalCode":1.0},"MatchType":"interpolated","Location":{"LocationId":"NT_4ALZ6AC3kW1Mfd1GCg8l3C_ycD","LocationType":"point","DisplayPosition":{"Latitude":54.10686,"Longitude":10.81115},"MapView":{"TopLeft":{"Latitude":54.1079842,"Longitude":10.8092326},"BottomRight":{"Latitude":54.1057358,"Longitude":10.8130674}},"Address":{"Label":"Brückstraße 27, 23730 Neustadt in Holstein, Deutschland","Country":"DEU","State":"Schleswig-Holstein","County":"Ostholstein","City":"Neustadt in Holstein","District":"Neustadt in Holstein","Street":"Brückstraße","HouseNumber":"27","PostalCode":"23730","AdditionalData":[{"value":"Deutschland","key":"CountryName"},{"value":"Schleswig-Holstein","key":"StateName"},{"value":"Ostholstein","key":"CountyName"}]},"MapReference":{"ReferenceId":"1052026865","Spot":1.0,"SideOfStreet":"right","CountryId":"20147700","StateId":"20147701","CountyId":"20148990","CityId":"20149109","DistrictId":"20149112","AddressId":"193480121","RoadLinkId":"371665689"}}},{"Relevance":1.0,"Distance":36.7,"MatchLevel":"houseNumber","MatchQuality":{"Country":1.0,"State":1.0,"County":1.0,"City":1.0,"District":1.0,"Street":[1.0],"HouseNumber":1.0,"PostalCode":1.0},"MatchType":"interpolated","Location":{"LocationId":"NT_4ALZ6AC3kW1Mfd1GCg8l3C_yUD","LocationType":"point","DisplayPosition":{"Latitude":54.10692,"Longitude":10.81143},"MapView":{"TopLeft":{"Latitude":54.1080442,"Longitude":10.8095126},"BottomRight":{"Latitude":54.1057958,"Longitude":10.8133474}},"Address":{"Label":"Brückstraße 25, 23730 Neustadt in Holstein, Deutschland","Country":"DEU","State":"Schleswig-Holstein","County":"Ostholstein","City":"Neustadt in Holstein","District":"Neustadt in Holstein","Street":"Brückstraße","HouseNumber":"25","PostalCode":"23730","AdditionalData":[{"value":"Deutschland","key":"CountryName"},{"value":"Schleswig-Holstein","key":"StateName"},{"value":"Ostholstein","key":"CountyName"}]},"MapReference":{"ReferenceId":"1052026866","Spot":0.23,"SideOfStreet":"right","CountryId":"20147700","StateId":"20147701","CountyId":"20148990","CityId":"20149109","DistrictId":"20149112","AddressId":"192538117","RoadLinkId":"371665690"}}},{"Relevance":1.0,"Distance":38.5,"MatchLevel":"street","MatchQuality":{"Country":1.0,"State":1.0,"County":1.0,"City":1.0,"District":1.0,"PostalCode":1.0},"Location":{"LocationId":"NT_L4Mn5AhDicA7BP4DK7qsRB_l_1051748349_R","LocationType":"point","DisplayPosition":{"Latitude":54.1062505,"Longitude":10.811119},"MapView":{"TopLeft":{"Latitude":54.1067,"Longitude":10.81052},"BottomRight":{"Latitude":54.10527,"Longitude":10.8113}},"Address":{"Label":"23730 Neustadt in Holstein, Deutschland","Country":"DEU","State":"Schleswig-Holstein","County":"Ostholstein","City":"Neustadt in Holstein","District":"Neustadt in Holstein","PostalCode":"23730","AdditionalData":[{"value":"Deutschland","key":"CountryName"},{"value":"Schleswig-Holstein","key":"StateName"},{"value":"Ostholstein","key":"CountyName"}]},"MapReference":{"ReferenceId":"1051748349","Spot":0.57,"SideOfStreet":"right","CountryId":"20147700","StateId":"20147701","CountyId":"20148990","CityId":"20149109","DistrictId":"20149112"}}},{"Relevance":1.0,"Distance":46.0,"MatchLevel":"landmark","MatchQuality":{"Country":1.0,"State":1.0,"County":1.0,"City":1.0,"PostalCode":1.0,"Name":1.0},"Location":{"LocationId":"NT_ce7T5cJzttjb5ThSLY91QC","LocationType":"bayHarbor","Name":"Hafen","DisplayPosition":{"Latitude":54.10141,"Longitude":10.81358},"MapView":{"TopLeft":{"Latitude":54.10664,"Longitude":10.81014},"BottomRight":{"Latitude":54.09617,"Longitude":10.81498}},"Address":{"Label":"23730 Neustadt in Holstein, Deutschland","Country":"DEU","State":"Schleswig-Holstein","County":"Ostholstein","City":"Neustadt in Holstein","PostalCode":"23730","AdditionalData":[{"value":"Deutschland","key":"CountryName"},{"value":"Schleswig-Holstein","key":"StateName"},{"value":"Ostholstein","key":"CountyName"}]},"MapReference":{"CountryId":"20147700","StateId":"20147701","CountyId":"20148990","CityId":"20149109","PlaceId":"50338616"}}},{"Relevance":1.0,"Distance":47.5,"MatchLevel":"houseNumber","MatchQuality":{"Country":1.0,"State":1.0,"County":1.0,"City":1.0,"District":1.0,"Street":[1.0],"HouseNumber":1.0,"PostalCode":1.0},"MatchType":"interpolated","Location":{"LocationId":"NT_NW8nddwxeYqdUSr2zIuC.A_xQTQ","LocationType":"point","DisplayPosition":{"Latitude":54.10605,"Longitude":10.81196},"MapView":{"TopLeft":{"Latitude":54.1071742,"Longitude":10.8100426},"BottomRight":{"Latitude":54.1049258,"Longitude":10.8138774}},"Address":{"Label":"Fischerstraße 14A, 23730 Neustadt in Holstein, Deutschland","Country":"DEU","State":"Schleswig-Holstein","County":"Ostholstein","City":"Neustadt in Holstein","District":"Neustadt in Holstein","Street":"Fischerstraße","HouseNumber":"14A","PostalCode":"23730","AdditionalData":[{"value":"Deutschland","key":"CountryName"},{"value":"Schleswig-Holstein","key":"StateName"},{"value":"Ostholstein","key":"CountyName"}]},"MapReference":{"ReferenceId":"540638327","Spot":0.18,"SideOfStreet":"left","CountryId":"20147700","StateId":"20147701","CountyId":"20148990","CityId":"20149109","DistrictId":"20149112","AddressId":"194830135","RoadLinkId":"37167054"}}},{"Relevance":1.0,"Distance":47.7,"MatchLevel":"street","MatchQuality":{"Country":1.0,"State":1.0,"County":1.0,"City":1.0,"District":1.0,"Street":[1.0],"PostalCode":1.0},"Location":{"LocationId":"NT_34XuIf1uy1RmWN-xh9v-ZB_l_572228215_R","LocationType":"point","DisplayPosition":{"Latitude":54.10672,"Longitude":10.81074},"MapView":{"TopLeft":{"Latitude":54.10672,"Longitude":10.81052},"BottomRight":{"Latitude":54.1067,"Longitude":10.81074}},"Address":{"Label":"Vor dem Brücktor, 23730 Neustadt in Holstein, Deutschland","Country":"DEU","State":"Schleswig-Holstein","County":"Ostholstein","City":"Neustadt in Holstein","District":"Neustadt in Holstein","Street":"Vor dem Brücktor","PostalCode":"23730","AdditionalData":[{"value":"Deutschland","key":"CountryName"},{"value":"Schleswig-Holstein","key":"StateName"},{"value":"Ostholstein","key":"CountyName"}]},"MapReference":{"ReferenceId":"572228215","Spot":1.0,"SideOfStreet":"right","CountryId":"20147700","StateId":"20147701","CountyId":"20148990","CityId":"20149109","DistrictId":"20149112"}}}]}]}}