{"Response":{"MetaInfo":{"Timestamp":"2020-03-28T11:29:40.840+0000","NextPageInformation":"2"},"View":[{"_type":"SearchResultsViewType","ViewId":0,"Result":[{"Relevance":1.0,"Distance":0.0,"Direction":0.0,"MatchLevel":"district","MatchQuality":{"Country":1.0,"State":1.0,"County":1.0,"City":1.0,"District":1.0,"PostalCode":1.0},"Location":{"LocationId":"NT_aMe0LfaBO8rYUTx4TKU9UA","LocationType":"point","DisplayPosition":{"Latitude":54.1716241,"Longitude":19.4276207},"MapView":{"TopLeft":{"Latitude":54.22666,"Longitude":19.35887},"BottomRight":{"Latitude":54.1346,"Longitude":19.48097}},"Address":{"Label":"Elbląg, Woj. Warmińsko-Mazurskie, Polska","Country":"POL","State":"Woj. Warmińsko-Mazurskie","County":"Elbląg","City":"Elbląg","District":"Elbląg","PostalCode":"82-300","AdditionalData":[{"value":"Polska","key":"CountryName"},{"value":"Woj. Warmińsko-Mazurskie","key":"StateName"},{"value":"Elbląg","key":"CountyName"}]},"MapReference":{"ReferenceId":"917399216","SideOfStreet":"neither","CountryId":"20624059","StateId":"20629651","CountyId":"20629652","CityId":"20629653","DistrictId":"20646648"}}},{"Relevance":1.0,"Distance":47.3,"MatchLevel":"houseNumber","MatchQuality":{"Country":1.0,"State":1.0,"County":1.0,"City":1.0,"District":1.0,"Street":[1.0],"HouseNumber":1.0,"PostalCode":1.0},"MatchType":"interpolated","Location":{"LocationId":"NT_WmTHR.rrro0FoR0u75iW5A_xcTQ","LocationType":"point","DisplayPosition":{"Latitude":54.17038,"Longitude":19.42769},"MapView":{"TopLeft":{"Latitude":54.1715042,"Longitude":19.4257696},"BottomRight":{"Latitude":54.1692558,"Longitude":19.4296104}},"Address":{"Label":"ulica Toruńska 17A, 82-300 Elbląg, Polska","Country":"POL","State":"Woj. Warmińsko-Mazurskie","County":"Elbląg","City":"Elbląg","District":"Elbląg","Street":"ulica Toruńska","HouseNumber":"17A","PostalCode":"82-300","AdditionalData":[{"value":"Polska","key":"CountryName"},{"value":"Woj. Warmińsko-Mazurskie","key":"StateName"},{"value":"Elbląg","key":"CountyName"}]},"MapReference":{"ReferenceId":"594989295","Spot":0.24,"SideOfStreet":"right","CountryId":"20624059","StateId":"20629651","CountyId":"20629652","CityId":"20629653","DistrictId":"20646648","AddressId":"210534545","RoadLinkId":"95304817"}}},{"Relevance":1.0,"Distance":98.1,"MatchLevel":"street","MatchQuality":{"Country":1.0,"State":1.0,"County":1.0,"City":1.0,"District":1.0,"PostalCode":1.0},"Location":{"LocationId":"NT_jV6bD4XmEiNL7BEabSa2EB_l_1133016162_L","LocationType":"point","DisplayPosition":{"Latitude":54.1709751,"Longitude":19.4286405},"MapView":{"TopLeft":{"Latitude":54.17099,"Longitude":19.42855},"BottomRight":{"Latitude":54.17031,"Longitude":19.42883}},"Address":{"Label":"82-300 Elbląg, Polska","Country":"POL","State":"Woj. Warmińsko-Mazurskie","County":"Elbląg","City":"Elbląg","District":"Elbląg","PostalCode":"82-300","AdditionalData":[{"value":"Polska","key":"CountryName"},{"value":"Woj. Warmińsko-Mazurskie","key":"StateName"},{"value":"Elbląg","key":"CountyName"}]},"MapReference":{"ReferenceId":"1133016162","Spot":0.98,"SideOfStreet":"left","CountryId":"20624059","StateId":"20629651","CountyId":"20629652","CityId":"20629653","DistrictId":"20646648"}}},{"Relevance":1.0,"Distance":176.1,"MatchLevel":"houseNumber","MatchQuality":{"Country":1.0,"State":1.0,"County":1.0,"City":1.0,"District":1.0,"Street":[1.0],"HouseNumber":1.0,"PostalCode":1.0},"MatchType":"interpolated","Location":{"LocationId":"NT_ej26yURY5f8A2EbwBv6loD_xED","LocationType":"point","DisplayPosition":{"Latitude":54.17013,"Longitude":19.42874},"MapView":{"TopLeft":{"Latitude":54.1712542,"Longitude":19.4268196},"BottomRight":{"Latitude":54.1690058,"Longitude":19.4306604}},"Address":{"Label":"ulica Grudziądzka 11, 82-300 Elbląg, Polska","Country":"POL","State":"Woj. Warmińsko-Mazurskie","County":"Elbląg","City":"Elbląg","District":"Elbląg","Street":"ulica Grudziądzka","HouseNumber":"11","PostalCode":"82-300","AdditionalData":[{"value":"Polska","key":"CountryName"},{"value":"Woj. Warmińsko-Mazurskie","key":"StateName"},{"value":"Elbląg","key":"CountyName"}]},"MapReference":{"ReferenceId":"594989512","Spot":0.84,"SideOfStreet":"left","CountryId":"20624059","StateId":"20629651","CountyId":"20629652","CityId":"20629653","DistrictId":"20646648","AddressId":"211469707","RoadLinkId":"94951830"}}},{"Relevance":1.0,"Distance":179.9,"MatchLevel":"houseNumber","MatchQuality":{"Country":1.0,"State":1.0,"County":1.0,"City":1.0,"District":1.0,"Street":[1.0],"HouseNumber":1.0,"PostalCode":1.0},"MatchType":"interpolated","Location":{"LocationId":"NT_xydyCLEAtgoH-9Xq-ukUaA_xcD","LocationType":"point","DisplayPosition":{"Latitude":54.16974,"Longitude":19.42737},"MapView":{"TopLeft":{"Latitude":54.1708642,"Longitude":19.4254496},"BottomRight":{"Latitude":54.1686158,"Longitude":19.4292904}},"Address":{"Label":"ulica Bydgoska 17, 82-300 Elbląg, Polska","Country":"POL","State":"Woj. Warmińsko-Mazurskie","County":"Elbląg","City":"Elbląg","District":"Elbląg","Street":"ulica Bydgoska","HouseNumber":"17","PostalCode":"82-300","AdditionalData":[{"value":"Polska","key":"CountryName"},{"value":"Woj. Warmińsko-Mazurskie","key":"StateName"},{"value":"Elbląg","key":"CountyName"}]},"MapReference":{"ReferenceId":"1131402400","Spot":0.1,"SideOfStreet":"right","CountryId":"20624059","StateId":"20629651","CountyId":"20629652","CityId":"20629653","DistrictId":"20646648","AddressId":"209523727","RoadLinkId":"441396212"}}},{"Relevance":1.0,"Distance":182.4,"MatchLevel":"houseNumber","MatchQuality":{"Country":1.0,"State":1.0,"County":1.0,"City":1.0,"District":1.0,"Street":[1.0],"HouseNumber":1.0,"PostalCode":1.0},"MatchType":"interpolated","Location":{"LocationId":"NT_GptYoeygZSKPIMxqogCsBB_xEjM","LocationType":"point","DisplayPosition":{"Latitude":54.17094,"Longitude":19.42445},"MapView":{"TopLeft":{"Latitude":54.1720642,"Longitude":19.4225296},"BottomRight":{"Latitude":54.1698158,"Longitude":19.4263704}},"Address":{"Label":"ulica Tadeusza Kościuszki 112, 82-300 Elbląg, Polska","Country":"POL","State":"Woj. Warmińsko-Mazurskie","County":"Elbląg","City":"Elbląg","District":"Elbląg","Street":"ulica Tadeusza Kościuszki","HouseNumber":"112","PostalCode":"82-300","AdditionalData":[{"value":"Polska","key":"CountryName"},{"value":"Woj. Warmińsko-Mazurskie","key":"StateName"},{"value":"Elbląg","key":"CountyName"}]},"MapReference":{"ReferenceId":"744909513","Spot":0.35,"SideOfStreet":"right","CountryId":"20624059","StateId":"20629651","CountyId":"20629652","CityId":"20629653","DistrictId":"20646648","AddressId":"221991955","RoadLinkId":"142810127"}}},{"Relevance":1.0,"Distance":182.8,"MatchLevel":"houseNumber","MatchQuality":{"Country":1.0,"State":1.0,"County":1.0,"City":1.0,"District":1.0,"Street":[1.0],"HouseNumber":1.0,"PostalCode":1.0},"MatchType":"interpolated","Location":{"LocationId":"NT_xydyCLEAtgoH-9Xq-ukUaA_xkD","LocationType":"point","DisplayPosition":{"Latitude":54.16974,"Longitude":19.42764},"MapView":{"TopLeft":{"Latitude":54.1708642,"Longitude":19.4257196},"BottomRight":{"Latitude":54.1686158,"Longitude":19.4295604}},"Address":{"Label":"ulica Bydgoska 19, 82-300 Elbląg, Polska","Country":"POL","State":"Woj. Warmińsko-Mazurskie","County":"Elbląg","City":"Elbląg","District":"Elbląg","Street":"ulica Bydgoska","HouseNumber":"19","PostalCode":"82-300","AdditionalData":[{"value":"Polska","key":"CountryName"},{"value":"Woj. Warmińsko-Mazurskie","key":"StateName"},{"value":"Elbląg","key":"CountyName"}]},"MapReference":{"ReferenceId":"594989427","Spot":0.27,"SideOfStreet":"left","CountryId":"20624059","StateId":"20629651","CountyId":"20629652","CityId":"20629653","DistrictId":"20646648","AddressId":"210860609","RoadLinkId":"95284184"}}},{"Relevance":1.0,"Distance":207.0,"MatchLevel":"street","MatchQuality":{"Country":1.0,"State":1.0,"County":1.0,"City":1.0,"District":1.0,"Street":[1.0],"PostalCode":1.0},"Location":{"LocationId":"NT_GptYoeygZSKPIMxqogCsBB_l_917322405_R","LocationType":"point","DisplayPosition":{"Latitude":54.17161,"Longitude":19.42444},"MapView":{"TopLeft":{"Latitude":54.17171,"Longitude":19.42443},"BottomRight":{"Latitude":54.17161,"Longitude":19.42444}},"Address":{"Label":"ulica Tadeusza Kościuszki, 82-300 Elbląg, Polska","Country":"POL","State":"Woj. Warmińsko-Mazurskie","County":"Elbląg","City":"Elbląg","District":"Elbląg","Street":"ulica Tadeusza Kościuszki","PostalCode":"82-300","AdditionalData":[{"value":"Polska","key":"CountryName"},{"value":"Woj. Warmińsko-Mazurskie","key":"StateName"},{"value":"Elbląg","key":"CountyName"}]},"MapReference":{"ReferenceId":"917322405","Spot":0.0,"SideOfStreet":"right","CountryId":"20624059","StateId":"20629651","CountyId":"20629652","CityId":"20629653","DistrictId":"20646648"}}},{"Relevance":1.0,"Distance":207.9,"MatchLevel":"street","MatchQuality":{"Country":1.0,"State":1.0,"County":1.0,"City":1.0,"District":1.0,"Street":[1.0],"PostalCode":1.0},"Location":{"LocationId":"NT_GptYoeygZSKPIMxqogCsBB_l_917322406_R","LocationType":"point","DisplayPosition":{"Latitude":54.17171,"Longitude":19.42443},"MapView":{"TopLeft":{"Latitude":54.17271,"Longitude":19.42428},"BottomRight":{"Latitude":54.17171,"Longitude":19.42443}},"Address":{"Label":"ulica Tadeusza Kościuszki, 82-300 Elbląg, Polska","Country":"POL","State":"Woj. Warmińsko-Mazurskie","County":"Elbląg","City":"Elbląg","District":"Elbląg","Street":"ulica Tadeusza Kościuszki","PostalCode":"82-300","AdditionalData":[{"value":"Polska","key":"CountryName"},{"value":"Woj. Warmińsko-Mazurskie","key":"StateName"},{"value":"Elbląg","key":"CountyName"}]},"MapReference":{"ReferenceId":"917322406","Spot":0.0,"SideOfStreet":"right","CountryId":"20624059","StateId":"20629651","CountyId":"20629652","CityId":"20629653","DistrictId":"20646648"}}},{"Relevance":1.0,"Distance":209.7,"MatchLevel":"street","MatchQuality":{"Country":1.0,"State":1.0,"County":1.0,"City":1.0,"District":1.0,"PostalCode":1.0},"Location":{"LocationId":"NT_jV6bD4XmEiNL7BEabSa2EB_l_594989509_R","LocationType":"point","DisplayPosition":{"Latitude":54.16974,"Longitude":19.42748},"MapView":{"TopLeft":{"Latitude":54.16974,"Longitude":19.42745},"BottomRight":{"Latitude":54.16929,"Longitude":19.42748}},"Address":{"Label":"82-300 Elbląg, Polska","Country":"POL","State":"Woj. Warmińsko-Mazurskie","County":"Elbląg","City":"Elbląg","District":"Elbląg","PostalCode":"82-300","AdditionalData":[{"value":"Polska","key":"CountryName"},{"value":"Woj. Warmińsko-Mazurskie","key":"StateName"},{"value":"Elbląg","key":"CountyName"}]},"MapReference":{"ReferenceId":"594989509","Spot":1.0,"SideOfStreet":"right","CountryId":"20624059","StateId":"20629651","CountyId":"20629652","CityId":"20629653","DistrictId":"20646648"}}}]}]}}