{"Response":{"MetaInfo":{"Timestamp":"2020-03-28T11:55:38.853+0000","NextPageInformation":"2"},"View":[{"_type":"SearchResultsViewType","ViewId":0,"Result":[{"Relevance":1.0,"Distance":-126.5,"MatchLevel":"landmark","MatchQuality":{"Country":1.0,"Name":1.0},"Location":{"LocationId":"NT_cmCimu-6VQBcDqSe9cTXsC","LocationType":"island","Name":"Isle of Man","DisplayPosition":{"Latitude":54.23581,"Longitude":-4.51481},"MapView":{"TopLeft":{"Latitude":54.41819,"Longitude":-4.7944},"BottomRight":{"Latitude":54.05342,"Longitude":-4.30771}},"Address":{"Label":"Isle of Man","Country":"IMN","AdditionalData":[{"value":"Isle of Man","key":"CountryName"}]},"MapReference":{"CountryId":"20486695","PlaceId":"546442586"}}},{"Relevance":1.0,"Distance":0.0,"Direction":0.0,"MatchLevel":"district","MatchQuality":{"Country":1.0,"City":1.0,"District":1.0,"PostalCode":1.0},"Location":{"LocationId":"NT_N7.38wksYyN.rPSnrmUcFD","LocationType":"point","DisplayPosition":{"Latitude":54.1506975,"Longitude":-4.4788836},"MapView":{"TopLeft":{"Latitude":54.18313,"Longitude":-4.53929},"BottomRight":{"Latitude":54.1405,"Longitude":-4.46117}},"Address":{"Label":"Douglas, Isle of Man","Country":"IMN","City":"Douglas","District":"Douglas","PostalCode":"IM1 2","AdditionalData":[{"value":"Isle of Man","key":"CountryName"}]},"MapReference":{"ReferenceId":"792860156","SideOfStreet":"neither","CountryId":"20486695","CityId":"20486714","DistrictId":"20486761"}}},{"Relevance":1.0,"Distance":3.1,"MatchLevel":"houseNumber","MatchQuality":{"Country":1.0,"City":1.0,"District":1.0,"Street":[1.0],"HouseNumber":1.0,"PostalCode":1.0},"MatchType":"interpolated","Location":{"LocationId":"NT_zrMWyyoEuO8MyPeI2-EoTC_l_565922516_R_yQD","LocationType":"point","DisplayPosition":{"Latitude":54.1506721,"Longitude":-4.4789047},"MapView":{"TopLeft":{"Latitude":54.1517963,"Longitude":-4.4808242},"BottomRight":{"Latitude":54.149548,"Longitude":-4.4769852}},"Address":{"Label":"24, Strand Street, Douglas, IM1 2, Isle of Man","Country":"IMN","City":"Douglas","District":"Douglas","Street":"Strand Street","HouseNumber":"24","PostalCode":"IM1 2","AdditionalData":[{"value":"Isle of Man","key":"CountryName"}]},"MapReference":{"ReferenceId":"565922516","Spot":0.48,"SideOfStreet":"right","CountryId":"20486695","CityId":"20486714","DistrictId":"20486761"}}},{"Relevance":1.0,"Distance":40.3,"MatchLevel":"street","MatchQuality":{"Country":1.0,"City":1.0,"District":1.0,"Street":[1.0],"PostalCode":1.0},"Location":{"LocationId":"NT_cTbYWdVwDTpvupv69u.jWC_l_1164346619_L","LocationType":"point","DisplayPosition":{"Latitude":54.1509217,"Longitude":-4.4783977},"MapView":{"TopLeft":{"Latitude":54.15129,"Longitude":-4.47856},"BottomRight":{"Latitude":54.15017,"Longitude":-4.47805}},"Address":{"Label":"Villiers Lane, Douglas, IM1 2, Isle of Man","Country":"IMN","City":"Douglas","District":"Douglas","Street":"Villiers Lane","PostalCode":"IM1 2","AdditionalData":[{"value":"Isle of Man","key":"CountryName"}]},"MapReference":{"ReferenceId":"1164346619","Spot":0.68,"SideOfStreet":"left","CountryId":"20486695","CityId":"20486714","DistrictId":"20486761"}}},{"Relevance":1.0,"Distance":59.7,"MatchLevel":"street","MatchQuality":{"Country":1.0,"City":1.0,"District":1.0,"Street":[1.0],"PostalCode":1.0},"Location":{"LocationId":"NT_AExGubZ6T1TI9W6O0tTWfA_l_1235382211_R","LocationType":"point","DisplayPosition":{"Latitude":54.1501604,"Longitude":-4.4789092},"MapView":{"TopLeft":{"Latitude":54.15017,"Longitude":-4.47911},"BottomRight":{"Latitude":54.15015,"Longitude":-4.47869}},"Address":{"Label":"Drumgold Street, Douglas, IM1 2, Isle of Man","Country":"IMN","City":"Douglas","District":"Douglas","Street":"Drumgold Street","PostalCode":"IM1 2","AdditionalData":[{"value":"Isle of Man","key":"CountryName"}]},"MapReference":{"ReferenceId":"1235382211","Spot":0.52,"SideOfStreet":"right","CountryId":"20486695","CityId":"20486714","DistrictId":"20486761"}}},{"Relevance":1.0,"Distance":62.2,"MatchLevel":"street","MatchQuality":{"Country":1.0,"City":1.0,"District":1.0,"Street":[1.0],"PostalCode":1.0},"Location":{"LocationId":"NT_cALmLuW4ggDhc6PVS1r2IB_l_565922704_R","LocationType":"point","DisplayPosition":{"Latitude":54.15015,"Longitude":-4.47869},"MapView":{"TopLeft":{"Latitude":54.15015,"Longitude":-4.47869},"BottomRight":{"Latitude":54.1498,"Longitude":-4.47856}},"Address":{"Label":"Duke Street, Douglas, IM1 2, Isle of Man","Country":"IMN","City":"Douglas","District":"Douglas","Street":"Duke Street","PostalCode":"IM1 2","AdditionalData":[{"value":"Isle of Man","key":"CountryName"}]},"MapReference":{"ReferenceId":"565922704","Spot":1.0,"SideOfStreet":"right","CountryId":"20486695","CityId":"20486714","DistrictId":"20486761"}}},{"Relevance":1.0,"Distance":62.2,"MatchLevel":"street","MatchQuality":{"Country":1.0,"City":1.0,"District":1.0,"Street":[1.0],"PostalCode":1.0},"Location":{"LocationId":"NT_MyPXB7cCLB6rhAR8gUXUKB_l_1164346617_L","LocationType":"point","DisplayPosition":{"Latitude":54.15015,"Longitude":-4.47869},"MapView":{"TopLeft":{"Latitude":54.15017,"Longitude":-4.47869},"BottomRight":{"Latitude":54.15015,"Longitude":-4.47805}},"Address":{"Label":"Regent Street, Douglas, IM1 2, Isle of Man","Country":"IMN","City":"Douglas","District":"Douglas","Street":"Regent Street","PostalCode":"IM1 2","AdditionalData":[{"value":"Isle of Man","key":"CountryName"}]},"MapReference":{"ReferenceId":"1164346617","Spot":0.0,"SideOfStreet":"left","CountryId":"20486695","CityId":"20486714","DistrictId":"20486761"}}},{"Relevance":1.0,"Distance":64.2,"MatchLevel":"street","MatchQuality":{"Country":1.0,"City":1.0,"District":1.0,"Street":[1.0],"PostalCode":1.0},"Location":{"LocationId":"NT_u1mfFo0Vj59zR.Ril9UtoC_l_1164346614_R","LocationType":"point","DisplayPosition":{"Latitude":54.1512748,"Longitude":-4.4789087},"MapView":{"TopLeft":{"Latitude":54.15129,"Longitude":-4.47902},"BottomRight":{"Latitude":54.15127,"Longitude":-4.47856}},"Address":{"Label":"Howard Street, Douglas, IM1 2, Isle of Man","Country":"IMN","City":"Douglas","District":"Douglas","Street":"Howard Street","PostalCode":"IM1 2","AdditionalData":[{"value":"Isle of Man","key":"CountryName"}]},"MapReference":{"ReferenceId":"1164346614","Spot":0.24,"SideOfStreet":"right","CountryId":"20486695","CityId":"20486714","DistrictId":"20486761"}}},{"Relevance":1.0,"Distance":67.4,"MatchLevel":"houseNumber","MatchQuality":{"Country":1.0,"City":1.0,"District":1.0,"Street":[1.0],"HouseNumber":1.0,"PostalCode":1.0},"MatchType":"interpolated","Location":{"LocationId":"NT_u1mfFo0Vj59zR.Ril9UtoC_l_1164346615_R_xA","LocationType":"point","DisplayPosition":{"Latitude":54.1512952,"Longitude":-4.4782218},"MapView":{"TopLeft":{"Latitude":54.1524193,"Longitude":-4.4801413},"BottomRight":{"Latitude":54.150171,"Longitude":-4.4763023}},"Address":{"Label":"1, Howard Street, Douglas, IM1 2, Isle of Man","Country":"IMN","City":"Douglas","District":"Douglas","Street":"Howard Street","HouseNumber":"1","PostalCode":"IM1 2","AdditionalData":[{"value":"Isle of Man","key":"CountryName"}]},"MapReference":{"ReferenceId":"1164346615","Spot":0.51,"SideOfStreet":"right","CountryId":"20486695","CityId":"20486714","DistrictId":"20486761"}}},{"Relevance":1.0,"Distance":67.9,"MatchLevel":"street","MatchQuality":{"Country":1.0,"City":1.0,"District":1.0,"Street":[1.0],"PostalCode":1.0},"Location":{"LocationId":"NT_ADE-Yl35ss2wCNUXseQbiB_l_747235776_R","LocationType":"point","DisplayPosition":{"Latitude":54.1506502,"Longitude":-4.4799236},"MapView":{"TopLeft":{"Latitude":54.15101,"Longitude":-4.48017},"BottomRight":{"Latitude":54.14967,"Longitude":-4.47992}},"Address":{"Label":"Market Street, Douglas, IM1 2, Isle of Man","Country":"IMN","City":"Douglas","District":"Douglas","Street":"Market Street","PostalCode":"IM1 2","AdditionalData":[{"value":"Isle of Man","key":"CountryName"}]},"MapReference":{"ReferenceId":"747235776","Spot":0.74,"SideOfStreet":"right","CountryId":"20486695","CityId":"20486714","DistrictId":"20486761"}}}]}]}}