{"Response":{"MetaInfo":{"Timestamp":"2020-03-28T10:20:44.384+0000","NextPageInformation":"2"},"View":[{"_type":"SearchResultsViewType","ViewId":0,"Result":[{"Relevance":1.0,"Distance":0.0,"Direction":0.0,"MatchLevel":"district","MatchQuality":{"Country":1.0,"State":1.0,"County":1.0,"City":1.0,"District":1.0,"PostalCode":1.0},"Location":{"LocationId":"NT_t7syuQCxfqD3TszUuNZ1sB","LocationType":"point","DisplayPosition":{"Latitude":54.1061634,"Longitude":10.8085896},"MapView":{"TopLeft":{"Latitude":54.1196,"Longitude":10.78408},"BottomRight":{"Latitude":54.0884,"Longitude":10.83769}},"Address":{"Label":"Neustadt in Holstein, Schleswig-Holstein, Deutschland","Country":"DEU","State":"Schleswig-Holstein","County":"Ostholstein","City":"Neustadt in Holstein","District":"Neustadt in Holstein","PostalCode":"23730","AdditionalData":[{"value":"Deutschland","key":"CountryName"},{"value":"Schleswig-Holstein","key":"StateName"},{"value":"Ostholstein","key":"CountyName"}]},"MapReference":{"ReferenceId":"1007238833","SideOfStreet":"neither","CountryId":"20147700","StateId":"20147701","CountyId":"20148990","CityId":"20149109","DistrictId":"20149112"}}},{"Relevance":1.0,"Distance":1.3,"MatchLevel":"houseNumber","MatchQuality":{"Country":1.0,"State":1.0,"County":1.0,"City":1.0,"District":1.0,"Street":[1.0],"HouseNumber":1.0,"PostalCode":1.0},"MatchType":"interpolated","Location":{"LocationId":"NT_C1T.viK.u5cHyBIT34OSHD_l_572228207_R_3A","LocationType":"point","DisplayPosition":{"Latitude":54.1063,"Longitude":10.8086001},"MapView":{"TopLeft":{"Latitude":54.1074242,"Longitude":10.8066826},"BottomRight":{"Latitude":54.1051759,"Longitude":10.8105175}},"Address":{"Label":"Lienaustraße 7, 23730 Neustadt in Holstein, Deutschland","Country":"DEU","State":"Schleswig-Holstein","County":"Ostholstein","City":"Neustadt in Holstein","District":"Neustadt in Holstein","Street":"Lienaustraße","HouseNumber":"7","PostalCode":"23730","AdditionalData":[{"value":"Deutschland","key":"CountryName"},{"value":"Schleswig-Holstein","key":"StateName"},{"value":"Ostholstein","key":"CountyName"}]},"MapReference":{"ReferenceId":"572228207","Spot":0.26,"SideOfStreet":"right","CountryId":"20147700","StateId":"20147701","CountyId":"20148990","CityId":"20149109","DistrictId":"20149112"}}},{"Relevance":1.0,"Distance":41.5,"MatchLevel":"houseNumber","MatchQuality":{"Country":1.0,"State":1.0,"County":1.0,"City":1.0,"District":1.0,"Street":[1.0],"HouseNumber":1.0,"PostalCode":1.0},"MatchType":"interpolated","Location":{"LocationId":"NT_C1T.viK.u5cHyBIT34OSHD_xA","LocationType":"point","DisplayPosition":{"Latitude":54.10625,"Longitude":10.80797},"MapView":{"TopLeft":{"Latitude":54.1073742,"Longitude":10.8060526},"BottomRight":{"Latitude":54.1051258,"Longitude":10.8098874}},"Address":{"Label":"Lienaustraße 1, 23730 Neustadt in Holstein, Deutschland","Country":"DEU","State":"Schleswig-Holstein","County":"Ostholstein","City":"Neustadt in Holstein","District":"Neustadt in Holstein","Street":"Lienaustraße","HouseNumber":"1","PostalCode":"23730","AdditionalData":[{"value":"Deutschland","key":"CountryName"},{"value":"Schleswig-Holstein","key":"StateName"},{"value":"Ostholstein","key":"CountyName"}]},"MapReference":{"ReferenceId":"1188628886","Spot":0.37,"SideOfStreet":"right","CountryId":"20147700","StateId":"20147701","CountyId":"20148990","CityId":"20149109","DistrictId":"20149112","AddressId":"192822594","RoadLinkId":"497545511"}}},{"Relevance":1.0,"Distance":47.7,"MatchLevel":"street","MatchQuality":{"Country":1.0,"State":1.0,"County":1.0,"City":1.0,"District":1.0,"Street":[1.0],"PostalCode":1.0},"Location":{"LocationId":"NT_xD3nPJlWIunOZQA3wdvscA_l_1119467724_L","LocationType":"point","DisplayPosition":{"Latitude":54.10637,"Longitude":10.80923},"MapView":{"TopLeft":{"Latitude":54.10637,"Longitude":10.80923},"BottomRight":{"Latitude":54.10615,"Longitude":10.81009}},"Address":{"Label":"Am Hafen, 23730 Neustadt in Holstein, Deutschland","Country":"DEU","State":"Schleswig-Holstein","County":"Ostholstein","City":"Neustadt in Holstein","District":"Neustadt in Holstein","Street":"Am Hafen","PostalCode":"23730","AdditionalData":[{"value":"Deutschland","key":"CountryName"},{"value":"Schleswig-Holstein","key":"StateName"},{"value":"Ostholstein","key":"CountyName"}]},"MapReference":{"ReferenceId":"1119467724","Spot":1.0,"SideOfStreet":"left","CountryId":"20147700","StateId":"20147701","CountyId":"20148990","CityId":"20149109","DistrictId":"20149112"}}},{"Relevance":1.0,"Distance":60.9,"MatchLevel":"houseNumber","MatchQuality":{"Country":1.0,"State":1.0,"County":1.0,"City":1.0,"District":1.0,"Street":[1.0],"HouseNumber":1.0,"PostalCode":1.0},"MatchType":"interpolated","Location":{"LocationId":"NT_O4l1hDyjQTsk4WSZ1nqY1D_4A","LocationType":"point","DisplayPosition":{"Latitude":54.10641,"Longitude":10.80939},"MapView":{"TopLeft":{"Latitude":54.1075342,"Longitude":10.8074726},"BottomRight":{"Latitude":54.1052858,"Longitude":10.8113074}},"Address":{"Label":"Vor dem Brücktor 8, 23730 Neustadt in Holstein, Deutschland","Country":"DEU","State":"Schleswig-Holstein","County":"Ostholstein","City":"Neustadt in Holstein","District":"Neustadt in Holstein","Street":"Vor dem Brücktor","HouseNumber":"8","PostalCode":"23730","AdditionalData":[{"value":"Deutschland","key":"CountryName"},{"value":"Schleswig-Holstein","key":"StateName"},{"value":"Ostholstein","key":"CountyName"}]},"MapReference":{"ReferenceId":"1188629255","Spot":0.54,"SideOfStreet":"left","CountryId":"20147700","StateId":"20147701","CountyId":"20148990","CityId":"20149109","DistrictId":"20149112","AddressId":"195132510","RoadLinkId":"497545959"}}},{"Relevance":1.0,"Distance":75.8,"MatchLevel":"houseNumber","MatchQuality":{"Country":1.0,"State":1.0,"County":1.0,"City":1.0,"District":1.0,"Street":[1.0],"HouseNumber":1.0,"PostalCode":1.0},"MatchType":"interpolated","Location":{"LocationId":"NT_C1T.viK.u5cHyBIT34OSHD_zA","LocationType":"point","DisplayPosition":{"Latitude":54.10616,"Longitude":10.80737},"MapView":{"TopLeft":{"Latitude":54.1072842,"Longitude":10.8054526},"BottomRight":{"Latitude":54.1050358,"Longitude":10.8092874}},"Address":{"Label":"Lienaustraße 3, 23730 Neustadt in Holstein, Deutschland","Country":"DEU","State":"Schleswig-Holstein","County":"Ostholstein","City":"Neustadt in Holstein","District":"Neustadt in Holstein","Street":"Lienaustraße","HouseNumber":"3","PostalCode":"23730","AdditionalData":[{"value":"Deutschland","key":"CountryName"},{"value":"Schleswig-Holstein","key":"StateName"},{"value":"Ostholstein","key":"CountyName"}]},"MapReference":{"ReferenceId":"1188628885","Spot":0.1,"SideOfStreet":"right","CountryId":"20147700","StateId":"20147701","CountyId":"20148990","CityId":"20149109","DistrictId":"20149112","AddressId":"194408053","RoadLinkId":"497545510"}}},{"Relevance":1.0,"Distance":78.1,"MatchLevel":"houseNumber","MatchQuality":{"Country":1.0,"State":1.0,"County":1.0,"City":1.0,"District":1.0,"Street":[1.0],"HouseNumber":1.0,"PostalCode":1.0},"MatchType":"interpolated","Location":{"LocationId":"NT_O4l1hDyjQTsk4WSZ1nqY1D_0A","LocationType":"point","DisplayPosition":{"Latitude":54.10647,"Longitude":10.80965},"MapView":{"TopLeft":{"Latitude":54.1075942,"Longitude":10.8077326},"BottomRight":{"Latitude":54.1053458,"Longitude":10.8115674}},"Address":{"Label":"Vor dem Brücktor 4, 23730 Neustadt in Holstein, Deutschland","Country":"DEU","State":"Schleswig-Holstein","County":"Ostholstein","City":"Neustadt in Holstein","District":"Neustadt in Holstein","Street":"Vor dem Brücktor","HouseNumber":"4","PostalCode":"23730","AdditionalData":[{"value":"Deutschland","key":"CountryName"},{"value":"Schleswig-Holstein","key":"StateName"},{"value":"Ostholstein","key":"CountyName"}]},"MapReference":{"ReferenceId":"1188632434","Spot":0.3,"SideOfStreet":"left","CountryId":"20147700","StateId":"20147701","CountyId":"20148990","CityId":"20149109","DistrictId":"20149112","AddressId":"193935790","RoadLinkId":"497550266"}}},{"Relevance":1.0,"Distance":84.4,"MatchLevel":"landmark","MatchQuality":{"Country":1.0,"State":1.0,"County":1.0,"Name":1.0},"Location":{"LocationId":"NT_ErMmsxRcbRmLyxjfKPSsvA","LocationType":"lake","Name":"Binnenwasser","DisplayPosition":{"Latitude":54.11889,"Longitude":10.81073},"MapView":{"TopLeft":{"Latitude":54.13093,"Longitude":10.78658},"BottomRight":{"Latitude":54.10685,"Longitude":10.82312}},"Address":{"Label":"Deutschland","Country":"DEU","State":"Schleswig-Holstein","County":"Ostholstein","AdditionalData":[{"value":"Deutschland","key":"CountryName"},{"value":"Schleswig-Holstein","key":"StateName"},{"value":"Ostholstein","key":"CountyName"}]},"MapReference":{"CountryId":"20147700","StateId":"20147701","CountyId":"20148990","PlaceId":"50387545"}}},{"Relevance":1.0,"Distance":86.3,"MatchLevel":"houseNumber","MatchQuality":{"Country":1.0,"State":1.0,"County":1.0,"City":1.0,"District":1.0,"Street":[1.0],"HouseNumber":1.0,"PostalCode":1.0},"MatchType":"interpolated","Location":{"LocationId":"NT_N831BQZ0DgKI5tr1FNmj0D_3A","LocationType":"point","DisplayPosition":{"Latitude":54.10538,"Longitude":10.80857},"MapView":{"TopLeft":{"Latitude":54.1065042,"Longitude":10.8066526},"BottomRight":{"Latitude":54.1042558,"Longitude":10.8104874}},"Address":{"Label":"Bahnhofstraße 7, 23730 Neustadt in Holstein, Deutschland","Country":"DEU","State":"Schleswig-Holstein","County":"Ostholstein","City":"Neustadt in Holstein","District":"Neustadt in Holstein","Street":"Bahnhofstraße","HouseNumber":"7","PostalCode":"23730","AdditionalData":[{"value":"Deutschland","key":"CountryName"},{"value":"Schleswig-Holstein","key":"StateName"},{"value":"Ostholstein","key":"CountyName"}]},"MapReference":{"ReferenceId":"539184574","Spot":0.2,"SideOfStreet":"right","CountryId":"20147700","StateId":"20147701","CountyId":"20148990","CityId":"20149109","DistrictId":"20149112","AddressId":"193967331","RoadLinkId":"36353225"}}},{"Relevance":1.0,"Distance":86.9,"MatchLevel":"houseNumber","MatchQuality":{"Country":1.0,"State":1.0,"County":1.0,"City":1.0,"District":1.0,"Street":[1.0],"HouseNumber":1.0,"PostalCode":1.0},"MatchType":"interpolated","Location":{"LocationId":"NT_xD3nPJlWIunOZQA3wdvscA_yA","LocationType":"point","DisplayPosition":{"Latitude":54.10607,"Longitude":10.81016},"MapView":{"TopLeft":{"Latitude":54.1071942,"Longitude":10.8082426},"BottomRight":{"Latitude":54.1049458,"Longitude":10.8120774}},"Address":{"Label":"Am Hafen 2, 23730 Neustadt in Holstein, Deutschland","Country":"DEU","State":"Schleswig-Holstein","County":"Ostholstein","City":"Neustadt in Holstein","District":"Neustadt in Holstein","Street":"Am Hafen","HouseNumber":"2","PostalCode":"23730","AdditionalData":[{"value":"Deutschland","key":"CountryName"},{"value":"Schleswig-Holstein","key":"StateName"},{"value":"Ostholstein","key":"CountyName"}]},"MapReference":{"ReferenceId":"1119467723","Spot":0.84,"SideOfStreet":"left","CountryId":"20147700","StateId":"20147701","CountyId":"20148990","CityId":"20149109","DistrictId":"20149112","AddressId":"192873413","RoadLinkId":"429612954"}}}]}]}}