{"Response":{"MetaInfo":{"Timestamp":"2020-03-28T09:57:17.215+0000","NextPageInformation":"2"},"View":[{"_type":"SearchResultsViewType","ViewId":0,"Result":[{"Relevance":1.0,"Distance":0.0,"Direction":0.0,"MatchLevel":"district","MatchQuality":{"Country":1.0,"State":1.0,"County":1.0,"City":1.0,"District":1.0,"PostalCode":1.0},"Location":{"LocationId":"NT_mrG9U7JiC45FMIZjMouUOB","LocationType":"point","DisplayPosition":{"Latitude":54.2603908,"Longitude":18.6356674},"MapView":{"TopLeft":{"Latitude":54.27187,"Longitude":18.61011},"BottomRight":{"Latitude":54.23659,"Longitude":18.68775}},"Address":{"Label":"Pruszcz Gdański, Woj. Pomorskie, Polska","Country":"POL","State":"Woj. Pomorskie","County":"Powiat Gdański","City":"Pruszcz Gdański","District":"Pruszcz Gdański","PostalCode":"83-000","AdditionalData":[{"value":"Polska","key":"CountryName"},{"value":"Woj. Pomorskie","key":"StateName"},{"value":"Powiat Gdański","key":"CountyName"}]},"MapReference":{"ReferenceId":"1261055347","SideOfStreet":"neither","CountryId":"20624059","StateId":"20628728","CountyId":"20628784","CityId":"20692501","DistrictId":"20692502"}}},{"Relevance":1.0,"Distance":9.9,"MatchLevel":"houseNumber","MatchQuality":{"Country":1.0,"State":1.0,"County":1.0,"City":1.0,"District":1.0,"Street":[1.0],"HouseNumber":1.0,"PostalCode":1.0},"MatchType":"interpolated","Location":{"LocationId":"NT_8OjRRP43tppnBZK5WwqTfC_zED","LocationType":"point","DisplayPosition":{"Latitude":54.2605,"Longitude":18.63554},"MapView":{"TopLeft":{"Latitude":54.2616242,"Longitude":18.6336154},"BottomRight":{"Latitude":54.2593758,"Longitude":18.6374646}},"Address":{"Label":"ulica Grunwaldzka 31, 83-000 Pruszcz Gdański, Polska","Country":"POL","State":"Woj. Pomorskie","County":"Powiat Gdański","City":"Pruszcz Gdański","District":"Pruszcz Gdański","Street":"ulica Grunwaldzka","HouseNumber":"31","PostalCode":"83-000","AdditionalData":[{"value":"Polska","key":"CountryName"},{"value":"Woj. Pomorskie","key":"StateName"},{"value":"Powiat Gdański","key":"CountyName"}]},"MapReference":{"ReferenceId":"1063582212","Spot":0.41,"SideOfStreet":"right","CountryId":"20624059","StateId":"20628728","CountyId":"20628784","CityId":"20692501","DistrictId":"20692502","AddressId":"209521981","RoadLinkId":"385711711"}}},{"Relevance":1.0,"Distance":13.7,"MatchLevel":"houseNumber","MatchQuality":{"Country":1.0,"State":1.0,"County":1.0,"City":1.0,"District":1.0,"Street":[1.0],"HouseNumber":1.0,"PostalCode":1.0},"MatchType":"interpolated","Location":{"LocationId":"NT_8OjRRP43tppnBZK5WwqTfC_zMD","LocationType":"point","DisplayPosition":{"Latitude":54.26029,"Longitude":18.63546},"MapView":{"TopLeft":{"Latitude":54.2614142,"Longitude":18.6335354},"BottomRight":{"Latitude":54.2591658,"Longitude":18.6373846}},"Address":{"Label":"ulica Grunwaldzka 33, 83-000 Pruszcz Gdański, Polska","Country":"POL","State":"Woj. Pomorskie","County":"Powiat Gdański","City":"Pruszcz Gdański","District":"Pruszcz Gdański","Street":"ulica Grunwaldzka","HouseNumber":"33","PostalCode":"83-000","AdditionalData":[{"value":"Polska","key":"CountryName"},{"value":"Woj. Pomorskie","key":"StateName"},{"value":"Powiat Gdański","key":"CountyName"}]},"MapReference":{"ReferenceId":"1261055741","Spot":0.79,"SideOfStreet":"right","CountryId":"20624059","StateId":"20628728","CountyId":"20628784","CityId":"20692501","DistrictId":"20692502","AddressId":"210426977","RoadLinkId":"586581701"}}},{"Relevance":1.0,"Distance":17.8,"MatchLevel":"houseNumber","MatchQuality":{"Country":1.0,"State":1.0,"County":1.0,"City":1.0,"District":1.0,"Street":[1.0],"HouseNumber":1.0,"PostalCode":1.0},"MatchType":"interpolated","Location":{"LocationId":"NT_8OjRRP43tppnBZK5WwqTfC_xYD","LocationType":"point","DisplayPosition":{"Latitude":54.26047,"Longitude":18.63543},"MapView":{"TopLeft":{"Latitude":54.2615942,"Longitude":18.6335054},"BottomRight":{"Latitude":54.2593458,"Longitude":18.6373546}},"Address":{"Label":"ulica Grunwaldzka 16, 83-000 Pruszcz Gdański, Polska","Country":"POL","State":"Woj. Pomorskie","County":"Powiat Gdański","City":"Pruszcz Gdański","District":"Pruszcz Gdański","Street":"ulica Grunwaldzka","HouseNumber":"16","PostalCode":"83-000","AdditionalData":[{"value":"Polska","key":"CountryName"},{"value":"Woj. Pomorskie","key":"StateName"},{"value":"Powiat Gdański","key":"CountyName"}]},"MapReference":{"ReferenceId":"1063582213","Spot":0.27,"SideOfStreet":"left","CountryId":"20624059","StateId":"20628728","CountyId":"20628784","CityId":"20692501","DistrictId":"20692502","AddressId":"688872332","RoadLinkId":"385711723"}}},{"Relevance":1.0,"Distance":32.2,"MatchLevel":"houseNumber","MatchQuality":{"Country":1.0,"State":1.0,"County":1.0,"City":1.0,"District":1.0,"Street":[1.0],"HouseNumber":1.0,"PostalCode":1.0},"MatchType":"interpolated","Location":{"LocationId":"NT_rjooSGYsV6fsB6CEGsdYDC_zA","LocationType":"point","DisplayPosition":{"Latitude":54.26031,"Longitude":18.63645},"MapView":{"TopLeft":{"Latitude":54.2614342,"Longitude":18.6345254},"BottomRight":{"Latitude":54.2591858,"Longitude":18.6383746}},"Address":{"Label":"ulica Kossaka 3, 83-000 Pruszcz Gdański, Polska","Country":"POL","State":"Woj. Pomorskie","County":"Powiat Gdański","City":"Pruszcz Gdański","District":"Pruszcz Gdański","Street":"ulica Kossaka","HouseNumber":"3","PostalCode":"83-000","AdditionalData":[{"value":"Polska","key":"CountryName"},{"value":"Woj. Pomorskie","key":"StateName"},{"value":"Powiat Gdański","key":"CountyName"}]},"MapReference":{"ReferenceId":"1064268138","Spot":0.49,"SideOfStreet":"left","CountryId":"20624059","StateId":"20628728","CountyId":"20628784","CityId":"20692501","DistrictId":"20692502","AddressId":"689100018","RoadLinkId":"386473763"}}},{"Relevance":1.0,"Distance":34.6,"MatchLevel":"street","MatchQuality":{"Country":1.0,"State":1.0,"County":1.0,"City":1.0,"District":1.0,"Street":[1.0],"PostalCode":1.0},"Location":{"LocationId":"NT_8OjRRP43tppnBZK5WwqTfC_l_1063582214_R","LocationType":"point","DisplayPosition":{"Latitude":54.2607,"Longitude":18.63561},"MapView":{"TopLeft":{"Latitude":54.26082,"Longitude":18.63561},"BottomRight":{"Latitude":54.2607,"Longitude":18.63565}},"Address":{"Label":"ulica Grunwaldzka, 83-000 Pruszcz Gdański, Polska","Country":"POL","State":"Woj. Pomorskie","County":"Powiat Gdański","City":"Pruszcz Gdański","District":"Pruszcz Gdański","Street":"ulica Grunwaldzka","PostalCode":"83-000","AdditionalData":[{"value":"Polska","key":"CountryName"},{"value":"Woj. Pomorskie","key":"StateName"},{"value":"Powiat Gdański","key":"CountyName"}]},"MapReference":{"ReferenceId":"1063582214","Spot":0.0,"SideOfStreet":"right","CountryId":"20624059","StateId":"20628728","CountyId":"20628784","CityId":"20692501","DistrictId":"20692502"}}},{"Relevance":1.0,"Distance":46.5,"MatchLevel":"street","MatchQuality":{"Country":1.0,"State":1.0,"County":1.0,"City":1.0,"District":1.0,"Street":[1.0],"PostalCode":1.0},"Location":{"LocationId":"NT_MA0Mw68km1odQ55iheFjCA_l_1261055740_R","LocationType":"point","DisplayPosition":{"Latitude":54.26001,"Longitude":18.63537},"MapView":{"TopLeft":{"Latitude":54.26001,"Longitude":18.63534},"BottomRight":{"Latitude":54.2599,"Longitude":18.63537}},"Address":{"Label":"ulica Grunwaldzka, 83-000 Pruszcz Gdański, Polska","Country":"POL","State":"Woj. Pomorskie","County":"Powiat Gdański","City":"Pruszcz Gdański","District":"Pruszcz Gdański","Street":"ulica Grunwaldzka","PostalCode":"83-000","AdditionalData":[{"value":"Polska","key":"CountryName"},{"value":"Woj. Pomorskie","key":"StateName"},{"value":"Powiat Gdański","key":"CountyName"}]},"MapReference":{"ReferenceId":"1261055740","Spot":1.0,"SideOfStreet":"right","CountryId":"20624059","StateId":"20628728","CountyId":"20628784","CityId":"20692501","DistrictId":"20692502"}}},{"Relevance":1.0,"Distance":47.7,"MatchLevel":"street","MatchQuality":{"Country":1.0,"State":1.0,"County":1.0,"City":1.0,"District":1.0,"Street":[1.0],"PostalCode":1.0},"Location":{"LocationId":"NT_8OjRRP43tppnBZK5WwqTfC_l_1063582216_L","LocationType":"point","DisplayPosition":{"Latitude":54.26082,"Longitude":18.63565},"MapView":{"TopLeft":{"Latitude":54.26083,"Longitude":18.63556},"BottomRight":{"Latitude":54.26082,"Longitude":18.63565}},"Address":{"Label":"ulica Grunwaldzka, 83-000 Pruszcz Gdański, Polska","Country":"POL","State":"Woj. Pomorskie","County":"Powiat Gdański","City":"Pruszcz Gdański","District":"Pruszcz Gdański","Street":"ulica Grunwaldzka","PostalCode":"83-000","AdditionalData":[{"value":"Polska","key":"CountryName"},{"value":"Woj. Pomorskie","key":"StateName"},{"value":"Powiat Gdański","key":"CountyName"}]},"MapReference":{"ReferenceId":"1063582216","Spot":0.0,"SideOfStreet":"left","CountryId":"20624059","StateId":"20628728","CountyId":"20628784","CityId":"20692501","DistrictId":"20692502"}}},{"Relevance":1.0,"Distance":54.7,"MatchLevel":"street","MatchQuality":{"Country":1.0,"State":1.0,"County":1.0,"City":1.0,"District":1.0,"Street":[1.0],"PostalCode":1.0},"Location":{"LocationId":"NT_rjooSGYsV6fsB6CEGsdYDC_l_1063857722_L","LocationType":"point","DisplayPosition":{"Latitude":54.25991,"Longitude":18.63549},"MapView":{"TopLeft":{"Latitude":54.25991,"Longitude":18.63534},"BottomRight":{"Latitude":54.2599,"Longitude":18.63549}},"Address":{"Label":"ulica Kossaka, 83-000 Pruszcz Gdański, Polska","Country":"POL","State":"Woj. Pomorskie","County":"Powiat Gdański","City":"Pruszcz Gdański","District":"Pruszcz Gdański","Street":"ulica Kossaka","PostalCode":"83-000","AdditionalData":[{"value":"Polska","key":"CountryName"},{"value":"Woj. Pomorskie","key":"StateName"},{"value":"Powiat Gdański","key":"CountyName"}]},"MapReference":{"ReferenceId":"1063857722","Spot":1.0,"SideOfStreet":"left","CountryId":"20624059","StateId":"20628728","CountyId":"20628784","CityId":"20692501","DistrictId":"20692502"}}},{"Relevance":1.0,"Distance":55.3,"MatchLevel":"street","MatchQuality":{"Country":1.0,"State":1.0,"County":1.0,"City":1.0,"District":1.0,"Street":[1.0],"PostalCode":1.0},"Location":{"LocationId":"NT_rjooSGYsV6fsB6CEGsdYDC_l_1181503528_R","LocationType":"point","DisplayPosition":{"Latitude":54.2598949,"Longitude":18.6355982},"MapView":{"TopLeft":{"Latitude":54.25991,"Longitude":18.63549},"BottomRight":{"Latitude":54.25985,"Longitude":18.63592}},"Address":{"Label":"ulica Kossaka, 83-000 Pruszcz Gdański, Polska","Country":"POL","State":"Woj. Pomorskie","County":"Powiat Gdański","City":"Pruszcz Gdański","District":"Pruszcz Gdański","Street":"ulica Kossaka","PostalCode":"83-000","AdditionalData":[{"value":"Polska","key":"CountryName"},{"value":"Woj. Pomorskie","key":"StateName"},{"value":"Powiat Gdański","key":"CountyName"}]},"MapReference":{"ReferenceId":"1181503528","Spot":0.75,"SideOfStreet":"right","CountryId":"20624059","StateId":"20628728","CountyId":"20628784","CityId":"20692501","DistrictId":"20692502"}}}]}]}}