{"Response":{"MetaInfo":{"Timestamp":"2020-03-28T11:57:14.338+0000","NextPageInformation":"2"},"View":[{"_type":"SearchResultsViewType","ViewId":0,"Result":[{"Relevance":1.0,"Distance":-178.5,"MatchLevel":"landmark","MatchQuality":{"Country":1.0,"Name":1.0},"Location":{"LocationId":"NT_cmCimu-6VQBcDqSe9cTXsC","LocationType":"island","Name":"Isle of Man","DisplayPosition":{"Latitude":54.23581,"Longitude":-4.51481},"MapView":{"TopLeft":{"Latitude":54.41819,"Longitude":-4.7944},"BottomRight":{"Latitude":54.05342,"Longitude":-4.30771}},"Address":{"Label":"Isle of Man","Country":"IMN","AdditionalData":[{"value":"Isle of Man","key":"CountryName"}]},"MapReference":{"CountryId":"20486695","PlaceId":"546442586"}}},{"Relevance":1.0,"Distance":0.0,"Direction":0.0,"MatchLevel":"district","MatchQuality":{"Country":1.0,"City":1.0,"District":1.0,"PostalCode":1.0},"Location":{"LocationId":"NT_gWcuy3URKHk3g-5cD-1QyD","LocationType":"point","DisplayPosition":{"Latitude":54.2226871,"Longitude":-4.692357},"MapView":{"TopLeft":{"Latitude":54.22901,"Longitude":-4.7022},"BottomRight":{"Latitude":54.21577,"Longitude":-4.67353}},"Address":{"Label":"Peel, Isle of Man","Country":"IMN","City":"Peel","District":"Peel","PostalCode":"IM5 1","AdditionalData":[{"value":"Isle of Man","key":"CountryName"}]},"MapReference":{"ReferenceId":"565930009","SideOfStreet":"neither","CountryId":"20486695","CityId":"20486727","DistrictId":"20486784"}}},{"Relevance":1.0,"Distance":3.0,"MatchLevel":"houseNumber","MatchQuality":{"Country":1.0,"City":1.0,"District":1.0,"Street":[1.0],"HouseNumber":1.0,"PostalCode":1.0},"MatchType":"interpolated","Location":{"LocationId":"NT_LwhziHDj2DM2HWbtXHPbaD_l_1186109620_L_ykD","LocationType":"point","DisplayPosition":{"Latitude":54.2225544,"Longitude":-4.6922092},"MapView":{"TopLeft":{"Latitude":54.2236785,"Longitude":-4.694132},"BottomRight":{"Latitude":54.2214302,"Longitude":-4.6902864}},"Address":{"Label":"29, Atholl Street, Peel, IM5 1, Isle of Man","Country":"IMN","City":"Peel","District":"Peel","Street":"Atholl Street","HouseNumber":"29","PostalCode":"IM5 1","AdditionalData":[{"value":"Isle of Man","key":"CountryName"}]},"MapReference":{"ReferenceId":"1186109620","Spot":0.81,"SideOfStreet":"left","CountryId":"20486695","CityId":"20486727","DistrictId":"20486784"}}},{"Relevance":1.0,"Distance":12.7,"MatchLevel":"street","MatchQuality":{"Country":1.0,"City":1.0,"District":1.0,"Street":[1.0],"PostalCode":1.0},"Location":{"LocationId":"NT_9fDFV0OYBe-hLUJ2L9zNFC_l_565930012_L","LocationType":"point","DisplayPosition":{"Latitude":54.2228008,"Longitude":-4.6923352},"MapView":{"TopLeft":{"Latitude":54.22284,"Longitude":-4.69254},"BottomRight":{"Latitude":54.22275,"Longitude":-4.69207}},"Address":{"Label":"Atholl Place, Peel, IM5 1, Isle of Man","Country":"IMN","City":"Peel","District":"Peel","Street":"Atholl Place","PostalCode":"IM5 1","AdditionalData":[{"value":"Isle of Man","key":"CountryName"}]},"MapReference":{"ReferenceId":"565930012","Spot":0.56,"SideOfStreet":"left","CountryId":"20486695","CityId":"20486727","DistrictId":"20486784"}}},{"Relevance":1.0,"Distance":19.5,"MatchLevel":"houseNumber","MatchQuality":{"Country":1.0,"City":1.0,"District":1.0,"Street":[1.0],"HouseNumber":1.0,"PostalCode":1.0},"MatchType":"interpolated","Location":{"LocationId":"NT_pCCmBBNh6Yc-LBQj-oCTIB_l_565929258_L_xA","LocationType":"point","DisplayPosition":{"Latitude":54.22294,"Longitude":-4.69205},"MapView":{"TopLeft":{"Latitude":54.2240642,"Longitude":-4.6939729},"BottomRight":{"Latitude":54.2218159,"Longitude":-4.6901272}},"Address":{"Label":"1, Bridge Street, Peel, IM5 1, Isle of Man","Country":"IMN","City":"Peel","District":"Peel","Street":"Bridge Street","HouseNumber":"1","PostalCode":"IM5 1","AdditionalData":[{"value":"Isle of Man","key":"CountryName"}]},"MapReference":{"ReferenceId":"565929258","Spot":0.28,"SideOfStreet":"left","CountryId":"20486695","CityId":"20486727","DistrictId":"20486784"}}},{"Relevance":1.0,"Distance":19.9,"MatchLevel":"street","MatchQuality":{"Country":1.0,"City":1.0,"District":1.0,"Street":[1.0],"PostalCode":1.0},"Location":{"LocationId":"NT_gZOiYoSD.FAQALza5GpvLC_l_565930011_L","LocationType":"point","DisplayPosition":{"Latitude":54.22275,"Longitude":-4.69207},"MapView":{"TopLeft":{"Latitude":54.22282,"Longitude":-4.69207},"BottomRight":{"Latitude":54.22275,"Longitude":-4.69195}},"Address":{"Label":"Christian Street, Peel, IM5 1, Isle of Man","Country":"IMN","City":"Peel","District":"Peel","Street":"Christian Street","PostalCode":"IM5 1","AdditionalData":[{"value":"Isle of Man","key":"CountryName"}]},"MapReference":{"ReferenceId":"565930011","Spot":0.0,"SideOfStreet":"left","CountryId":"20486695","CityId":"20486727","DistrictId":"20486784"}}},{"Relevance":1.0,"Distance":29.7,"MatchLevel":"houseNumber","MatchQuality":{"Country":1.0,"City":1.0,"District":1.0,"Street":[1.0],"HouseNumber":1.0,"PostalCode":1.0},"MatchType":"interpolated","Location":{"LocationId":"NT_DEDb2jLt18JA080huPHMQB_l_565929930_L_yAD","LocationType":"point","DisplayPosition":{"Latitude":54.2229101,"Longitude":-4.6927301},"MapView":{"TopLeft":{"Latitude":54.2240342,"Longitude":-4.694653},"BottomRight":{"Latitude":54.2217859,"Longitude":-4.6908073}},"Address":{"Label":"20, Factory Lane, Peel, IM5 1, Isle of Man","Country":"IMN","City":"Peel","District":"Peel","Street":"Factory Lane","HouseNumber":"20","PostalCode":"IM5 1","AdditionalData":[{"value":"Isle of Man","key":"CountryName"}]},"MapReference":{"ReferenceId":"565929930","Spot":0.19,"SideOfStreet":"left","CountryId":"20486695","CityId":"20486727","DistrictId":"20486784"}}},{"Relevance":1.0,"Distance":30.3,"MatchLevel":"street","MatchQuality":{"Country":1.0,"City":1.0,"District":1.0,"Street":[1.0],"PostalCode":1.0},"Location":{"LocationId":"NT_gZOiYoSD.FAQALza5GpvLC_l_565929313_R","LocationType":"point","DisplayPosition":{"Latitude":54.22282,"Longitude":-4.69195},"MapView":{"TopLeft":{"Latitude":54.22284,"Longitude":-4.69195},"BottomRight":{"Latitude":54.22282,"Longitude":-4.69178}},"Address":{"Label":"Christian Street, Peel, IM5 1, Isle of Man","Country":"IMN","City":"Peel","District":"Peel","Street":"Christian Street","PostalCode":"IM5 1","AdditionalData":[{"value":"Isle of Man","key":"CountryName"}]},"MapReference":{"ReferenceId":"565929313","Spot":0.0,"SideOfStreet":"right","CountryId":"20486695","CityId":"20486727","DistrictId":"20486784"}}},{"Relevance":1.0,"Distance":30.8,"MatchLevel":"houseNumber","MatchQuality":{"Country":1.0,"City":1.0,"District":1.0,"Street":[1.0],"HouseNumber":1.0,"PostalCode":1.0},"MatchType":"interpolated","Location":{"LocationId":"NT_XKXP9WTL1WxoptiwTYMz5B_l_565930016_R_0YD","LocationType":"point","DisplayPosition":{"Latitude":54.2228157,"Longitude":-4.6928386},"MapView":{"TopLeft":{"Latitude":54.2239399,"Longitude":-4.6947614},"BottomRight":{"Latitude":54.2216916,"Longitude":-4.6909157}},"Address":{"Label":"46, Michael Street, Peel, IM5 1, Isle of Man","Country":"IMN","City":"Peel","District":"Peel","Street":"Michael Street","HouseNumber":"46","PostalCode":"IM5 1","AdditionalData":[{"value":"Isle of Man","key":"CountryName"}]},"MapReference":{"ReferenceId":"565930016","Spot":0.7,"SideOfStreet":"right","CountryId":"20486695","CityId":"20486727","DistrictId":"20486784"}}},{"Relevance":1.0,"Distance":47.2,"MatchLevel":"houseNumber","MatchQuality":{"Country":1.0,"City":1.0,"District":1.0,"Street":[1.0],"HouseNumber":1.0,"PostalCode":1.0},"MatchType":"interpolated","Location":{"LocationId":"NT_UZnKGiwBUdcReXBeS-pUNC_l_565929262_R_yA","LocationType":"point","DisplayPosition":{"Latitude":54.22324,"Longitude":-4.69231},"MapView":{"TopLeft":{"Latitude":54.2243642,"Longitude":-4.6942328},"BottomRight":{"Latitude":54.2221159,"Longitude":-4.6903871}},"Address":{"Label":"2, Stanley Mount, Peel, IM5 1, Isle of Man","Country":"IMN","City":"Peel","District":"Peel","Street":"Stanley Mount","HouseNumber":"2","PostalCode":"IM5 1","AdditionalData":[{"value":"Isle of Man","key":"CountryName"}]},"MapReference":{"ReferenceId":"565929262","Spot":0.0,"SideOfStreet":"right","CountryId":"20486695","CityId":"20486727","DistrictId":"20486784"}}}]}]}}