{"Response":{"MetaInfo":{"Timestamp":"2020-03-28T10:32:56.249+0000","NextPageInformation":"2"},"View":[{"_type":"SearchResultsViewType","ViewId":0,"Result":[{"Relevance":1.0,"Distance":0.0,"Direction":0.0,"MatchLevel":"district","MatchQuality":{"Country":1.0,"State":1.0,"County":1.0,"City":1.0,"District":1.0,"PostalCode":1.0},"Location":{"LocationId":"NT_uFG-0rvAlOBYbFClL7267D","LocationType":"point","DisplayPosition":{"Latitude":54.2807696,"Longitude":-0.4035873},"MapView":{"TopLeft":{"Latitude":54.30788,"Longitude":-0.46118},"BottomRight":{"Latitude":54.25305,"Longitude":-0.37185}},"Address":{"Label":"Scarborough, England, United Kingdom","Country":"GBR","State":"England","County":"North Yorkshire","City":"Scarborough","District":"Scarborough","PostalCode":"YO12 5","AdditionalData":[{"value":"United Kingdom","key":"CountryName"},{"value":"England","key":"StateName"},{"value":"North Yorkshire","key":"CountyName"}]},"MapReference":{"ReferenceId":"1149850166","SideOfStreet":"neither","StateId":"20248595","CountyId":"20346756","CityId":"20347155","DistrictId":"20347156"}}},{"Relevance":1.0,"Distance":6.5,"MatchLevel":"houseNumber","MatchQuality":{"Country":1.0,"State":1.0,"County":1.0,"City":1.0,"District":1.0,"Street":[1.0],"HouseNumber":1.0,"PostalCode":1.0},"MatchType":"interpolated","Location":{"LocationId":"NT_gkNxPjNEHq2NPrX26HKBqB_l_802543198_L_xA","LocationType":"point","DisplayPosition":{"Latitude":54.2809394,"Longitude":-0.4034313},"MapView":{"TopLeft":{"Latitude":54.2820635,"Longitude":-0.4053568},"BottomRight":{"Latitude":54.2798152,"Longitude":-0.4015057}},"Address":{"Label":"1 York Place, Scarborough, YO11 1, United Kingdom","Country":"GBR","State":"England","County":"North Yorkshire","City":"Scarborough","District":"Scarborough","Street":"York Place","HouseNumber":"1","PostalCode":"YO11 1","AdditionalData":[{"value":"United Kingdom","key":"CountryName"},{"value":"England","key":"StateName"},{"value":"North Yorkshire","key":"CountyName"}]},"MapReference":{"ReferenceId":"802543198","Spot":0.82,"SideOfStreet":"left","StateId":"20248595","CountyId":"20346756","CityId":"20347155","DistrictId":"20347156"}}},{"Relevance":1.0,"Distance":15.6,"MatchLevel":"postalCode","MatchQuality":{"PostalCode":1.0},"MatchType":"interpolated","Location":{"LocationId":"NT_gkNxPjNEHq2NPrX26HKBqB_l_802543198_L_xA","LocationType":"point","DisplayPosition":{"Latitude":54.28087,"Longitude":-0.40342},"MapView":{"TopLeft":{"Latitude":54.2898632,"Longitude":-0.4188243},"BottomRight":{"Latitude":54.2718768,"Longitude":-0.3880157}},"Address":{"Label":"YO11 1UT, Scarborough, England, United Kingdom","Country":"GBR","State":"England","County":"North Yorkshire","City":"Scarborough","PostalCode":"YO11 1UT","AdditionalData":[{"value":"United Kingdom","key":"CountryName"},{"value":"England","key":"StateName"},{"value":"North Yorkshire","key":"CountyName"}]},"MapReference":{"ReferenceId":"802543198","Spot":0.82,"SideOfStreet":"neither","StateId":"20248595","CountyId":"20346756","CityId":"20347155"}}},{"Relevance":1.0,"Distance":17.4,"MatchLevel":"houseNumber","MatchQuality":{"Country":1.0,"State":1.0,"County":1.0,"City":1.0,"District":1.0,"Street":[1.0],"HouseNumber":1.0,"PostalCode":1.0},"MatchType":"interpolated","Location":{"LocationId":"NT_8Lzf-ALIn6bluO9TGya7qD_l_26932104_R_0AD","LocationType":"point","DisplayPosition":{"Latitude":54.280994,"Longitude":-0.403853},"MapView":{"TopLeft":{"Latitude":54.2821182,"Longitude":-0.4057785},"BottomRight":{"Latitude":54.2798699,"Longitude":-0.4019274}},"Address":{"Label":"40 Westborough, Scarborough, YO11 1, United Kingdom","Country":"GBR","State":"England","County":"North Yorkshire","City":"Scarborough","District":"Scarborough","Street":"Westborough","HouseNumber":"40","PostalCode":"YO11 1","AdditionalData":[{"value":"United Kingdom","key":"CountryName"},{"value":"England","key":"StateName"},{"value":"North Yorkshire","key":"CountyName"}]},"MapReference":{"ReferenceId":"26932104","Spot":0.71,"SideOfStreet":"right","StateId":"20248595","CountyId":"20346756","CityId":"20347155","DistrictId":"20347156"}}},{"Relevance":1.0,"Distance":21.7,"MatchLevel":"landmark","MatchQuality":{"Country":1.0,"State":1.0,"County":1.0,"City":1.0,"District":1.0,"Street":[1.0],"PostalCode":1.0,"Name":1.0},"Location":{"LocationId":"NT_WprzvsvSW0bdciV0uLxDSC_p_NqGFbaWS8gfGnbYZl3guQC","LocationType":"shoppingCentre","Name":"Brunswick Shopping Centre","DisplayPosition":{"Latitude":54.28108,"Longitude":-0.40361},"MapView":{"TopLeft":{"Latitude":54.2816,"Longitude":-0.40362},"BottomRight":{"Latitude":54.28011,"Longitude":-0.4011}},"Address":{"Label":"York Place, Scarborough, YO11 1, United Kingdom","Country":"GBR","State":"England","County":"North Yorkshire","City":"Scarborough","District":"Scarborough","Street":"York Place","PostalCode":"YO11 1","AdditionalData":[{"value":"United Kingdom","key":"CountryName"},{"value":"England","key":"StateName"},{"value":"North Yorkshire","key":"CountyName"}]},"MapReference":{"StateId":"20248595","CountyId":"20346756","CityId":"20347155","DistrictId":"20347156","PlaceId":"18169451"}}},{"Relevance":1.0,"Distance":26.3,"MatchLevel":"houseNumber","MatchQuality":{"Country":1.0,"State":1.0,"County":1.0,"City":1.0,"District":1.0,"Street":[1.0],"HouseNumber":1.0,"PostalCode":1.0},"MatchType":"interpolated","Location":{"LocationId":"NT_8Lzf-ALIn6bluO9TGya7qD_l_30097369_R_zkD","LocationType":"point","DisplayPosition":{"Latitude":54.2811267,"Longitude":-0.4034993},"MapView":{"TopLeft":{"Latitude":54.2822509,"Longitude":-0.4054248},"BottomRight":{"Latitude":54.2800026,"Longitude":-0.4015737}},"Address":{"Label":"39 Westborough, Scarborough, YO11 1, United Kingdom","Country":"GBR","State":"England","County":"North Yorkshire","City":"Scarborough","District":"Scarborough","Street":"Westborough","HouseNumber":"39","PostalCode":"YO11 1","AdditionalData":[{"value":"United Kingdom","key":"CountryName"},{"value":"England","key":"StateName"},{"value":"North Yorkshire","key":"CountyName"}]},"MapReference":{"ReferenceId":"30097369","Spot":0.52,"SideOfStreet":"right","StateId":"20248595","CountyId":"20346756","CityId":"20347155","DistrictId":"20347156"}}},{"Relevance":1.0,"Distance":36.9,"MatchLevel":"houseNumber","MatchQuality":{"Country":1.0,"State":1.0,"County":1.0,"City":1.0,"District":1.0,"Street":[1.0],"HouseNumber":1.0,"PostalCode":1.0},"MatchType":"interpolated","Location":{"LocationId":"NT_MweKYmu69eqdUIhSC-SfFB_l_26932033_L_1ID","LocationType":"point","DisplayPosition":{"Latitude":54.2811901,"Longitude":-0.4037601},"MapView":{"TopLeft":{"Latitude":54.2823142,"Longitude":-0.4056857},"BottomRight":{"Latitude":54.2800659,"Longitude":-0.4018346}},"Address":{"Label":"52 Albemarle Crescent, Scarborough, YO11 1, United Kingdom","Country":"GBR","State":"England","County":"North Yorkshire","City":"Scarborough","District":"Scarborough","Street":"Albemarle Crescent","HouseNumber":"52","PostalCode":"YO11 1","AdditionalData":[{"value":"United Kingdom","key":"CountryName"},{"value":"England","key":"StateName"},{"value":"North Yorkshire","key":"CountyName"}]},"MapReference":{"ReferenceId":"26932033","Spot":0.15,"SideOfStreet":"left","StateId":"20248595","CountyId":"20346756","CityId":"20347155","DistrictId":"20347156"}}},{"Relevance":1.0,"Distance":44.3,"MatchLevel":"postalCode","MatchQuality":{"PostalCode":1.0},"MatchType":"interpolated","Location":{"LocationId":"NT_8Lzf-ALIn6bluO9TGya7qD_l_26932104_R_0AD","LocationType":"point","DisplayPosition":{"Latitude":54.28078,"Longitude":-0.40427},"MapView":{"TopLeft":{"Latitude":54.2897732,"Longitude":-0.4196743},"BottomRight":{"Latitude":54.2717868,"Longitude":-0.3888657}},"Address":{"Label":"YO11 1UU, Scarborough, England, United Kingdom","Country":"GBR","State":"England","County":"North Yorkshire","City":"Scarborough","PostalCode":"YO11 1UU","AdditionalData":[{"value":"United Kingdom","key":"CountryName"},{"value":"England","key":"StateName"},{"value":"North Yorkshire","key":"CountyName"}]},"MapReference":{"ReferenceId":"26932104","Spot":0.71,"SideOfStreet":"neither","StateId":"20248595","CountyId":"20346756","CityId":"20347155"}}},{"Relevance":1.0,"Distance":46.6,"MatchLevel":"houseNumber","MatchQuality":{"Country":1.0,"State":1.0,"County":1.0,"City":1.0,"District":1.0,"Street":[1.0],"HouseNumber":1.0,"PostalCode":1.0},"MatchType":"interpolated","Location":{"LocationId":"NT_8Lzf-ALIn6bluO9TGya7qD_l_30097370_R_zgD","LocationType":"point","DisplayPosition":{"Latitude":54.2812301,"Longitude":-0.4031898},"MapView":{"TopLeft":{"Latitude":54.2823542,"Longitude":-0.4051153},"BottomRight":{"Latitude":54.2801059,"Longitude":-0.4012642}},"Address":{"Label":"38 Westborough, Scarborough, YO11 1LN, United Kingdom","Country":"GBR","State":"England","County":"North Yorkshire","City":"Scarborough","District":"Scarborough","Street":"Westborough","HouseNumber":"38","PostalCode":"YO11 1LN","AdditionalData":[{"value":"United Kingdom","key":"CountryName"},{"value":"England","key":"StateName"},{"value":"North Yorkshire","key":"CountyName"}]},"MapReference":{"ReferenceId":"30097370","Spot":0.17,"SideOfStreet":"right","StateId":"20248595","CountyId":"20346756","CityId":"20347155","DistrictId":"20347156"}}},{"Relevance":1.0,"Distance":55.4,"MatchLevel":"street","MatchQuality":{"Country":1.0,"State":1.0,"County":1.0,"City":1.0,"District":1.0,"Street":[1.0],"PostalCode":1.0},"Location":{"LocationId":"NT_joiF0TV9yiR4KVXSqfWf5D_l_26932105_R","LocationType":"point","DisplayPosition":{"Latitude":54.28078,"Longitude":-0.40444},"MapView":{"TopLeft":{"Latitude":54.28087,"Longitude":-0.40457},"BottomRight":{"Latitude":54.28078,"Longitude":-0.40444}},"Address":{"Label":"Alma Square, Scarborough, YO11 1, United Kingdom","Country":"GBR","State":"England","County":"North Yorkshire","City":"Scarborough","District":"Scarborough","Street":"Alma Square","PostalCode":"YO11 1","AdditionalData":[{"value":"United Kingdom","key":"CountryName"},{"value":"England","key":"StateName"},{"value":"North Yorkshire","key":"CountyName"}]},"MapReference":{"ReferenceId":"26932105","Spot":0.0,"SideOfStreet":"right","StateId":"20248595","CountyId":"20346756","CityId":"20347155","DistrictId":"20347156"}}}]}]}}