{"Response":{"MetaInfo":{"Timestamp":"2020-03-28T10:05:33.640+0000","NextPageInformation":"2"},"View":[{"_type":"SearchResultsViewType","ViewId":0,"Result":[{"Relevance":1.0,"Distance":0.0,"Direction":0.0,"MatchLevel":"district","MatchQuality":{"Country":1.0,"State":1.0,"County":1.0,"City":1.0,"District":1.0,"PostalCode":1.0},"Location":{"LocationId":"NT_yqu8oX9iItGooo1rfj-tUA","LocationType":"point","DisplayPosition":{"Latitude":54.2057108,"Longitude":12.3080134},"MapView":{"TopLeft":{"Latitude":54.20928,"Longitude":12.29533},"BottomRight":{"Latitude":54.19841,"Longitude":12.31893}},"Address":{"Label":"Gelbensande, Mecklenburg-Vorpommern, Deutschland","Country":"DEU","State":"Mecklenburg-Vorpommern","County":"Rostock (Landkreis)","City":"Gelbensande","District":"Gelbensande","PostalCode":"18182","AdditionalData":[{"value":"Deutschland","key":"CountryName"},{"value":"Mecklenburg-Vorpommern","key":"StateName"},{"value":"Rostock (Landkreis)","key":"CountyName"}]},"MapReference":{"ReferenceId":"759872553","SideOfStreet":"neither","CountryId":"20147700","StateId":"20189515","CountyId":"20189589","CityId":"20189621","DistrictId":"20189623"}}},{"Relevance":1.0,"Distance":9.1,"MatchLevel":"houseNumber","MatchQuality":{"Country":1.0,"State":1.0,"County":1.0,"City":1.0,"District":1.0,"Street":[1.0],"HouseNumber":1.0,"PostalCode":1.0},"MatchType":"interpolated","Location":{"LocationId":"NT_alLozM2WGbXBQWxtWMgYXA_xED","LocationType":"point","DisplayPosition":{"Latitude":54.20544,"Longitude":12.30843},"MapView":{"TopLeft":{"Latitude":54.2065642,"Longitude":12.306508},"BottomRight":{"Latitude":54.2043158,"Longitude":12.310352}},"Address":{"Label":"Schlossweg 11, 18182 Gelbensande, Deutschland","Country":"DEU","State":"Mecklenburg-Vorpommern","County":"Rostock (Landkreis)","City":"Gelbensande","District":"Gelbensande","Street":"Schlossweg","HouseNumber":"11","PostalCode":"18182","AdditionalData":[{"value":"Deutschland","key":"CountryName"},{"value":"Mecklenburg-Vorpommern","key":"StateName"},{"value":"Rostock (Landkreis)","key":"CountyName"}]},"MapReference":{"ReferenceId":"551703498","Spot":0.66,"SideOfStreet":"left","CountryId":"20147700","StateId":"20189515","CountyId":"20189589","CityId":"20189621","DistrictId":"20189623","AddressId":"184508017","RoadLinkId":"37452442"}}},{"Relevance":1.0,"Distance":63.7,"MatchLevel":"street","MatchQuality":{"Country":1.0,"State":1.0,"County":1.0,"City":1.0,"District":1.0,"Street":[1.0],"PostalCode":1.0},"Location":{"LocationId":"NT_alLozM2WGbXBQWxtWMgYXA_l_541093467_L","LocationType":"point","DisplayPosition":{"Latitude":54.20562,"Longitude":12.30898},"MapView":{"TopLeft":{"Latitude":54.20565,"Longitude":12.30898},"BottomRight":{"Latitude":54.20562,"Longitude":12.30908}},"Address":{"Label":"Schlossweg, 18182 Gelbensande, Deutschland","Country":"DEU","State":"Mecklenburg-Vorpommern","County":"Rostock (Landkreis)","City":"Gelbensande","District":"Gelbensande","Street":"Schlossweg","PostalCode":"18182","AdditionalData":[{"value":"Deutschland","key":"CountryName"},{"value":"Mecklenburg-Vorpommern","key":"StateName"},{"value":"Rostock (Landkreis)","key":"CountyName"}]},"MapReference":{"ReferenceId":"541093467","Spot":0.0,"SideOfStreet":"left","CountryId":"20147700","StateId":"20189515","CountyId":"20189589","CityId":"20189621","DistrictId":"20189623"}}},{"Relevance":1.0,"Distance":77.6,"MatchLevel":"houseNumber","MatchQuality":{"Country":1.0,"State":1.0,"County":1.0,"City":1.0,"District":1.0,"Street":[1.0],"HouseNumber":1.0,"PostalCode":1.0},"MatchType":"interpolated","Location":{"LocationId":"NT_U7g8hPE0.8RQZd2HcBZTZC_xA","LocationType":"point","DisplayPosition":{"Latitude":54.205,"Longitude":12.30747},"MapView":{"TopLeft":{"Latitude":54.2061242,"Longitude":12.305548},"BottomRight":{"Latitude":54.2038758,"Longitude":12.309392}},"Address":{"Label":"Birkenweg 1, 18182 Gelbensande, Deutschland","Country":"DEU","State":"Mecklenburg-Vorpommern","County":"Rostock (Landkreis)","City":"Gelbensande","District":"Gelbensande","Street":"Birkenweg","HouseNumber":"1","PostalCode":"18182","AdditionalData":[{"value":"Deutschland","key":"CountryName"},{"value":"Mecklenburg-Vorpommern","key":"StateName"},{"value":"Rostock (Landkreis)","key":"CountyName"}]},"MapReference":{"ReferenceId":"551703518","Spot":0.78,"SideOfStreet":"right","CountryId":"20147700","StateId":"20189515","CountyId":"20189589","CityId":"20189621","DistrictId":"20189623","AddressId":"184108401","RoadLinkId":"37368983"}}},{"Relevance":1.0,"Distance":85.6,"MatchLevel":"houseNumber","MatchQuality":{"Country":1.0,"State":1.0,"County":1.0,"City":1.0,"District":1.0,"Street":[1.0],"HouseNumber":1.0,"PostalCode":1.0},"MatchType":"interpolated","Location":{"LocationId":"NT_alLozM2WGbXBQWxtWMgYXA_xITQ","LocationType":"point","DisplayPosition":{"Latitude":54.20578,"Longitude":12.30945},"MapView":{"TopLeft":{"Latitude":54.2069042,"Longitude":12.307528},"BottomRight":{"Latitude":54.2046558,"Longitude":12.311372}},"Address":{"Label":"Schlossweg 12A, 18182 Gelbensande, Deutschland","Country":"DEU","State":"Mecklenburg-Vorpommern","County":"Rostock (Landkreis)","City":"Gelbensande","District":"Gelbensande","Street":"Schlossweg","HouseNumber":"12A","PostalCode":"18182","AdditionalData":[{"value":"Deutschland","key":"CountryName"},{"value":"Mecklenburg-Vorpommern","key":"StateName"},{"value":"Rostock (Landkreis)","key":"CountyName"}]},"MapReference":{"ReferenceId":"541087640","Spot":0.13,"SideOfStreet":"left","CountryId":"20147700","StateId":"20189515","CountyId":"20189589","CityId":"20189621","DistrictId":"20189623","AddressId":"184134053","RoadLinkId":"37565485"}}},{"Relevance":1.0,"Distance":91.4,"MatchLevel":"street","MatchQuality":{"Country":1.0,"State":1.0,"County":1.0,"City":1.0,"District":1.0,"PostalCode":1.0},"Location":{"LocationId":"NT_SEaShsSHsUyOB-1.C50OnB_l_541087658_R","LocationType":"point","DisplayPosition":{"Latitude":54.20539,"Longitude":12.30672},"MapView":{"TopLeft":{"Latitude":54.20599,"Longitude":12.30572},"BottomRight":{"Latitude":54.20539,"Longitude":12.30672}},"Address":{"Label":"18182 Gelbensande, Deutschland","Country":"DEU","State":"Mecklenburg-Vorpommern","County":"Rostock (Landkreis)","City":"Gelbensande","District":"Gelbensande","PostalCode":"18182","AdditionalData":[{"value":"Deutschland","key":"CountryName"},{"value":"Mecklenburg-Vorpommern","key":"StateName"},{"value":"Rostock (Landkreis)","key":"CountyName"}]},"MapReference":{"ReferenceId":"541087658","Spot":0.0,"SideOfStreet":"right","CountryId":"20147700","StateId":"20189515","CountyId":"20189589","CityId":"20189621","DistrictId":"20189623"}}},{"Relevance":1.0,"Distance":107.2,"MatchLevel":"houseNumber","MatchQuality":{"Country":1.0,"State":1.0,"County":1.0,"City":1.0,"District":1.0,"Street":[1.0],"HouseNumber":1.0,"PostalCode":1.0},"MatchType":"interpolated","Location":{"LocationId":"NT_alLozM2WGbXBQWxtWMgYXA_5EE","LocationType":"point","DisplayPosition":{"Latitude":54.20496,"Longitude":12.30698},"MapView":{"TopLeft":{"Latitude":54.2060842,"Longitude":12.305058},"BottomRight":{"Latitude":54.2038358,"Longitude":12.308902}},"Address":{"Label":"Schlossweg 9A, 18182 Gelbensande, Deutschland","Country":"DEU","State":"Mecklenburg-Vorpommern","County":"Rostock (Landkreis)","City":"Gelbensande","District":"Gelbensande","Street":"Schlossweg","HouseNumber":"9A","PostalCode":"18182","AdditionalData":[{"value":"Deutschland","key":"CountryName"},{"value":"Mecklenburg-Vorpommern","key":"StateName"},{"value":"Rostock (Landkreis)","key":"CountyName"}]},"MapReference":{"ReferenceId":"551703515","Spot":0.62,"SideOfStreet":"left","CountryId":"20147700","StateId":"20189515","CountyId":"20189589","CityId":"20189621","DistrictId":"20189623","AddressId":"621926672","RoadLinkId":"37780049"}}},{"Relevance":1.0,"Distance":119.2,"MatchLevel":"houseNumber","MatchQuality":{"Country":1.0,"State":1.0,"County":1.0,"City":1.0,"District":1.0,"Street":[1.0],"HouseNumber":1.0,"PostalCode":1.0},"MatchType":"interpolated","Location":{"LocationId":"NT_alLozM2WGbXBQWxtWMgYXA_xMTQ","LocationType":"point","DisplayPosition":{"Latitude":54.20491,"Longitude":12.3095},"MapView":{"TopLeft":{"Latitude":54.2060342,"Longitude":12.307578},"BottomRight":{"Latitude":54.2037858,"Longitude":12.311422}},"Address":{"Label":"Schlossweg 13A, 18182 Gelbensande, Deutschland","Country":"DEU","State":"Mecklenburg-Vorpommern","County":"Rostock (Landkreis)","City":"Gelbensande","District":"Gelbensande","Street":"Schlossweg","HouseNumber":"13A","PostalCode":"18182","AdditionalData":[{"value":"Deutschland","key":"CountryName"},{"value":"Mecklenburg-Vorpommern","key":"StateName"},{"value":"Rostock (Landkreis)","key":"CountyName"}]},"MapReference":{"ReferenceId":"541093473","Spot":0.2,"SideOfStreet":"left","CountryId":"20147700","StateId":"20189515","CountyId":"20189589","CityId":"20189621","DistrictId":"20189623","AddressId":"183914623","RoadLinkId":"473674456"}}},{"Relevance":1.0,"Distance":122.8,"MatchLevel":"houseNumber","MatchQuality":{"Country":1.0,"State":1.0,"County":1.0,"City":1.0,"District":1.0,"Street":[1.0],"HouseNumber":1.0,"PostalCode":1.0},"MatchType":"interpolated","Location":{"LocationId":"NT_7cGFmcbJIS.dO8-mmgJ.qD_xA","LocationType":"point","DisplayPosition":{"Latitude":54.20461,"Longitude":12.30787},"MapView":{"TopLeft":{"Latitude":54.2057342,"Longitude":12.305948},"BottomRight":{"Latitude":54.2034858,"Longitude":12.309792}},"Address":{"Label":"Heidering 1, 18182 Gelbensande, Deutschland","Country":"DEU","State":"Mecklenburg-Vorpommern","County":"Rostock (Landkreis)","City":"Gelbensande","District":"Gelbensande","Street":"Heidering","HouseNumber":"1","PostalCode":"18182","AdditionalData":[{"value":"Deutschland","key":"CountryName"},{"value":"Mecklenburg-Vorpommern","key":"StateName"},{"value":"Rostock (Landkreis)","key":"CountyName"}]},"MapReference":{"ReferenceId":"551703513","Spot":0.84,"SideOfStreet":"left","CountryId":"20147700","StateId":"20189515","CountyId":"20189589","CityId":"20189621","DistrictId":"20189623","AddressId":"184121626","RoadLinkId":"37914249"}}},{"Relevance":1.0,"Distance":136.4,"MatchLevel":"houseNumber","MatchQuality":{"Country":1.0,"State":1.0,"County":1.0,"City":1.0,"District":1.0,"Street":[1.0],"HouseNumber":1.0,"PostalCode":1.0},"MatchType":"interpolated","Location":{"LocationId":"NT_7cGFmcbJIS.dO8-mmgJ.qD_4EE","LocationType":"point","DisplayPosition":{"Latitude":54.20431,"Longitude":12.30891},"MapView":{"TopLeft":{"Latitude":54.2054342,"Longitude":12.306988},"BottomRight":{"Latitude":54.2031858,"Longitude":12.310832}},"Address":{"Label":"Heidering 8A, 18182 Gelbensande, Deutschland","Country":"DEU","State":"Mecklenburg-Vorpommern","County":"Rostock (Landkreis)","City":"Gelbensande","District":"Gelbensande","Street":"Heidering","HouseNumber":"8A","PostalCode":"18182","AdditionalData":[{"value":"Deutschland","key":"CountryName"},{"value":"Mecklenburg-Vorpommern","key":"StateName"},{"value":"Rostock (Landkreis)","key":"CountyName"}]},"MapReference":{"ReferenceId":"551703512","Spot":0.45,"SideOfStreet":"left","CountryId":"20147700","StateId":"20189515","CountyId":"20189589","CityId":"20189621","DistrictId":"20189623","AddressId":"184125134","RoadLinkId":"37717527"}}}]}]}}