{"Response":{"MetaInfo":{"Timestamp":"2020-03-28T10:13:04.106+0000","NextPageInformation":"2"},"View":[{"_type":"SearchResultsViewType","ViewId":0,"Result":[{"Relevance":1.0,"Distance":0.0,"Direction":0.0,"MatchLevel":"district","MatchQuality":{"Country":1.0,"State":1.0,"County":1.0,"City":1.0,"District":1.0,"Subdistrict":1.0,"PostalCode":1.0},"Location":{"LocationId":"NT_MJbYybguAdh-Kdjhfte5HB","LocationType":"point","DisplayPosition":{"Latitude":54.3551948,"Longitude":18.5053864},"MapView":{"TopLeft":{"Latitude":54.38492,"Longitude":18.43038},"BottomRight":{"Latitude":54.31696,"Longitude":18.53192}},"Address":{"Label":"Kokoszki, Gdańsk, Woj. Pomorskie, Polska","Country":"POL","State":"Woj. Pomorskie","County":"Gdańsk","City":"Gdańsk","District":"Gdańsk","Subdistrict":"Kokoszki","PostalCode":"80-298","AdditionalData":[{"value":"Polska","key":"CountryName"},{"value":"Woj. Pomorskie","key":"StateName"},{"value":"Gdańsk","key":"CountyName"}]},"MapReference":{"ReferenceId":"888072969","SideOfStreet":"neither","CountryId":"20624059","StateId":"20628728","CountyId":"20628729","CityId":"20628730","DistrictId":"20646650"}}},{"Relevance":1.0,"Distance":20.4,"MatchLevel":"street","MatchQuality":{"Country":1.0,"State":1.0,"County":1.0,"City":1.0,"District":1.0,"Subdistrict":1.0,"Street":[1.0],"PostalCode":1.0},"Location":{"LocationId":"NT_yZwvadCBhyuNCmkv6XhmIA_l_594913369_L","LocationType":"point","DisplayPosition":{"Latitude":54.3553769,"Longitude":18.5054283},"MapView":{"TopLeft":{"Latitude":54.35571,"Longitude":18.50398},"BottomRight":{"Latitude":54.35525,"Longitude":18.50598}},"Address":{"Label":"ulica Rozwojowa, 80-298 Gdańsk, Polska","Country":"POL","State":"Woj. Pomorskie","County":"Gdańsk","City":"Gdańsk","District":"Gdańsk","Subdistrict":"Kokoszki","Street":"ulica Rozwojowa","PostalCode":"80-298","AdditionalData":[{"value":"Polska","key":"CountryName"},{"value":"Woj. Pomorskie","key":"StateName"},{"value":"Gdańsk","key":"CountyName"}]},"MapReference":{"ReferenceId":"594913369","Spot":0.28,"SideOfStreet":"left","CountryId":"20624059","StateId":"20628728","CountyId":"20628729","CityId":"20628730","DistrictId":"20628730"}}},{"Relevance":1.0,"Distance":52.2,"MatchLevel":"houseNumber","MatchQuality":{"Country":1.0,"State":1.0,"County":1.0,"City":1.0,"District":1.0,"Subdistrict":1.0,"Street":[1.0],"HouseNumber":1.0,"PostalCode":1.0},"MatchType":"interpolated","Location":{"LocationId":"NT_izSiGAOl7sCfVjlKW2AKVC_xUzLxA","LocationType":"point","DisplayPosition":{"Latitude":54.35517,"Longitude":18.50626},"MapView":{"TopLeft":{"Latitude":54.3562942,"Longitude":18.504331},"BottomRight":{"Latitude":54.3540458,"Longitude":18.508189}},"Address":{"Label":"ulica Azaliowa 15/1, 80-177 Gdańsk, Polska","Country":"POL","State":"Woj. Pomorskie","County":"Gdańsk","City":"Gdańsk","District":"Gdańsk","Subdistrict":"Kokoszki","Street":"ulica Azaliowa","HouseNumber":"15/1","PostalCode":"80-177","AdditionalData":[{"value":"Polska","key":"CountryName"},{"value":"Woj. Pomorskie","key":"StateName"},{"value":"Gdańsk","key":"CountyName"}]},"MapReference":{"ReferenceId":"1126820334","Spot":0.59,"SideOfStreet":"left","CountryId":"20624059","StateId":"20628728","CountyId":"20628729","CityId":"20628730","DistrictId":"20646650","AddressId":"768842512","RoadLinkId":"543211649"}}},{"Relevance":1.0,"Distance":58.0,"MatchLevel":"houseNumber","MatchQuality":{"Country":1.0,"State":1.0,"County":1.0,"City":1.0,"District":1.0,"Subdistrict":1.0,"Street":[1.0],"HouseNumber":1.0,"PostalCode":1.0},"MatchType":"interpolated","Location":{"LocationId":"NT_izSiGAOl7sCfVjlKW2AKVC_xEzLyA","LocationType":"point","DisplayPosition":{"Latitude":54.35467,"Longitude":18.50638},"MapView":{"TopLeft":{"Latitude":54.3557942,"Longitude":18.504451},"BottomRight":{"Latitude":54.3535458,"Longitude":18.508309}},"Address":{"Label":"ulica Azaliowa 11/2, 80-177 Gdańsk, Polska","Country":"POL","State":"Woj. Pomorskie","County":"Gdańsk","City":"Gdańsk","District":"Gdańsk","Subdistrict":"Kokoszki","Street":"ulica Azaliowa","HouseNumber":"11/2","PostalCode":"80-177","AdditionalData":[{"value":"Polska","key":"CountryName"},{"value":"Woj. Pomorskie","key":"StateName"},{"value":"Gdańsk","key":"CountyName"}]},"MapReference":{"ReferenceId":"1126821200","Spot":0.69,"SideOfStreet":"left","CountryId":"20624059","StateId":"20628728","CountyId":"20628729","CityId":"20628730","DistrictId":"20646650","AddressId":"768835347","RoadLinkId":"543211650"}}},{"Relevance":1.0,"Distance":68.8,"MatchLevel":"houseNumber","MatchQuality":{"Country":1.0,"State":1.0,"County":1.0,"City":1.0,"District":1.0,"Subdistrict":1.0,"Street":[1.0],"HouseNumber":1.0,"PostalCode":1.0},"MatchType":"interpolated","Location":{"LocationId":"NT_sY9z9jQ2BM8dZn0ovrzMUD_yAD","LocationType":"point","DisplayPosition":{"Latitude":54.35557,"Longitude":18.50623},"MapView":{"TopLeft":{"Latitude":54.3566942,"Longitude":18.504301},"BottomRight":{"Latitude":54.3544458,"Longitude":18.508159}},"Address":{"Label":"ulica Inżynierska 20, 80-298 Gdańsk, Polska","Country":"POL","State":"Woj. Pomorskie","County":"Gdańsk","City":"Gdańsk","District":"Gdańsk","Subdistrict":"Kokoszki","Street":"ulica Inżynierska","HouseNumber":"20","PostalCode":"80-298","AdditionalData":[{"value":"Polska","key":"CountryName"},{"value":"Woj. Pomorskie","key":"StateName"},{"value":"Gdańsk","key":"CountyName"}]},"MapReference":{"ReferenceId":"594913372","Spot":0.49,"SideOfStreet":"right","CountryId":"20624059","StateId":"20628728","CountyId":"20628729","CityId":"20628730","DistrictId":"20646650","AddressId":"211145756","RoadLinkId":"94892852"}}},{"Relevance":1.0,"Distance":71.9,"MatchLevel":"houseNumber","MatchQuality":{"Country":1.0,"State":1.0,"County":1.0,"City":1.0,"District":1.0,"Subdistrict":1.0,"Street":[1.0],"HouseNumber":1.0,"PostalCode":1.0},"MatchType":"interpolated","Location":{"LocationId":"NT_izSiGAOl7sCfVjlKW2AKVC_58SM","LocationType":"point","DisplayPosition":{"Latitude":54.35396,"Longitude":18.50524},"MapView":{"TopLeft":{"Latitude":54.3550842,"Longitude":18.503311},"BottomRight":{"Latitude":54.3528358,"Longitude":18.507169}},"Address":{"Label":"ulica Azaliowa 9/1, 80-177 Gdańsk, Polska","Country":"POL","State":"Woj. Pomorskie","County":"Gdańsk","City":"Gdańsk","District":"Gdańsk","Subdistrict":"Kokoszki","Street":"ulica Azaliowa","HouseNumber":"9/1","PostalCode":"80-177","AdditionalData":[{"value":"Polska","key":"CountryName"},{"value":"Woj. Pomorskie","key":"StateName"},{"value":"Gdańsk","key":"CountyName"}]},"MapReference":{"ReferenceId":"1126817128","Spot":0.73,"SideOfStreet":"right","CountryId":"20624059","StateId":"20628728","CountyId":"20628729","CityId":"20628730","DistrictId":"20646650","AddressId":"732082766","RoadLinkId":"436655222"}}},{"Relevance":1.0,"Distance":95.4,"MatchLevel":"street","MatchQuality":{"Country":1.0,"State":1.0,"County":1.0,"City":1.0,"District":1.0,"Subdistrict":1.0,"PostalCode":1.0},"Location":{"LocationId":"NT_R4n-w1qBtIzrGyah1EDSeC_l_1197739652_R","LocationType":"point","DisplayPosition":{"Latitude":54.35543,"Longitude":18.50397},"MapView":{"TopLeft":{"Latitude":54.35571,"Longitude":18.50342},"BottomRight":{"Latitude":54.35458,"Longitude":18.50399}},"Address":{"Label":"80-298 Gdańsk, Polska","Country":"POL","State":"Woj. Pomorskie","County":"Gdańsk","City":"Gdańsk","District":"Gdańsk","Subdistrict":"Kokoszki","PostalCode":"80-298","AdditionalData":[{"value":"Polska","key":"CountryName"},{"value":"Woj. Pomorskie","key":"StateName"},{"value":"Gdańsk","key":"CountyName"}]},"MapReference":{"ReferenceId":"1197739652","Spot":0.78,"SideOfStreet":"right","CountryId":"20624059","StateId":"20628728","CountyId":"20628729","CityId":"20628730","DistrictId":"20628730"}}},{"Relevance":1.0,"Distance":100.9,"MatchLevel":"houseNumber","MatchQuality":{"Country":1.0,"State":1.0,"County":1.0,"City":1.0,"District":1.0,"Subdistrict":1.0,"Street":[1.0],"HouseNumber":1.0,"PostalCode":1.0},"MatchType":"interpolated","Location":{"LocationId":"NT_sY9z9jQ2BM8dZn0ovrzMUD_xQD","LocationType":"point","DisplayPosition":{"Latitude":54.35429,"Longitude":18.50526},"MapView":{"TopLeft":{"Latitude":54.3554142,"Longitude":18.503331},"BottomRight":{"Latitude":54.3531658,"Longitude":18.507189}},"Address":{"Label":"ulica Inżynierska 14, 80-298 Gdańsk, Polska","Country":"POL","State":"Woj. Pomorskie","County":"Gdańsk","City":"Gdańsk","District":"Gdańsk","Subdistrict":"Kokoszki","Street":"ulica Inżynierska","HouseNumber":"14","PostalCode":"80-298","AdditionalData":[{"value":"Polska","key":"CountryName"},{"value":"Woj. Pomorskie","key":"StateName"},{"value":"Gdańsk","key":"CountyName"}]},"MapReference":{"ReferenceId":"594906989","Spot":0.22,"SideOfStreet":"right","CountryId":"20624059","StateId":"20628728","CountyId":"20628729","CityId":"20628730","DistrictId":"20646650","AddressId":"221966973","RoadLinkId":"94866528"}}},{"Relevance":1.0,"Distance":109.1,"MatchLevel":"houseNumber","MatchQuality":{"Country":1.0,"State":1.0,"County":1.0,"City":1.0,"District":1.0,"Subdistrict":1.0,"Street":[1.0],"HouseNumber":1.0,"PostalCode":1.0},"MatchType":"interpolated","Location":{"LocationId":"NT_izSiGAOl7sCfVjlKW2AKVC_xczLyA","LocationType":"point","DisplayPosition":{"Latitude":54.35497,"Longitude":18.50704},"MapView":{"TopLeft":{"Latitude":54.3560942,"Longitude":18.505111},"BottomRight":{"Latitude":54.3538458,"Longitude":18.508969}},"Address":{"Label":"ulica Azaliowa 17/2, 80-177 Gdańsk, Polska","Country":"POL","State":"Woj. Pomorskie","County":"Gdańsk","City":"Gdańsk","District":"Gdańsk","Subdistrict":"Kokoszki","Street":"ulica Azaliowa","HouseNumber":"17/2","PostalCode":"80-177","AdditionalData":[{"value":"Polska","key":"CountryName"},{"value":"Woj. Pomorskie","key":"StateName"},{"value":"Gdańsk","key":"CountyName"}]},"MapReference":{"ReferenceId":"1200332724","Spot":0.68,"SideOfStreet":"left","CountryId":"20624059","StateId":"20628728","CountyId":"20628729","CityId":"20628730","DistrictId":"20646650","AddressId":"768842040","RoadLinkId":"543211645"}}},{"Relevance":1.0,"Distance":132.3,"MatchLevel":"street","MatchQuality":{"Country":1.0,"State":1.0,"County":1.0,"City":1.0,"District":1.0,"Subdistrict":1.0,"Street":[1.0],"PostalCode":1.0},"Location":{"LocationId":"NT_XxFTaGeYltg8RsJsIjCBvB_l_1197739653_R","LocationType":"point","DisplayPosition":{"Latitude":54.35402,"Longitude":18.50506},"MapView":{"TopLeft":{"Latitude":54.35439,"Longitude":18.50351},"BottomRight":{"Latitude":54.35402,"Longitude":18.50506}},"Address":{"Label":"ulica Szafranowa, 80-298 Gdańsk, Polska","Country":"POL","State":"Woj. Pomorskie","County":"Gdańsk","City":"Gdańsk","District":"Gdańsk","Subdistrict":"Kokoszki","Street":"ulica Szafranowa","PostalCode":"80-298","AdditionalData":[{"value":"Polska","key":"CountryName"},{"value":"Woj. Pomorskie","key":"StateName"},{"value":"Gdańsk","key":"CountyName"}]},"MapReference":{"ReferenceId":"1197739653","Spot":0.0,"SideOfStreet":"right","CountryId":"20624059","StateId":"20628728","CountyId":"20628729","CityId":"20628730","DistrictId":"20628730"}}}]}]}}