{"Response":{"MetaInfo":{"Timestamp":"2020-03-28T10:48:59.048+0000","NextPageInformation":"2"},"View":[{"_type":"SearchResultsViewType","ViewId":0,"Result":[{"Relevance":1.0,"Distance":0.0,"Direction":0.0,"MatchLevel":"district","MatchQuality":{"Country":1.0,"State":1.0,"County":1.0,"City":1.0,"District":1.0,"Subdistrict":1.0,"PostalCode":1.0},"Location":{"LocationId":"NT_RLtFcQOPH0pgCAnlwBgsWC","LocationType":"point","DisplayPosition":{"Latitude":54.366622,"Longitude":18.6277007},"MapView":{"TopLeft":{"Latitude":54.3754,"Longitude":18.6131},"BottomRight":{"Latitude":54.35347,"Longitude":18.6441}},"Address":{"Label":"Aniołki, Gdańsk, Woj. Pomorskie, Polska","Country":"POL","State":"Woj. Pomorskie","County":"Gdańsk","City":"Gdańsk","District":"Gdańsk","Subdistrict":"Aniołki","PostalCode":"80-208","AdditionalData":[{"value":"Polska","key":"CountryName"},{"value":"Woj. Pomorskie","key":"StateName"},{"value":"Gdańsk","key":"CountyName"}]},"MapReference":{"ReferenceId":"594906671","SideOfStreet":"neither","CountryId":"20624059","StateId":"20628728","CountyId":"20628729","CityId":"20628730","DistrictId":"20646650"}}},{"Relevance":1.0,"Distance":11.5,"MatchLevel":"houseNumber","MatchQuality":{"Country":1.0,"State":1.0,"County":1.0,"City":1.0,"District":1.0,"Subdistrict":1.0,"Street":[1.0],"HouseNumber":1.0,"PostalCode":1.0},"MatchType":"interpolated","Location":{"LocationId":"NT_mm1idIwZY31TGFAAGTpB5B_1A","LocationType":"point","DisplayPosition":{"Latitude":54.36633,"Longitude":18.62791},"MapView":{"TopLeft":{"Latitude":54.3674542,"Longitude":18.6259805},"BottomRight":{"Latitude":54.3652058,"Longitude":18.6298395}},"Address":{"Label":"ulica Marii Skłodowskiej-Curie 5, 80-210 Gdańsk, Polska","Country":"POL","State":"Woj. Pomorskie","County":"Gdańsk","City":"Gdańsk","District":"Gdańsk","Subdistrict":"Aniołki","Street":"ulica Marii Skłodowskiej-Curie","HouseNumber":"5","PostalCode":"80-210","AdditionalData":[{"value":"Polska","key":"CountryName"},{"value":"Woj. Pomorskie","key":"StateName"},{"value":"Gdańsk","key":"CountyName"}]},"MapReference":{"ReferenceId":"833034900","Spot":0.46,"SideOfStreet":"left","CountryId":"20624059","StateId":"20628728","CountyId":"20628729","CityId":"20628730","DistrictId":"20646650","AddressId":"731834948","RoadLinkId":"216265673"}}},{"Relevance":1.0,"Distance":18.7,"MatchLevel":"houseNumber","MatchQuality":{"Country":1.0,"State":1.0,"County":1.0,"City":1.0,"District":1.0,"Subdistrict":1.0,"Street":[1.0],"HouseNumber":1.0,"PostalCode":1.0},"MatchType":"interpolated","Location":{"LocationId":"NT_zNdVco0qYpkW2x9RURDWaD_zA","LocationType":"point","DisplayPosition":{"Latitude":54.3669,"Longitude":18.62764},"MapView":{"TopLeft":{"Latitude":54.3680242,"Longitude":18.6257104},"BottomRight":{"Latitude":54.3657758,"Longitude":18.6295696}},"Address":{"Label":"ulica Daniela Fahrenheita 3, 80-214 Gdańsk, Polska","Country":"POL","State":"Woj. Pomorskie","County":"Gdańsk","City":"Gdańsk","District":"Gdańsk","Subdistrict":"Aniołki","Street":"ulica Daniela Fahrenheita","HouseNumber":"3","PostalCode":"80-214","AdditionalData":[{"value":"Polska","key":"CountryName"},{"value":"Woj. Pomorskie","key":"StateName"},{"value":"Gdańsk","key":"CountyName"}]},"MapReference":{"ReferenceId":"594906583","Spot":0.63,"SideOfStreet":"right","CountryId":"20624059","StateId":"20628728","CountyId":"20628729","CityId":"20628730","DistrictId":"20646650","AddressId":"209572953","RoadLinkId":"94835820"}}},{"Relevance":1.0,"Distance":56.1,"MatchLevel":"street","MatchQuality":{"Country":1.0,"State":1.0,"County":1.0,"City":1.0,"District":1.0,"Subdistrict":1.0,"Street":[1.0],"PostalCode":1.0},"Location":{"LocationId":"NT_eOHPHAo7PHY3Bjj7.Fj.lD_l_594906599_R","LocationType":"point","DisplayPosition":{"Latitude":54.36621,"Longitude":18.6272},"MapView":{"TopLeft":{"Latitude":54.36631,"Longitude":18.6268},"BottomRight":{"Latitude":54.36621,"Longitude":18.6272}},"Address":{"Label":"plac dr. Stefana Michalaka, 80-210 Gdańsk, Polska","Country":"POL","State":"Woj. Pomorskie","County":"Gdańsk","City":"Gdańsk","District":"Gdańsk","Subdistrict":"Aniołki","Street":"plac dr. Stefana Michalaka","PostalCode":"80-210","AdditionalData":[{"value":"Polska","key":"CountryName"},{"value":"Woj. Pomorskie","key":"StateName"},{"value":"Gdańsk","key":"CountyName"}]},"MapReference":{"ReferenceId":"594906599","Spot":0.0,"SideOfStreet":"right","CountryId":"20624059","StateId":"20628728","CountyId":"20628729","CityId":"20628730","DistrictId":"20646650"}}},{"Relevance":1.0,"Distance":56.1,"MatchLevel":"street","MatchQuality":{"Country":1.0,"State":1.0,"County":1.0,"City":1.0,"District":1.0,"Subdistrict":1.0,"Street":[1.0],"PostalCode":1.0},"Location":{"LocationId":"NT_eOHPHAo7PHY3Bjj7.Fj.lD_l_594906604_R","LocationType":"point","DisplayPosition":{"Latitude":54.36621,"Longitude":18.6272},"MapView":{"TopLeft":{"Latitude":54.36621,"Longitude":18.62694},"BottomRight":{"Latitude":54.36602,"Longitude":18.6272}},"Address":{"Label":"plac dr. Stefana Michalaka, 80-210 Gdańsk, Polska","Country":"POL","State":"Woj. Pomorskie","County":"Gdańsk","City":"Gdańsk","District":"Gdańsk","Subdistrict":"Aniołki","Street":"plac dr. Stefana Michalaka","PostalCode":"80-210","AdditionalData":[{"value":"Polska","key":"CountryName"},{"value":"Woj. Pomorskie","key":"StateName"},{"value":"Gdańsk","key":"CountyName"}]},"MapReference":{"ReferenceId":"594906604","Spot":1.0,"SideOfStreet":"right","CountryId":"20624059","StateId":"20628728","CountyId":"20628729","CityId":"20628730","DistrictId":"20646650"}}},{"Relevance":1.0,"Distance":67.9,"MatchLevel":"street","MatchQuality":{"Country":1.0,"State":1.0,"County":1.0,"City":1.0,"District":1.0,"Subdistrict":1.0,"Street":[1.0],"PostalCode":1.0},"Location":{"LocationId":"NT_eOHPHAo7PHY3Bjj7.Fj.lD_l_594915729_L","LocationType":"point","DisplayPosition":{"Latitude":54.36631,"Longitude":18.6268},"MapView":{"TopLeft":{"Latitude":54.36631,"Longitude":18.62655},"BottomRight":{"Latitude":54.36619,"Longitude":18.6268}},"Address":{"Label":"plac dr. Stefana Michalaka, 80-210 Gdańsk, Polska","Country":"POL","State":"Woj. Pomorskie","County":"Gdańsk","City":"Gdańsk","District":"Gdańsk","Subdistrict":"Aniołki","Street":"plac dr. Stefana Michalaka","PostalCode":"80-210","AdditionalData":[{"value":"Polska","key":"CountryName"},{"value":"Woj. Pomorskie","key":"StateName"},{"value":"Gdańsk","key":"CountyName"}]},"MapReference":{"ReferenceId":"594915729","Spot":1.0,"SideOfStreet":"left","CountryId":"20624059","StateId":"20628728","CountyId":"20628729","CityId":"20628730","DistrictId":"20646650"}}},{"Relevance":1.0,"Distance":67.9,"MatchLevel":"street","MatchQuality":{"Country":1.0,"State":1.0,"County":1.0,"City":1.0,"District":1.0,"Subdistrict":1.0,"Street":[1.0],"PostalCode":1.0},"Location":{"LocationId":"NT_OikTevx6MF.-Sf9FmcSiZD_l_594906597_R","LocationType":"point","DisplayPosition":{"Latitude":54.36631,"Longitude":18.6268},"MapView":{"TopLeft":{"Latitude":54.36676,"Longitude":18.62664},"BottomRight":{"Latitude":54.36631,"Longitude":18.6268}},"Address":{"Label":"ulica Dębinki, 80-211 Gdańsk, Polska","Country":"POL","State":"Woj. Pomorskie","County":"Gdańsk","City":"Gdańsk","District":"Gdańsk","Subdistrict":"Aniołki","Street":"ulica Dębinki","PostalCode":"80-211","AdditionalData":[{"value":"Polska","key":"CountryName"},{"value":"Woj. Pomorskie","key":"StateName"},{"value":"Gdańsk","key":"CountyName"}]},"MapReference":{"ReferenceId":"594906597","Spot":0.0,"SideOfStreet":"right","CountryId":"20624059","StateId":"20628728","CountyId":"20628729","CityId":"20628730","DistrictId":"20646650"}}},{"Relevance":1.0,"Distance":69.7,"MatchLevel":"street","MatchQuality":{"Country":1.0,"State":1.0,"County":1.0,"City":1.0,"District":1.0,"Subdistrict":1.0,"Street":[1.0],"PostalCode":1.0},"Location":{"LocationId":"NT_mm1idIwZY31TGFAAGTpB5B_l_833034901_L","LocationType":"point","DisplayPosition":{"Latitude":54.36646,"Longitude":18.62874},"MapView":{"TopLeft":{"Latitude":54.36652,"Longitude":18.62874},"BottomRight":{"Latitude":54.36646,"Longitude":18.62914}},"Address":{"Label":"ulica Marii Skłodowskiej-Curie, 80-210 Gdańsk, Polska","Country":"POL","State":"Woj. Pomorskie","County":"Gdańsk","City":"Gdańsk","District":"Gdańsk","Subdistrict":"Aniołki","Street":"ulica Marii Skłodowskiej-Curie","PostalCode":"80-210","AdditionalData":[{"value":"Polska","key":"CountryName"},{"value":"Woj. Pomorskie","key":"StateName"},{"value":"Gdańsk","key":"CountyName"}]},"MapReference":{"ReferenceId":"833034901","Spot":0.0,"SideOfStreet":"left","CountryId":"20624059","StateId":"20628728","CountyId":"20628729","CityId":"20628730","DistrictId":"20646650"}}},{"Relevance":1.0,"Distance":69.7,"MatchLevel":"street","MatchQuality":{"Country":1.0,"State":1.0,"County":1.0,"City":1.0,"District":1.0,"Subdistrict":1.0,"PostalCode":1.0},"Location":{"LocationId":"NT_DVoYSEM7B7f-2QCbAL2gDA_l_833034902_L","LocationType":"point","DisplayPosition":{"Latitude":54.36646,"Longitude":18.62874},"MapView":{"TopLeft":{"Latitude":54.3669,"Longitude":18.62874},"BottomRight":{"Latitude":54.36646,"Longitude":18.62922}},"Address":{"Label":"80-214 Gdańsk, Polska","Country":"POL","State":"Woj. Pomorskie","County":"Gdańsk","City":"Gdańsk","District":"Gdańsk","Subdistrict":"Aniołki","PostalCode":"80-214","AdditionalData":[{"value":"Polska","key":"CountryName"},{"value":"Woj. Pomorskie","key":"StateName"},{"value":"Gdańsk","key":"CountyName"}]},"MapReference":{"ReferenceId":"833034902","Spot":0.0,"SideOfStreet":"left","CountryId":"20624059","StateId":"20628728","CountyId":"20628729","CityId":"20628730","DistrictId":"20646650"}}},{"Relevance":1.0,"Distance":71.5,"MatchLevel":"houseNumber","MatchQuality":{"Country":1.0,"State":1.0,"County":1.0,"City":1.0,"District":1.0,"Subdistrict":1.0,"Street":[1.0],"HouseNumber":1.0,"PostalCode":1.0},"MatchType":"interpolated","Location":{"LocationId":"NT_OikTevx6MF.-Sf9FmcSiZD_3IE","LocationType":"point","DisplayPosition":{"Latitude":54.36622,"Longitude":18.62684},"MapView":{"TopLeft":{"Latitude":54.3673442,"Longitude":18.6249105},"BottomRight":{"Latitude":54.3650958,"Longitude":18.6287695}},"Address":{"Label":"ulica Dębinki 7B, 80-211 Gdańsk, Polska","Country":"POL","State":"Woj. Pomorskie","County":"Gdańsk","City":"Gdańsk","District":"Gdańsk","Subdistrict":"Aniołki","Street":"ulica Dębinki","HouseNumber":"7B","PostalCode":"80-211","AdditionalData":[{"value":"Polska","key":"CountryName"},{"value":"Woj. Pomorskie","key":"StateName"},{"value":"Gdańsk","key":"CountyName"}]},"MapReference":{"ReferenceId":"594906605","Spot":0.69,"SideOfStreet":"left","CountryId":"20624059","StateId":"20628728","CountyId":"20628729","CityId":"20628730","DistrictId":"20646650","AddressId":"210550752","RoadLinkId":"95171438"}}}]}]}}