{"Response":{"MetaInfo":{"Timestamp":"2020-03-28T12:06:07.591+0000","NextPageInformation":"2"},"View":[{"_type":"SearchResultsViewType","ViewId":0,"Result":[{"Relevance":1.0,"Distance":0.0,"Direction":0.0,"MatchLevel":"district","MatchQuality":{"Country":1.0,"State":1.0,"County":1.0,"City":1.0,"District":1.0,"PostalCode":1.0},"Location":{"LocationId":"NT_4I-aca5jepnZ2XCwD5TN7A","LocationType":"point","DisplayPosition":{"Latitude":54.4207043,"Longitude":16.4099481},"MapView":{"TopLeft":{"Latitude":54.44497,"Longitude":16.36892},"BottomRight":{"Latitude":54.4072,"Longitude":16.42963}},"Address":{"Label":"Darłowo, Woj. Zachodniopomorskie, Polska","Country":"POL","State":"Woj. Zachodniopomorskie","County":"Powiat Sławieński","City":"Darłowo","District":"Darłowo","PostalCode":"76-150","AdditionalData":[{"value":"Polska","key":"CountryName"},{"value":"Woj. Zachodniopomorskie","key":"StateName"},{"value":"Powiat Sławieński","key":"CountyName"}]},"MapReference":{"ReferenceId":"916400991","SideOfStreet":"neither","CountryId":"20624059","StateId":"20631896","CountyId":"20632091","CityId":"20698265","DistrictId":"20698266"}}},{"Relevance":1.0,"Distance":4.9,"MatchLevel":"houseNumber","MatchQuality":{"Country":1.0,"State":1.0,"County":1.0,"City":1.0,"District":1.0,"Street":[1.0],"HouseNumber":1.0,"PostalCode":1.0},"MatchType":"interpolated","Location":{"LocationId":"NT_RmJWhMaKFiY-RAkKijUiSA_yAD","LocationType":"point","DisplayPosition":{"Latitude":54.42059,"Longitude":16.41019},"MapView":{"TopLeft":{"Latitude":54.4217142,"Longitude":16.4082579},"BottomRight":{"Latitude":54.4194658,"Longitude":16.4121221}},"Address":{"Label":"ulica Powstańców Warszawskich 20, 76-150 Darłowo, Polska","Country":"POL","State":"Woj. Zachodniopomorskie","County":"Powiat Sławieński","City":"Darłowo","District":"Darłowo","Street":"ulica Powstańców Warszawskich","HouseNumber":"20","PostalCode":"76-150","AdditionalData":[{"value":"Polska","key":"CountryName"},{"value":"Woj. Zachodniopomorskie","key":"StateName"},{"value":"Powiat Sławieński","key":"CountyName"}]},"MapReference":{"ReferenceId":"594942340","Spot":0.56,"SideOfStreet":"left","CountryId":"20624059","StateId":"20631896","CountyId":"20632091","CityId":"20698265","DistrictId":"20698266","AddressId":"211519768","RoadLinkId":"95292536"}}},{"Relevance":1.0,"Distance":32.9,"MatchLevel":"houseNumber","MatchQuality":{"Country":1.0,"State":1.0,"County":1.0,"City":1.0,"District":1.0,"Street":[1.0],"HouseNumber":1.0,"PostalCode":1.0},"MatchType":"interpolated","Location":{"LocationId":"NT_qfFzrnemfs-OCbXBehck.B_xEE","LocationType":"point","DisplayPosition":{"Latitude":54.42113,"Longitude":16.41007},"MapView":{"TopLeft":{"Latitude":54.4222542,"Longitude":16.4081379},"BottomRight":{"Latitude":54.4200058,"Longitude":16.4120021}},"Address":{"Label":"ulica Morska 1A, 76-150 Darłowo, Polska","Country":"POL","State":"Woj. Zachodniopomorskie","County":"Powiat Sławieński","City":"Darłowo","District":"Darłowo","Street":"ulica Morska","HouseNumber":"1A","PostalCode":"76-150","AdditionalData":[{"value":"Polska","key":"CountryName"},{"value":"Woj. Zachodniopomorskie","key":"StateName"},{"value":"Powiat Sławieński","key":"CountyName"}]},"MapReference":{"ReferenceId":"594942266","Spot":0.44,"SideOfStreet":"left","CountryId":"20624059","StateId":"20631896","CountyId":"20632091","CityId":"20698265","DistrictId":"20698266","AddressId":"582581306","RoadLinkId":"95332030"}}},{"Relevance":1.0,"Distance":53.7,"MatchLevel":"houseNumber","MatchQuality":{"Country":1.0,"State":1.0,"County":1.0,"City":1.0,"District":1.0,"Street":[1.0],"HouseNumber":1.0,"PostalCode":1.0},"MatchType":"interpolated","Location":{"LocationId":"NT_RmJWhMaKFiY-RAkKijUiSA_xUD","LocationType":"point","DisplayPosition":{"Latitude":54.42105,"Longitude":16.41061},"MapView":{"TopLeft":{"Latitude":54.4221742,"Longitude":16.4086779},"BottomRight":{"Latitude":54.4199258,"Longitude":16.4125421}},"Address":{"Label":"ulica Powstańców Warszawskich 15, 76-150 Darłowo, Polska","Country":"POL","State":"Woj. Zachodniopomorskie","County":"Powiat Sławieński","City":"Darłowo","District":"Darłowo","Street":"ulica Powstańców Warszawskich","HouseNumber":"15","PostalCode":"76-150","AdditionalData":[{"value":"Polska","key":"CountryName"},{"value":"Woj. Zachodniopomorskie","key":"StateName"},{"value":"Powiat Sławieński","key":"CountyName"}]},"MapReference":{"ReferenceId":"594942265","Spot":0.09,"SideOfStreet":"left","CountryId":"20624059","StateId":"20631896","CountyId":"20632091","CityId":"20698265","DistrictId":"20698266","AddressId":"209232679","RoadLinkId":"95104453"}}},{"Relevance":1.0,"Distance":54.7,"MatchLevel":"houseNumber","MatchQuality":{"Country":1.0,"State":1.0,"County":1.0,"City":1.0,"District":1.0,"Street":[1.0],"HouseNumber":1.0,"PostalCode":1.0},"MatchType":"interpolated","Location":{"LocationId":"NT_ckVFrwVBFJ9U9QcKk5jEJA_zYD","LocationType":"point","DisplayPosition":{"Latitude":54.42116,"Longitude":16.40931},"MapView":{"TopLeft":{"Latitude":54.4222842,"Longitude":16.4073779},"BottomRight":{"Latitude":54.4200358,"Longitude":16.4112421}},"Address":{"Label":"ulica Pocztowa 36, 76-150 Darłowo, Polska","Country":"POL","State":"Woj. Zachodniopomorskie","County":"Powiat Sławieński","City":"Darłowo","District":"Darłowo","Street":"ulica Pocztowa","HouseNumber":"36","PostalCode":"76-150","AdditionalData":[{"value":"Polska","key":"CountryName"},{"value":"Woj. Zachodniopomorskie","key":"StateName"},{"value":"Powiat Sławieński","key":"CountyName"}]},"MapReference":{"ReferenceId":"594942322","Spot":0.85,"SideOfStreet":"right","CountryId":"20624059","StateId":"20631896","CountyId":"20632091","CityId":"20698265","DistrictId":"20698266","AddressId":"732246442","RoadLinkId":"95053246"}}},{"Relevance":1.0,"Distance":70.5,"MatchLevel":"houseNumber","MatchQuality":{"Country":1.0,"State":1.0,"County":1.0,"City":1.0,"District":1.0,"Street":[1.0],"HouseNumber":1.0,"PostalCode":1.0},"MatchType":"interpolated","Location":{"LocationId":"NT_wFIqEqR7H7juuJKEqg3y.B_xA","LocationType":"point","DisplayPosition":{"Latitude":54.42064,"Longitude":16.41123},"MapView":{"TopLeft":{"Latitude":54.4217642,"Longitude":16.4092979},"BottomRight":{"Latitude":54.4195158,"Longitude":16.4131621}},"Address":{"Label":"ulica Zamkowa 1, 76-150 Darłowo, Polska","Country":"POL","State":"Woj. Zachodniopomorskie","County":"Powiat Sławieński","City":"Darłowo","District":"Darłowo","Street":"ulica Zamkowa","HouseNumber":"1","PostalCode":"76-150","AdditionalData":[{"value":"Polska","key":"CountryName"},{"value":"Woj. Zachodniopomorskie","key":"StateName"},{"value":"Powiat Sławieński","key":"CountyName"}]},"MapReference":{"ReferenceId":"901089341","Spot":0.77,"SideOfStreet":"left","CountryId":"20624059","StateId":"20631896","CountyId":"20632091","CityId":"20698265","DistrictId":"20698266","AddressId":"211344459","RoadLinkId":"262723307"}}},{"Relevance":1.0,"Distance":71.2,"MatchLevel":"houseNumber","MatchQuality":{"Country":1.0,"State":1.0,"County":1.0,"City":1.0,"District":1.0,"Street":[1.0],"HouseNumber":1.0,"PostalCode":1.0},"MatchType":"interpolated","Location":{"LocationId":"NT_gDqeUpU9Hs5EJ4i0TnwluD_xEE","LocationType":"point","DisplayPosition":{"Latitude":54.42085,"Longitude":16.41102},"MapView":{"TopLeft":{"Latitude":54.4219742,"Longitude":16.4090879},"BottomRight":{"Latitude":54.4197258,"Longitude":16.4129521}},"Address":{"Label":"ulica Podzamcze 1A, 76-150 Darłowo, Polska","Country":"POL","State":"Woj. Zachodniopomorskie","County":"Powiat Sławieński","City":"Darłowo","District":"Darłowo","Street":"ulica Podzamcze","HouseNumber":"1A","PostalCode":"76-150","AdditionalData":[{"value":"Polska","key":"CountryName"},{"value":"Woj. Zachodniopomorskie","key":"StateName"},{"value":"Powiat Sławieński","key":"CountyName"}]},"MapReference":{"ReferenceId":"594942281","Spot":0.26,"SideOfStreet":"right","CountryId":"20624059","StateId":"20631896","CountyId":"20632091","CityId":"20698265","DistrictId":"20698266","AddressId":"702077130","RoadLinkId":"95072058"}}},{"Relevance":1.0,"Distance":72.5,"MatchLevel":"houseNumber","MatchQuality":{"Country":1.0,"State":1.0,"County":1.0,"City":1.0,"District":1.0,"Street":[1.0],"HouseNumber":1.0,"PostalCode":1.0},"MatchType":"interpolated","Location":{"LocationId":"NT_ckVFrwVBFJ9U9QcKk5jEJA_zcD","LocationType":"point","DisplayPosition":{"Latitude":54.42137,"Longitude":16.40949},"MapView":{"TopLeft":{"Latitude":54.4224942,"Longitude":16.4075579},"BottomRight":{"Latitude":54.4202458,"Longitude":16.4114221}},"Address":{"Label":"ulica Pocztowa 37, 76-150 Darłowo, Polska","Country":"POL","State":"Woj. Zachodniopomorskie","County":"Powiat Sławieński","City":"Darłowo","District":"Darłowo","Street":"ulica Pocztowa","HouseNumber":"37","PostalCode":"76-150","AdditionalData":[{"value":"Polska","key":"CountryName"},{"value":"Woj. Zachodniopomorskie","key":"StateName"},{"value":"Powiat Sławieński","key":"CountyName"}]},"MapReference":{"ReferenceId":"594942225","Spot":0.06,"SideOfStreet":"right","CountryId":"20624059","StateId":"20631896","CountyId":"20632091","CityId":"20698265","DistrictId":"20698266","AddressId":"209592966","RoadLinkId":"94838540"}}},{"Relevance":1.0,"Distance":80.4,"MatchLevel":"street","MatchQuality":{"Country":1.0,"State":1.0,"County":1.0,"City":1.0,"District":1.0,"Street":[1.0],"PostalCode":1.0},"Location":{"LocationId":"NT_gDqeUpU9Hs5EJ4i0TnwluD_l_594942293_L","LocationType":"point","DisplayPosition":{"Latitude":54.4208,"Longitude":16.41118},"MapView":{"TopLeft":{"Latitude":54.4208,"Longitude":16.41118},"BottomRight":{"Latitude":54.42071,"Longitude":16.41165}},"Address":{"Label":"ulica Podzamcze, 76-150 Darłowo, Polska","Country":"POL","State":"Woj. Zachodniopomorskie","County":"Powiat Sławieński","City":"Darłowo","District":"Darłowo","Street":"ulica Podzamcze","PostalCode":"76-150","AdditionalData":[{"value":"Polska","key":"CountryName"},{"value":"Woj. Zachodniopomorskie","key":"StateName"},{"value":"Powiat Sławieński","key":"CountyName"}]},"MapReference":{"ReferenceId":"594942293","Spot":1.0,"SideOfStreet":"left","CountryId":"20624059","StateId":"20631896","CountyId":"20632091","CityId":"20698265","DistrictId":"20698266"}}},{"Relevance":1.0,"Distance":81.3,"MatchLevel":"houseNumber","MatchQuality":{"Country":1.0,"State":1.0,"County":1.0,"City":1.0,"District":1.0,"Street":[1.0],"HouseNumber":1.0,"PostalCode":1.0},"MatchType":"interpolated","Location":{"LocationId":"NT_kvt-5JwCP44kgDVQIRkKJB_yA","LocationType":"point","DisplayPosition":{"Latitude":54.42,"Longitude":16.4106},"MapView":{"TopLeft":{"Latitude":54.4211242,"Longitude":16.4086679},"BottomRight":{"Latitude":54.4188758,"Longitude":16.4125321}},"Address":{"Label":"ulica Krótka 2, 76-150 Darłowo, Polska","Country":"POL","State":"Woj. Zachodniopomorskie","County":"Powiat Sławieński","City":"Darłowo","District":"Darłowo","Street":"ulica Krótka","HouseNumber":"2","PostalCode":"76-150","AdditionalData":[{"value":"Polska","key":"CountryName"},{"value":"Woj. Zachodniopomorskie","key":"StateName"},{"value":"Powiat Sławieński","key":"CountyName"}]},"MapReference":{"ReferenceId":"594942361","Spot":0.46,"SideOfStreet":"left","CountryId":"20624059","StateId":"20631896","CountyId":"20632091","CityId":"20698265","DistrictId":"20698266","AddressId":"702077104","RoadLinkId":"95022204"}}}]}]}}