{"Response":{"MetaInfo":{"Timestamp":"2020-03-28T10:24:49.053+0000","NextPageInformation":"2"},"View":[{"_type":"SearchResultsViewType","ViewId":0,"Result":[{"Relevance":1.0,"Distance":-193.9,"MatchLevel":"landmark","MatchQuality":{"Country":1.0,"State":1.0,"County":1.0,"Name":1.0},"Location":{"LocationId":"NT_EDBe3eMjYUvW.Lryv80UPC","LocationType":"island","Name":"Rügen","DisplayPosition":{"Latitude":54.45293,"Longitude":13.33828},"MapView":{"TopLeft":{"Latitude":54.68503,"Longitude":13.11406},"BottomRight":{"Latitude":54.22083,"Longitude":13.76636}},"Address":{"Label":"Deutschland","Country":"DEU","State":"Mecklenburg-Vorpommern","County":"Vorpommern-Rügen","AdditionalData":[{"value":"Deutschland","key":"CountryName"},{"value":"Mecklenburg-Vorpommern","key":"StateName"},{"value":"Vorpommern-Rügen","key":"CountyName"}]},"MapReference":{"CountryId":"20147700","StateId":"20189515","CountyId":"20190359","PlaceId":"56290934"}}},{"Relevance":1.0,"Distance":0.0,"Direction":0.0,"MatchLevel":"district","MatchQuality":{"Country":1.0,"State":1.0,"County":1.0,"City":1.0,"District":1.0,"PostalCode":1.0},"Location":{"LocationId":"NT_swH4Gbg6q4p-IuJVsx6vbA","LocationType":"point","DisplayPosition":{"Latitude":54.4021913,"Longitude":13.6114337},"MapView":{"TopLeft":{"Latitude":54.41738,"Longitude":13.59074},"BottomRight":{"Latitude":54.38898,"Longitude":13.6247}},"Address":{"Label":"Binz, Mecklenburg-Vorpommern, Deutschland","Country":"DEU","State":"Mecklenburg-Vorpommern","County":"Vorpommern-Rügen","City":"Binz","District":"Binz","PostalCode":"18609","AdditionalData":[{"value":"Deutschland","key":"CountryName"},{"value":"Mecklenburg-Vorpommern","key":"StateName"},{"value":"Vorpommern-Rügen","key":"CountyName"}]},"MapReference":{"ReferenceId":"77312858","SideOfStreet":"neither","CountryId":"20147700","StateId":"20189515","CountyId":"20190359","CityId":"20190967","DistrictId":"20190969"}}},{"Relevance":1.0,"Distance":16.3,"MatchLevel":"houseNumber","MatchQuality":{"Country":1.0,"State":1.0,"County":1.0,"City":1.0,"District":1.0,"Street":[1.0],"HouseNumber":1.0,"PostalCode":1.0},"MatchType":"interpolated","Location":{"LocationId":"NT_0NOP2jZ1q5oTsVfl7wpf8C_xAD","LocationType":"point","DisplayPosition":{"Latitude":54.40193,"Longitude":13.61125},"MapView":{"TopLeft":{"Latitude":54.4030542,"Longitude":13.6093188},"BottomRight":{"Latitude":54.4008058,"Longitude":13.6131812}},"Address":{"Label":"Schillerstraße 10, 18609 Binz, Deutschland","Country":"DEU","State":"Mecklenburg-Vorpommern","County":"Vorpommern-Rügen","City":"Binz","District":"Binz","Street":"Schillerstraße","HouseNumber":"10","PostalCode":"18609","AdditionalData":[{"value":"Deutschland","key":"CountryName"},{"value":"Mecklenburg-Vorpommern","key":"StateName"},{"value":"Vorpommern-Rügen","key":"CountyName"}]},"MapReference":{"ReferenceId":"77312849","Spot":0.58,"SideOfStreet":"right","CountryId":"20147700","StateId":"20189515","CountyId":"20190359","CityId":"20190967","DistrictId":"20190969","AddressId":"184023425","RoadLinkId":"37743304"}}},{"Relevance":1.0,"Distance":30.1,"MatchLevel":"houseNumber","MatchQuality":{"Country":1.0,"State":1.0,"County":1.0,"City":1.0,"District":1.0,"Street":[1.0],"HouseNumber":1.0,"PostalCode":1.0},"MatchType":"interpolated","Location":{"LocationId":"NT_K1M7ti8hL5TUOkCt76kX2C_xgD","LocationType":"point","DisplayPosition":{"Latitude":54.40257,"Longitude":13.6113},"MapView":{"TopLeft":{"Latitude":54.4036942,"Longitude":13.6093688},"BottomRight":{"Latitude":54.4014458,"Longitude":13.6132312}},"Address":{"Label":"Margaretenstraße 18, 18609 Binz, Deutschland","Country":"DEU","State":"Mecklenburg-Vorpommern","County":"Vorpommern-Rügen","City":"Binz","District":"Binz","Street":"Margaretenstraße","HouseNumber":"18","PostalCode":"18609","AdditionalData":[{"value":"Deutschland","key":"CountryName"},{"value":"Mecklenburg-Vorpommern","key":"StateName"},{"value":"Vorpommern-Rügen","key":"CountyName"}]},"MapReference":{"ReferenceId":"77312987","Spot":0.97,"SideOfStreet":"right","CountryId":"20147700","StateId":"20189515","CountyId":"20190359","CityId":"20190967","DistrictId":"20190969","AddressId":"184087203","RoadLinkId":"37580764"}}},{"Relevance":1.0,"Distance":49.3,"MatchLevel":"houseNumber","MatchQuality":{"Country":1.0,"State":1.0,"County":1.0,"City":1.0,"District":1.0,"Street":[1.0],"HouseNumber":1.0,"PostalCode":1.0},"MatchType":"interpolated","Location":{"LocationId":"NT_K1M7ti8hL5TUOkCt76kX2C_yAD","LocationType":"point","DisplayPosition":{"Latitude":54.40272,"Longitude":13.61157},"MapView":{"TopLeft":{"Latitude":54.4038442,"Longitude":13.6096387},"BottomRight":{"Latitude":54.4015958,"Longitude":13.6135013}},"Address":{"Label":"Margaretenstraße 20, 18609 Binz, Deutschland","Country":"DEU","State":"Mecklenburg-Vorpommern","County":"Vorpommern-Rügen","City":"Binz","District":"Binz","Street":"Margaretenstraße","HouseNumber":"20","PostalCode":"18609","AdditionalData":[{"value":"Deutschland","key":"CountryName"},{"value":"Mecklenburg-Vorpommern","key":"StateName"},{"value":"Vorpommern-Rügen","key":"CountyName"}]},"MapReference":{"ReferenceId":"77313038","Spot":0.28,"SideOfStreet":"right","CountryId":"20147700","StateId":"20189515","CountyId":"20190359","CityId":"20190967","DistrictId":"20190969","AddressId":"249940344","RoadLinkId":"236656986"}}},{"Relevance":1.0,"Distance":84.9,"MatchLevel":"houseNumber","MatchQuality":{"Country":1.0,"State":1.0,"County":1.0,"City":1.0,"District":1.0,"Street":[1.0],"HouseNumber":1.0,"PostalCode":1.0},"MatchType":"interpolated","Location":{"LocationId":"NT_jYGx4rLlim3TjzzPdLz2tC_xA","LocationType":"point","DisplayPosition":{"Latitude":54.40289,"Longitude":13.61078},"MapView":{"TopLeft":{"Latitude":54.4040142,"Longitude":13.6088487},"BottomRight":{"Latitude":54.4017658,"Longitude":13.6127113}},"Address":{"Label":"Marienstraße 1, 18609 Binz, Deutschland","Country":"DEU","State":"Mecklenburg-Vorpommern","County":"Vorpommern-Rügen","City":"Binz","District":"Binz","Street":"Marienstraße","HouseNumber":"1","PostalCode":"18609","AdditionalData":[{"value":"Deutschland","key":"CountryName"},{"value":"Mecklenburg-Vorpommern","key":"StateName"},{"value":"Vorpommern-Rügen","key":"CountyName"}]},"MapReference":{"ReferenceId":"77312988","Spot":0.38,"SideOfStreet":"left","CountryId":"20147700","StateId":"20189515","CountyId":"20190359","CityId":"20190967","DistrictId":"20190969","AddressId":"184449770","RoadLinkId":"37920600"}}},{"Relevance":1.0,"Distance":89.0,"MatchLevel":"houseNumber","MatchQuality":{"Country":1.0,"State":1.0,"County":1.0,"City":1.0,"District":1.0,"Street":[1.0],"HouseNumber":1.0,"PostalCode":1.0},"MatchType":"interpolated","Location":{"LocationId":"NT_0NOP2jZ1q5oTsVfl7wpf8C_xID","LocationType":"point","DisplayPosition":{"Latitude":54.40241,"Longitude":13.61014},"MapView":{"TopLeft":{"Latitude":54.4035342,"Longitude":13.6082088},"BottomRight":{"Latitude":54.4012858,"Longitude":13.6120712}},"Address":{"Label":"Schillerstraße 12, 18609 Binz, Deutschland","Country":"DEU","State":"Mecklenburg-Vorpommern","County":"Vorpommern-Rügen","City":"Binz","District":"Binz","Street":"Schillerstraße","HouseNumber":"12","PostalCode":"18609","AdditionalData":[{"value":"Deutschland","key":"CountryName"},{"value":"Mecklenburg-Vorpommern","key":"StateName"},{"value":"Vorpommern-Rügen","key":"CountyName"}]},"MapReference":{"ReferenceId":"77312850","Spot":0.4,"SideOfStreet":"right","CountryId":"20147700","StateId":"20189515","CountyId":"20190359","CityId":"20190967","DistrictId":"20190969","AddressId":"184087806","RoadLinkId":"37431580"}}},{"Relevance":1.0,"Distance":99.3,"MatchLevel":"houseNumber","MatchQuality":{"Country":1.0,"State":1.0,"County":1.0,"City":1.0,"District":1.0,"Street":[1.0],"HouseNumber":1.0,"PostalCode":1.0},"MatchType":"interpolated","Location":{"LocationId":"NT_X98b4rODdo3GSMOhwEsDRA_ykD","LocationType":"point","DisplayPosition":{"Latitude":54.403,"Longitude":13.61238},"MapView":{"TopLeft":{"Latitude":54.4041242,"Longitude":13.6104487},"BottomRight":{"Latitude":54.4018758,"Longitude":13.6143113}},"Address":{"Label":"Strandpromenade 29, 18609 Binz, Deutschland","Country":"DEU","State":"Mecklenburg-Vorpommern","County":"Vorpommern-Rügen","City":"Binz","District":"Binz","Street":"Strandpromenade","HouseNumber":"29","PostalCode":"18609","AdditionalData":[{"value":"Deutschland","key":"CountryName"},{"value":"Mecklenburg-Vorpommern","key":"StateName"},{"value":"Vorpommern-Rügen","key":"CountyName"}]},"MapReference":{"ReferenceId":"77313039","Spot":0.93,"SideOfStreet":"left","CountryId":"20147700","StateId":"20189515","CountyId":"20190359","CityId":"20190967","DistrictId":"20190969","AddressId":"184508392","RoadLinkId":"37605164"}}},{"Relevance":1.0,"Distance":102.5,"MatchLevel":"houseNumber","MatchQuality":{"Country":1.0,"State":1.0,"County":1.0,"City":1.0,"District":1.0,"Street":[1.0],"HouseNumber":1.0,"PostalCode":1.0},"MatchType":"interpolated","Location":{"LocationId":"NT_0NOP2jZ1q5oTsVfl7wpf8C_0A","LocationType":"point","DisplayPosition":{"Latitude":54.40134,"Longitude":13.61235},"MapView":{"TopLeft":{"Latitude":54.4024642,"Longitude":13.6104188},"BottomRight":{"Latitude":54.4002158,"Longitude":13.6142812}},"Address":{"Label":"Schillerstraße 4, 18609 Binz, Deutschland","Country":"DEU","State":"Mecklenburg-Vorpommern","County":"Vorpommern-Rügen","City":"Binz","District":"Binz","Street":"Schillerstraße","HouseNumber":"4","PostalCode":"18609","AdditionalData":[{"value":"Deutschland","key":"CountryName"},{"value":"Mecklenburg-Vorpommern","key":"StateName"},{"value":"Vorpommern-Rügen","key":"CountyName"}]},"MapReference":{"ReferenceId":"77312846","Spot":0.69,"SideOfStreet":"right","CountryId":"20147700","StateId":"20189515","CountyId":"20190359","CityId":"20190967","DistrictId":"20190969","AddressId":"184100117","RoadLinkId":"37782377"}}},{"Relevance":1.0,"Distance":113.6,"MatchLevel":"houseNumber","MatchQuality":{"Country":1.0,"State":1.0,"County":1.0,"City":1.0,"District":1.0,"Street":[1.0],"HouseNumber":1.0,"PostalCode":1.0},"MatchType":"interpolated","Location":{"LocationId":"NT_X98b4rODdo3GSMOhwEsDRA_zED","LocationType":"point","DisplayPosition":{"Latitude":54.40337,"Longitude":13.6117},"MapView":{"TopLeft":{"Latitude":54.4044942,"Longitude":13.6097687},"BottomRight":{"Latitude":54.4022458,"Longitude":13.6136313}},"Address":{"Label":"Strandpromenade 31, 18609 Binz, Deutschland","Country":"DEU","State":"Mecklenburg-Vorpommern","County":"Vorpommern-Rügen","City":"Binz","District":"Binz","Street":"Strandpromenade","HouseNumber":"31","PostalCode":"18609","AdditionalData":[{"value":"Deutschland","key":"CountryName"},{"value":"Mecklenburg-Vorpommern","key":"StateName"},{"value":"Vorpommern-Rügen","key":"CountyName"}]},"MapReference":{"ReferenceId":"77313040","Spot":0.36,"SideOfStreet":"left","CountryId":"20147700","StateId":"20189515","CountyId":"20190359","CityId":"20190967","DistrictId":"20190969","AddressId":"184060924","RoadLinkId":"38020934"}}}]}]}}