{"Response":{"MetaInfo":{"Timestamp":"2020-03-31T17:03:44.867+0000","NextPageInformation":"2"},"View":[{"_type":"SearchResultsViewType","ViewId":0,"Result":[{"Relevance":1.0,"Distance":0.0,"Direction":0.0,"MatchLevel":"district","MatchQuality":{"Country":1.0,"County":1.0,"City":1.0,"District":1.0,"PostalCode":1.0},"Location":{"LocationId":"NT_UfzxWviX03aJM8gRh5.2BC","LocationType":"point","DisplayPosition":{"Latitude":54.4778,"Longitude":-8.2809},"MapView":{"TopLeft":{"Latitude":54.49048,"Longitude":-8.32359},"BottomRight":{"Latitude":54.47109,"Longitude":-8.25798}},"Address":{"Label":"Bundoran, Donegal, Ireland","Country":"IRL","County":"County Donegal","City":"Donegal","District":"Bundoran","AdditionalData":[{"value":"Ireland","key":"CountryName"},{"value":"County Donegal","key":"CountyName"}]},"MapReference":{"ReferenceId":"1142344250","SideOfStreet":"neither","CountryId":"20403667","CountyId":"20411186","CityId":"20517304","DistrictId":"20517417"}}},{"Relevance":1.0,"Distance":10.3,"MatchLevel":"landmark","MatchQuality":{"Country":1.0,"Name":1.0},"Location":{"LocationId":"NT_ezW6mSwjj0yMbOZSMvSpqA","LocationType":"river","Name":"River Bradoge","DisplayPosition":{"Latitude":54.47174,"Longitude":-8.23248},"MapView":{"TopLeft":{"Latitude":54.47863,"Longitude":-8.28136},"BottomRight":{"Latitude":54.46553,"Longitude":-8.18222}},"Address":{"Label":"Ireland","Country":"IRL","AdditionalData":[{"value":"Ireland","key":"CountryName"}]},"MapReference":{"CountryId":"20403667","PlaceId":"1238257866"}}},{"Relevance":1.0,"Distance":14.0,"MatchLevel":"street","MatchQuality":{"Country":1.0,"County":1.0,"City":1.0,"District":1.0,"Street":[1.0],"PostalCode":1.0},"Location":{"LocationId":"NT_0a0spqz9Wv2kiJZa4KOq3D_l_1035638424_L","LocationType":"point","DisplayPosition":{"Latitude":54.4776765,"Longitude":-8.280861},"MapView":{"TopLeft":{"Latitude":54.47797,"Longitude":-8.28104},"BottomRight":{"Latitude":54.47762,"Longitude":-8.27996}},"Address":{"Label":"West End, Donegal, County Donegal, F94, Ireland","Country":"IRL","County":"County Donegal","City":"Donegal","District":"Bundoran","Street":"West End","PostalCode":"F94","AdditionalData":[{"value":"Ireland","key":"CountryName"},{"value":"County Donegal","key":"CountyName"}]},"MapReference":{"ReferenceId":"1035638424","Spot":0.17,"SideOfStreet":"left","CountryId":"20403667","CountyId":"20411186","CityId":"20517304","DistrictId":"20517417"}}},{"Relevance":1.0,"Distance":22.0,"MatchLevel":"street","MatchQuality":{"Country":1.0,"County":1.0,"City":1.0,"District":1.0,"Street":[1.0],"PostalCode":1.0},"Location":{"LocationId":"NT_0a0spqz9Wv2kiJZa4KOq3D_l_1035638423_L","LocationType":"point","DisplayPosition":{"Latitude":54.47762,"Longitude":-8.28104},"MapView":{"TopLeft":{"Latitude":54.47762,"Longitude":-8.28148},"BottomRight":{"Latitude":54.47749,"Longitude":-8.28104}},"Address":{"Label":"West End, Donegal, County Donegal, F94, Ireland","Country":"IRL","County":"County Donegal","City":"Donegal","District":"Bundoran","Street":"West End","PostalCode":"F94","AdditionalData":[{"value":"Ireland","key":"CountryName"},{"value":"County Donegal","key":"CountyName"}]},"MapReference":{"ReferenceId":"1035638423","Spot":1.0,"SideOfStreet":"left","CountryId":"20403667","CountyId":"20411186","CityId":"20517304","DistrictId":"20517417"}}},{"Relevance":1.0,"Distance":36.2,"MatchLevel":"postalCode","MatchQuality":{"PostalCode":1.0},"Location":{"LocationId":"NT_0a0spqz9Wv2kiJZa4KOq3D_l_1035638423_L","LocationType":"point","DisplayPosition":{"Latitude":54.47755,"Longitude":-8.28126},"MapView":{"TopLeft":{"Latitude":54.4865432,"Longitude":-8.2967383},"BottomRight":{"Latitude":54.4685568,"Longitude":-8.2657817}},"Address":{"Label":"F94 Y6XV, Donegal, Ireland","Country":"IRL","County":"County Donegal","City":"Donegal","PostalCode":"F94 Y6XV","AdditionalData":[{"value":"Ireland","key":"CountryName"},{"value":"County Donegal","key":"CountyName"}]},"MapReference":{"ReferenceId":"1035638423","Spot":1.0,"SideOfStreet":"neither","CountryId":"20403667","CountyId":"20411186","CityId":"20517304"}}},{"Relevance":1.0,"Distance":50.9,"MatchLevel":"street","MatchQuality":{"Country":1.0,"County":1.0,"City":1.0,"District":1.0,"Street":[1.0],"PostalCode":1.0},"Location":{"LocationId":"NT_YO6NWu3BP.iY-WTBEjwzID_l_1035992191_L","LocationType":"point","DisplayPosition":{"Latitude":54.47749,"Longitude":-8.28148},"MapView":{"TopLeft":{"Latitude":54.47749,"Longitude":-8.28188},"BottomRight":{"Latitude":54.47739,"Longitude":-8.28148}},"Address":{"Label":"West End, Donegal, County Donegal, F94, Ireland","Country":"IRL","County":"County Donegal","City":"Donegal","District":"Bundoran","Street":"West End","PostalCode":"F94","AdditionalData":[{"value":"Ireland","key":"CountryName"},{"value":"County Donegal","key":"CountyName"}]},"MapReference":{"ReferenceId":"1035992191","Spot":1.0,"SideOfStreet":"left","CountryId":"20403667","CountyId":"20411186","CityId":"20517304","DistrictId":"20517417"}}},{"Relevance":1.0,"Distance":61.2,"MatchLevel":"houseNumber","MatchQuality":{"Country":1.0,"County":1.0,"City":1.0,"District":1.0,"Street":[1.0],"PostalCode":1.0},"MatchType":"interpolated","Location":{"LocationId":"NT_M5VxpaeGyPPxODvbv6BeOB","LocationType":"point","DisplayPosition":{"Latitude":54.4772,"Longitude":-8.28089},"MapView":{"TopLeft":{"Latitude":54.4783242,"Longitude":-8.2828248},"BottomRight":{"Latitude":54.4760758,"Longitude":-8.2789552}},"Address":{"Label":"\"Sunbeam House\" Church Road, Donegal, County Donegal, F94 DY27, Ireland","Country":"IRL","County":"County Donegal","City":"Donegal","District":"Bundoran","Street":"Church Road","PostalCode":"F94 DY27","AdditionalData":[{"value":"Ireland","key":"CountryName"},{"value":"County Donegal","key":"CountyName"}],"Building":"Sunbeam House"},"MapReference":{"ReferenceId":"1035992189","Spot":0.73,"SideOfStreet":"right","CountryId":"20403667","CountyId":"20411186","CityId":"20517304","DistrictId":"20517417","AddressId":"743651888","RoadLinkId":"357914252"}}},{"Relevance":1.0,"Distance":64.4,"MatchLevel":"postalCode","MatchQuality":{"PostalCode":1.0},"Location":{"LocationId":"NT_YO6NWu3BP.iY-WTBEjwzID_l_1035992191_L","LocationType":"point","DisplayPosition":{"Latitude":54.47744,"Longitude":-8.28168},"MapView":{"TopLeft":{"Latitude":54.4864332,"Longitude":-8.2971582},"BottomRight":{"Latitude":54.4684468,"Longitude":-8.2662018}},"Address":{"Label":"F94 CH7V, Donegal, Ireland","Country":"IRL","County":"County Donegal","City":"Donegal","PostalCode":"F94 CH7V","AdditionalData":[{"value":"Ireland","key":"CountryName"},{"value":"County Donegal","key":"CountyName"}]},"MapReference":{"ReferenceId":"1035992191","Spot":1.0,"SideOfStreet":"neither","CountryId":"20403667","CountyId":"20411186","CityId":"20517304"}}},{"Relevance":1.0,"Distance":72.9,"MatchLevel":"street","MatchQuality":{"Country":1.0,"County":1.0,"City":1.0,"District":1.0,"Street":[1.0],"PostalCode":1.0},"Location":{"LocationId":"NT_yk-TILQBGBarQ6X29rPiFA_l_554442101_L","LocationType":"point","DisplayPosition":{"Latitude":54.4783732,"Longitude":-8.2803529},"MapView":{"TopLeft":{"Latitude":54.47916,"Longitude":-8.28107},"BottomRight":{"Latitude":54.47797,"Longitude":-8.27996}},"Address":{"Label":"Promenade Road, Donegal, County Donegal, F94, Ireland","Country":"IRL","County":"County Donegal","City":"Donegal","District":"Bundoran","Street":"Promenade Road","PostalCode":"F94","AdditionalData":[{"value":"Ireland","key":"CountryName"},{"value":"County Donegal","key":"CountyName"}]},"MapReference":{"ReferenceId":"554442101","Spot":0.34,"SideOfStreet":"left","CountryId":"20403667","CountyId":"20411186","CityId":"20517304","DistrictId":"20517417"}}},{"Relevance":1.0,"Distance":78.0,"MatchLevel":"street","MatchQuality":{"Country":1.0,"County":1.0,"City":1.0,"District":1.0,"Street":[1.0],"PostalCode":1.0},"Location":{"LocationId":"NT_0a0spqz9Wv2kiJZa4KOq3D_l_1035992190_L","LocationType":"point","DisplayPosition":{"Latitude":54.47739,"Longitude":-8.28188},"MapView":{"TopLeft":{"Latitude":54.47739,"Longitude":-8.28217},"BottomRight":{"Latitude":54.47732,"Longitude":-8.28188}},"Address":{"Label":"West End, Donegal, County Donegal, F94, Ireland","Country":"IRL","County":"County Donegal","City":"Donegal","District":"Bundoran","Street":"West End","PostalCode":"F94","AdditionalData":[{"value":"Ireland","key":"CountryName"},{"value":"County Donegal","key":"CountyName"}]},"MapReference":{"ReferenceId":"1035992190","Spot":1.0,"SideOfStreet":"left","CountryId":"20403667","CountyId":"20411186","CityId":"20517304","DistrictId":"20517417"}}}]}]}}