{"Response":{"MetaInfo":{"Timestamp":"2020-03-28T10:49:06.528+0000","NextPageInformation":"2"},"View":[{"_type":"SearchResultsViewType","ViewId":0,"Result":[{"Relevance":1.0,"Distance":0.0,"Direction":0.0,"MatchLevel":"district","MatchQuality":{"Country":1.0,"State":1.0,"County":1.0,"City":1.0,"District":1.0,"PostalCode":1.0},"Location":{"LocationId":"NT_-TBvdTCAz9n.T4CkZb41PA","LocationType":"point","DisplayPosition":{"Latitude":54.4699501,"Longitude":18.4689774},"MapView":{"TopLeft":{"Latitude":54.56437,"Longitude":18.40361},"BottomRight":{"Latitude":54.45575,"Longitude":18.56736}},"Address":{"Label":"Gdynia, Woj. Pomorskie, Polska","Country":"POL","State":"Woj. Pomorskie","County":"Gdynia","City":"Gdynia","District":"Gdynia","PostalCode":"81-364","AdditionalData":[{"value":"Polska","key":"CountryName"},{"value":"Woj. Pomorskie","key":"StateName"},{"value":"Gdynia","key":"CountyName"}]},"MapReference":{"ReferenceId":"946490862","SideOfStreet":"neither","CountryId":"20624059","StateId":"20628728","CountyId":"20628732","CityId":"20628733","DistrictId":"20646651"}}},{"Relevance":1.0,"Distance":14.1,"MatchLevel":"street","MatchQuality":{"Country":1.0,"State":1.0,"County":1.0,"City":1.0,"District":1.0,"PostalCode":1.0},"Location":{"LocationId":"NT_H5JFPHtv5.VWEaOnHdknMA_l_1137648522_R","LocationType":"point","DisplayPosition":{"Latitude":54.4699545,"Longitude":18.4687595},"MapView":{"TopLeft":{"Latitude":54.46998,"Longitude":18.46875},"BottomRight":{"Latitude":54.46948,"Longitude":18.46876}},"Address":{"Label":"81-589 Gdynia, Polska","Country":"POL","State":"Woj. Pomorskie","County":"Gdynia","City":"Gdynia","District":"Gdynia","PostalCode":"81-589","AdditionalData":[{"value":"Polska","key":"CountryName"},{"value":"Woj. Pomorskie","key":"StateName"},{"value":"Gdynia","key":"CountyName"}]},"MapReference":{"ReferenceId":"1137648522","Spot":0.95,"SideOfStreet":"right","CountryId":"20624059","StateId":"20628728","CountyId":"20628732","CityId":"20628733","DistrictId":"20646651"}}},{"Relevance":1.0,"Distance":25.9,"MatchLevel":"houseNumber","MatchQuality":{"Country":1.0,"State":1.0,"County":1.0,"City":1.0,"District":1.0,"Street":[1.0],"HouseNumber":1.0,"PostalCode":1.0},"MatchType":"interpolated","Location":{"LocationId":"NT_-TYqamGIyyENCVblj7aPRA_yID","LocationType":"point","DisplayPosition":{"Latitude":54.46947,"Longitude":18.46932},"MapView":{"TopLeft":{"Latitude":54.4705942,"Longitude":18.4673856},"BottomRight":{"Latitude":54.4683458,"Longitude":18.4712544}},"Address":{"Label":"ulica Sojowa 22, 81-589 Gdynia, Polska","Country":"POL","State":"Woj. Pomorskie","County":"Gdynia","City":"Gdynia","District":"Gdynia","Street":"ulica Sojowa","HouseNumber":"22","PostalCode":"81-589","AdditionalData":[{"value":"Polska","key":"CountryName"},{"value":"Woj. Pomorskie","key":"StateName"},{"value":"Gdynia","key":"CountyName"}]},"MapReference":{"ReferenceId":"594903825","Spot":0.67,"SideOfStreet":"right","CountryId":"20624059","StateId":"20628728","CountyId":"20628732","CityId":"20628733","DistrictId":"20646651","AddressId":"211224622","RoadLinkId":"95330141"}}},{"Relevance":1.0,"Distance":43.6,"MatchLevel":"houseNumber","MatchQuality":{"Country":1.0,"State":1.0,"County":1.0,"City":1.0,"District":1.0,"Street":[1.0],"HouseNumber":1.0,"PostalCode":1.0},"MatchType":"interpolated","Location":{"LocationId":"NT_uEpefYbGuTlDFi4-JxnKEB_yATQ","LocationType":"point","DisplayPosition":{"Latitude":54.46989,"Longitude":18.46831},"MapView":{"TopLeft":{"Latitude":54.4710142,"Longitude":18.4663756},"BottomRight":{"Latitude":54.4687658,"Longitude":18.4702444}},"Address":{"Label":"ulica Rdestowa 20A, 81-577 Gdynia, Polska","Country":"POL","State":"Woj. Pomorskie","County":"Gdynia","City":"Gdynia","District":"Gdynia","Street":"ulica Rdestowa","HouseNumber":"20A","PostalCode":"81-577","AdditionalData":[{"value":"Polska","key":"CountryName"},{"value":"Woj. Pomorskie","key":"StateName"},{"value":"Gdynia","key":"CountyName"}]},"MapReference":{"ReferenceId":"946480192","Spot":0.5,"SideOfStreet":"left","CountryId":"20624059","StateId":"20628728","CountyId":"20628732","CityId":"20628733","DistrictId":"20646651","AddressId":"211525996","RoadLinkId":"294582433"}}},{"Relevance":1.0,"Distance":49.1,"MatchLevel":"houseNumber","MatchQuality":{"Country":1.0,"State":1.0,"County":1.0,"City":1.0,"District":1.0,"Street":[1.0],"HouseNumber":1.0,"PostalCode":1.0},"MatchType":"interpolated","Location":{"LocationId":"NT_uEpefYbGuTlDFi4-JxnKEB_l_946480203_R_xcD","LocationType":"point","DisplayPosition":{"Latitude":54.470232,"Longitude":18.4682633},"MapView":{"TopLeft":{"Latitude":54.4713562,"Longitude":18.4663289},"BottomRight":{"Latitude":54.4691079,"Longitude":18.4701978}},"Address":{"Label":"ulica Rdestowa 17, 81-577 Gdynia, Polska","Country":"POL","State":"Woj. Pomorskie","County":"Gdynia","City":"Gdynia","District":"Gdynia","Street":"ulica Rdestowa","HouseNumber":"17","PostalCode":"81-577","AdditionalData":[{"value":"Polska","key":"CountryName"},{"value":"Woj. Pomorskie","key":"StateName"},{"value":"Gdynia","key":"CountyName"}]},"MapReference":{"ReferenceId":"946480203","Spot":0.53,"SideOfStreet":"right","CountryId":"20624059","StateId":"20628728","CountyId":"20628732","CityId":"20628733","DistrictId":"20646651"}}},{"Relevance":1.0,"Distance":49.6,"MatchLevel":"houseNumber","MatchQuality":{"Country":1.0,"State":1.0,"County":1.0,"City":1.0,"District":1.0,"Street":[1.0],"HouseNumber":1.0,"PostalCode":1.0},"MatchType":"interpolated","Location":{"LocationId":"NT_V9Lzwe9vqZ-ra0ZfeXy.1A_ykD","LocationType":"point","DisplayPosition":{"Latitude":54.47052,"Longitude":18.46872},"MapView":{"TopLeft":{"Latitude":54.4716442,"Longitude":18.4667855},"BottomRight":{"Latitude":54.4693958,"Longitude":18.4706545}},"Address":{"Label":"ulica Oliwkowa 29, 81-589 Gdynia, Polska","Country":"POL","State":"Woj. Pomorskie","County":"Gdynia","City":"Gdynia","District":"Gdynia","Street":"ulica Oliwkowa","HouseNumber":"29","PostalCode":"81-589","AdditionalData":[{"value":"Polska","key":"CountryName"},{"value":"Woj. Pomorskie","key":"StateName"},{"value":"Gdynia","key":"CountyName"}]},"MapReference":{"ReferenceId":"594903775","Spot":0.0,"SideOfStreet":"right","CountryId":"20624059","StateId":"20628728","CountyId":"20628732","CityId":"20628733","DistrictId":"20646651","AddressId":"210323506","RoadLinkId":"95111289"}}},{"Relevance":1.0,"Distance":54.3,"MatchLevel":"street","MatchQuality":{"Country":1.0,"State":1.0,"County":1.0,"City":1.0,"District":1.0,"Street":[1.0],"PostalCode":1.0},"Location":{"LocationId":"NT_-TYqamGIyyENCVblj7aPRA_l_1142923431_R","LocationType":"point","DisplayPosition":{"Latitude":54.46948,"Longitude":18.46875},"MapView":{"TopLeft":{"Latitude":54.46949,"Longitude":18.46821},"BottomRight":{"Latitude":54.46948,"Longitude":18.46875}},"Address":{"Label":"ulica Sojowa, 81-589 Gdynia, Polska","Country":"POL","State":"Woj. Pomorskie","County":"Gdynia","City":"Gdynia","District":"Gdynia","Street":"ulica Sojowa","PostalCode":"81-589","AdditionalData":[{"value":"Polska","key":"CountryName"},{"value":"Woj. Pomorskie","key":"StateName"},{"value":"Gdynia","key":"CountyName"}]},"MapReference":{"ReferenceId":"1142923431","Spot":0.0,"SideOfStreet":"right","CountryId":"20624059","StateId":"20628728","CountyId":"20628732","CityId":"20628733","DistrictId":"20646651"}}},{"Relevance":1.0,"Distance":55.0,"MatchLevel":"houseNumber","MatchQuality":{"Country":1.0,"State":1.0,"County":1.0,"City":1.0,"District":1.0,"Street":[1.0],"HouseNumber":1.0,"PostalCode":1.0},"MatchType":"interpolated","Location":{"LocationId":"NT_-TYqamGIyyENCVblj7aPRA_zUD","LocationType":"point","DisplayPosition":{"Latitude":54.46947,"Longitude":18.46877},"MapView":{"TopLeft":{"Latitude":54.4705942,"Longitude":18.4668356},"BottomRight":{"Latitude":54.4683458,"Longitude":18.4707044}},"Address":{"Label":"ulica Sojowa 35, 81-589 Gdynia, Polska","Country":"POL","State":"Woj. Pomorskie","County":"Gdynia","City":"Gdynia","District":"Gdynia","Street":"ulica Sojowa","HouseNumber":"35","PostalCode":"81-589","AdditionalData":[{"value":"Polska","key":"CountryName"},{"value":"Woj. Pomorskie","key":"StateName"},{"value":"Gdynia","key":"CountyName"}]},"MapReference":{"ReferenceId":"1142923430","Spot":0.9,"SideOfStreet":"left","CountryId":"20624059","StateId":"20628728","CountyId":"20628732","CityId":"20628733","DistrictId":"20646651","AddressId":"582477301","RoadLinkId":"448252119"}}},{"Relevance":1.0,"Distance":55.4,"MatchLevel":"street","MatchQuality":{"Country":1.0,"State":1.0,"County":1.0,"City":1.0,"District":1.0,"Street":[1.0],"PostalCode":1.0},"Location":{"LocationId":"NT_uEpefYbGuTlDFi4-JxnKEB_l_946480191_R","LocationType":"point","DisplayPosition":{"Latitude":54.46966,"Longitude":18.46828},"MapView":{"TopLeft":{"Latitude":54.46966,"Longitude":18.46821},"BottomRight":{"Latitude":54.46949,"Longitude":18.46828}},"Address":{"Label":"ulica Rdestowa, 81-577 Gdynia, Polska","Country":"POL","State":"Woj. Pomorskie","County":"Gdynia","City":"Gdynia","District":"Gdynia","Street":"ulica Rdestowa","PostalCode":"81-577","AdditionalData":[{"value":"Polska","key":"CountryName"},{"value":"Woj. Pomorskie","key":"StateName"},{"value":"Gdynia","key":"CountyName"}]},"MapReference":{"ReferenceId":"946480191","Spot":1.0,"SideOfStreet":"right","CountryId":"20624059","StateId":"20628728","CountyId":"20628732","CityId":"20628733","DistrictId":"20646651"}}},{"Relevance":1.0,"Distance":58.2,"MatchLevel":"houseNumber","MatchQuality":{"Country":1.0,"State":1.0,"County":1.0,"City":1.0,"District":1.0,"Street":[1.0],"HouseNumber":1.0,"PostalCode":1.0},"MatchType":"interpolated","Location":{"LocationId":"NT_-TYqamGIyyENCVblj7aPRA_yQD","LocationType":"point","DisplayPosition":{"Latitude":54.47029,"Longitude":18.46993},"MapView":{"TopLeft":{"Latitude":54.4714142,"Longitude":18.4679956},"BottomRight":{"Latitude":54.4691658,"Longitude":18.4718644}},"Address":{"Label":"ulica Sojowa 24, 81-589 Gdynia, Polska","Country":"POL","State":"Woj. Pomorskie","County":"Gdynia","City":"Gdynia","District":"Gdynia","Street":"ulica Sojowa","HouseNumber":"24","PostalCode":"81-589","AdditionalData":[{"value":"Polska","key":"CountryName"},{"value":"Woj. Pomorskie","key":"StateName"},{"value":"Gdynia","key":"CountyName"}]},"MapReference":{"ReferenceId":"594903824","Spot":0.66,"SideOfStreet":"left","CountryId":"20624059","StateId":"20628728","CountyId":"20628732","CityId":"20628733","DistrictId":"20646651","AddressId":"211062508","RoadLinkId":"95262067"}}}]}]}}