{"Response":{"MetaInfo":{"Timestamp":"2020-03-28T11:32:25.212+0000","NextPageInformation":"2"},"View":[{"_type":"SearchResultsViewType","ViewId":0,"Result":[{"Relevance":1.0,"Distance":0.0,"Direction":0.0,"MatchLevel":"district","MatchQuality":{"Country":1.0,"State":1.0,"County":1.0,"City":1.0,"District":1.0,"PostalCode":1.0},"Location":{"LocationId":"NT_ZpjCe4IJAWLNAi22bqp-8C","LocationType":"point","DisplayPosition":{"Latitude":54.4509957,"Longitude":17.0605403},"MapView":{"TopLeft":{"Latitude":54.48701,"Longitude":16.97872},"BottomRight":{"Latitude":54.44449,"Longitude":17.07668}},"Address":{"Label":"Słupsk, Woj. Pomorskie, Polska","Country":"POL","State":"Woj. Pomorskie","County":"Słupsk","City":"Słupsk","District":"Słupsk","PostalCode":"76-200","AdditionalData":[{"value":"Polska","key":"CountryName"},{"value":"Woj. Pomorskie","key":"StateName"},{"value":"Słupsk","key":"CountyName"}]},"MapReference":{"ReferenceId":"595474946","SideOfStreet":"neither","CountryId":"20624059","StateId":"20628728","CountyId":"20628997","CityId":"20628998","DistrictId":"20646813"}}},{"Relevance":1.0,"Distance":34.9,"MatchLevel":"street","MatchQuality":{"Country":1.0,"State":1.0,"County":1.0,"City":1.0,"District":1.0,"Street":[1.0],"PostalCode":1.0},"Location":{"LocationId":"NT_siX9Y6E-EWLx15QNGC9d7D_l_946696794_R","LocationType":"point","DisplayPosition":{"Latitude":54.4510067,"Longitude":17.0600007},"MapView":{"TopLeft":{"Latitude":54.45146,"Longitude":17.05999},"BottomRight":{"Latitude":54.45027,"Longitude":17.06001}},"Address":{"Label":"ulica Hubalczyków, 76-200 Słupsk, Polska","Country":"POL","State":"Woj. Pomorskie","County":"Słupsk","City":"Słupsk","District":"Słupsk","Street":"ulica Hubalczyków","PostalCode":"76-200","AdditionalData":[{"value":"Polska","key":"CountryName"},{"value":"Woj. Pomorskie","key":"StateName"},{"value":"Słupsk","key":"CountyName"}]},"MapReference":{"ReferenceId":"946696794","Spot":0.62,"SideOfStreet":"right","CountryId":"20624059","StateId":"20628728","CountyId":"20628997","CityId":"20628998","DistrictId":"20646813"}}},{"Relevance":1.0,"Distance":56.1,"MatchLevel":"houseNumber","MatchQuality":{"Country":1.0,"State":1.0,"County":1.0,"City":1.0,"District":1.0,"Street":[1.0],"HouseNumber":1.0,"PostalCode":1.0},"MatchType":"interpolated","Location":{"LocationId":"NT_siX9Y6E-EWLx15QNGC9d7D_xA","LocationType":"point","DisplayPosition":{"Latitude":54.4515,"Longitude":17.06001},"MapView":{"TopLeft":{"Latitude":54.4526242,"Longitude":17.0580764},"BottomRight":{"Latitude":54.4503758,"Longitude":17.0619436}},"Address":{"Label":"ulica Hubalczyków 1, 76-200 Słupsk, Polska","Country":"POL","State":"Woj. Pomorskie","County":"Słupsk","City":"Słupsk","District":"Słupsk","Street":"ulica Hubalczyków","HouseNumber":"1","PostalCode":"76-200","AdditionalData":[{"value":"Polska","key":"CountryName"},{"value":"Woj. Pomorskie","key":"StateName"},{"value":"Słupsk","key":"CountyName"}]},"MapReference":{"ReferenceId":"946696795","Spot":0.33,"SideOfStreet":"right","CountryId":"20624059","StateId":"20628728","CountyId":"20628997","CityId":"20628998","DistrictId":"20646813","AddressId":"731740471","RoadLinkId":"294708588"}}},{"Relevance":1.0,"Distance":73.5,"MatchLevel":"street","MatchQuality":{"Country":1.0,"State":1.0,"County":1.0,"City":1.0,"District":1.0,"PostalCode":1.0},"Location":{"LocationId":"NT_ZKZ0JgLgm4zlhsHs-3--TC_l_763058504_R","LocationType":"point","DisplayPosition":{"Latitude":54.45158,"Longitude":17.06001},"MapView":{"TopLeft":{"Latitude":54.45158,"Longitude":17.05968},"BottomRight":{"Latitude":54.45158,"Longitude":17.06001}},"Address":{"Label":"76-200 Słupsk, Polska","Country":"POL","State":"Woj. Pomorskie","County":"Słupsk","City":"Słupsk","District":"Słupsk","PostalCode":"76-200","AdditionalData":[{"value":"Polska","key":"CountryName"},{"value":"Woj. Pomorskie","key":"StateName"},{"value":"Słupsk","key":"CountyName"}]},"MapReference":{"ReferenceId":"763058504","Spot":1.0,"SideOfStreet":"right","CountryId":"20624059","StateId":"20628728","CountyId":"20628997","CityId":"20628998","DistrictId":"20646813"}}},{"Relevance":1.0,"Distance":85.0,"MatchLevel":"houseNumber","MatchQuality":{"Country":1.0,"State":1.0,"County":1.0,"City":1.0,"District":1.0,"Street":[1.0],"HouseNumber":1.0,"PostalCode":1.0},"MatchType":"interpolated","Location":{"LocationId":"NT_siX9Y6E-EWLx15QNGC9d7D_xID","LocationType":"point","DisplayPosition":{"Latitude":54.4508,"Longitude":17.05881},"MapView":{"TopLeft":{"Latitude":54.4519242,"Longitude":17.0568765},"BottomRight":{"Latitude":54.4496758,"Longitude":17.0607435}},"Address":{"Label":"ulica Hubalczyków 12, 76-200 Słupsk, Polska","Country":"POL","State":"Woj. Pomorskie","County":"Słupsk","City":"Słupsk","District":"Słupsk","Street":"ulica Hubalczyków","HouseNumber":"12","PostalCode":"76-200","AdditionalData":[{"value":"Polska","key":"CountryName"},{"value":"Woj. Pomorskie","key":"StateName"},{"value":"Słupsk","key":"CountyName"}]},"MapReference":{"ReferenceId":"763058454","Spot":0.53,"SideOfStreet":"right","CountryId":"20624059","StateId":"20628728","CountyId":"20628997","CityId":"20628998","DistrictId":"20646813","AddressId":"210033175","RoadLinkId":"269499482"}}},{"Relevance":1.0,"Distance":85.5,"MatchLevel":"street","MatchQuality":{"Country":1.0,"State":1.0,"County":1.0,"City":1.0,"District":1.0,"Street":[1.0],"PostalCode":1.0},"Location":{"LocationId":"NT_siX9Y6E-EWLx15QNGC9d7D_l_763058500_R","LocationType":"point","DisplayPosition":{"Latitude":54.45158,"Longitude":17.05968},"MapView":{"TopLeft":{"Latitude":54.45198,"Longitude":17.05963},"BottomRight":{"Latitude":54.45158,"Longitude":17.05968}},"Address":{"Label":"ulica Hubalczyków, 76-200 Słupsk, Polska","Country":"POL","State":"Woj. Pomorskie","County":"Słupsk","City":"Słupsk","District":"Słupsk","Street":"ulica Hubalczyków","PostalCode":"76-200","AdditionalData":[{"value":"Polska","key":"CountryName"},{"value":"Woj. Pomorskie","key":"StateName"},{"value":"Słupsk","key":"CountyName"}]},"MapReference":{"ReferenceId":"763058500","Spot":0.0,"SideOfStreet":"right","CountryId":"20624059","StateId":"20628728","CountyId":"20628997","CityId":"20628998","DistrictId":"20646813"}}},{"Relevance":1.0,"Distance":85.5,"MatchLevel":"street","MatchQuality":{"Country":1.0,"State":1.0,"County":1.0,"City":1.0,"District":1.0,"PostalCode":1.0},"Location":{"LocationId":"NT_ZKZ0JgLgm4zlhsHs-3--TC_l_763058501_R","LocationType":"point","DisplayPosition":{"Latitude":54.45158,"Longitude":17.05968},"MapView":{"TopLeft":{"Latitude":54.45158,"Longitude":17.05902},"BottomRight":{"Latitude":54.45153,"Longitude":17.05968}},"Address":{"Label":"76-200 Słupsk, Polska","Country":"POL","State":"Woj. Pomorskie","County":"Słupsk","City":"Słupsk","District":"Słupsk","PostalCode":"76-200","AdditionalData":[{"value":"Polska","key":"CountryName"},{"value":"Woj. Pomorskie","key":"StateName"},{"value":"Słupsk","key":"CountyName"}]},"MapReference":{"ReferenceId":"763058501","Spot":1.0,"SideOfStreet":"right","CountryId":"20624059","StateId":"20628728","CountyId":"20628997","CityId":"20628998","DistrictId":"20646813"}}},{"Relevance":1.0,"Distance":88.2,"MatchLevel":"street","MatchQuality":{"Country":1.0,"State":1.0,"County":1.0,"City":1.0,"District":1.0,"Street":[1.0],"PostalCode":1.0},"Location":{"LocationId":"NT_IwC7AwdmQTk9qP-OYspltB_l_763058449_L","LocationType":"point","DisplayPosition":{"Latitude":54.45027,"Longitude":17.05999},"MapView":{"TopLeft":{"Latitude":54.45027,"Longitude":17.05849},"BottomRight":{"Latitude":54.45019,"Longitude":17.05999}},"Address":{"Label":"ulica Bukowa, 76-200 Słupsk, Polska","Country":"POL","State":"Woj. Pomorskie","County":"Słupsk","City":"Słupsk","District":"Słupsk","Street":"ulica Bukowa","PostalCode":"76-200","AdditionalData":[{"value":"Polska","key":"CountryName"},{"value":"Woj. Pomorskie","key":"StateName"},{"value":"Słupsk","key":"CountyName"}]},"MapReference":{"ReferenceId":"763058449","Spot":1.0,"SideOfStreet":"left","CountryId":"20624059","StateId":"20628728","CountyId":"20628997","CityId":"20628998","DistrictId":"20646813"}}},{"Relevance":1.0,"Distance":92.9,"MatchLevel":"street","MatchQuality":{"Country":1.0,"State":1.0,"County":1.0,"City":1.0,"District":1.0,"PostalCode":1.0},"Location":{"LocationId":"NT_ZKZ0JgLgm4zlhsHs-3--TC_l_763537310_R","LocationType":"point","DisplayPosition":{"Latitude":54.45021,"Longitude":17.06103},"MapView":{"TopLeft":{"Latitude":54.45021,"Longitude":17.06103},"BottomRight":{"Latitude":54.44974,"Longitude":17.06196}},"Address":{"Label":"76-200 Słupsk, Polska","Country":"POL","State":"Woj. Pomorskie","County":"Słupsk","City":"Słupsk","District":"Słupsk","PostalCode":"76-200","AdditionalData":[{"value":"Polska","key":"CountryName"},{"value":"Woj. Pomorskie","key":"StateName"},{"value":"Słupsk","key":"CountyName"}]},"MapReference":{"ReferenceId":"763537310","Spot":1.0,"SideOfStreet":"right","CountryId":"20624059","StateId":"20628728","CountyId":"20628997","CityId":"20628998","DistrictId":"20646813"}}},{"Relevance":1.0,"Distance":95.5,"MatchLevel":"street","MatchQuality":{"Country":1.0,"State":1.0,"County":1.0,"City":1.0,"District":1.0,"PostalCode":1.0},"Location":{"LocationId":"NT_ZKZ0JgLgm4zlhsHs-3--TC_l_763537309_L","LocationType":"point","DisplayPosition":{"Latitude":54.4501713,"Longitude":17.0609525},"MapView":{"TopLeft":{"Latitude":54.45021,"Longitude":17.06036},"BottomRight":{"Latitude":54.44963,"Longitude":17.06103}},"Address":{"Label":"76-200 Słupsk, Polska","Country":"POL","State":"Woj. Pomorskie","County":"Słupsk","City":"Słupsk","District":"Słupsk","PostalCode":"76-200","AdditionalData":[{"value":"Polska","key":"CountryName"},{"value":"Woj. Pomorskie","key":"StateName"},{"value":"Słupsk","key":"CountyName"}]},"MapReference":{"ReferenceId":"763537309","Spot":0.91,"SideOfStreet":"left","CountryId":"20624059","StateId":"20628728","CountyId":"20628997","CityId":"20628998","DistrictId":"20646813"}}}]}]}}