{"Response":{"MetaInfo":{"Timestamp":"2020-03-28T11:17:34.689+0000","NextPageInformation":"2"},"View":[{"_type":"SearchResultsViewType","ViewId":0,"Result":[{"Relevance":1.0,"Distance":0.0,"Direction":0.0,"MatchLevel":"district","MatchQuality":{"Country":1.0,"State":1.0,"County":1.0,"City":1.0,"District":1.0,"PostalCode":1.0},"Location":{"LocationId":"NT_TdeCAD8MPwh5NPI9B8JNfB","LocationType":"point","DisplayPosition":{"Latitude":54.4578693,"Longitude":-6.3392758},"MapView":{"TopLeft":{"Latitude":54.48918,"Longitude":-6.39532},"BottomRight":{"Latitude":54.4403,"Longitude":-6.30223}},"Address":{"Label":"Lurgan, Craigavon, Northern Ireland, United Kingdom","Country":"GBR","State":"Northern Ireland","County":"County Armagh","City":"Craigavon","District":"Lurgan","PostalCode":"BT66 6","AdditionalData":[{"value":"United Kingdom","key":"CountryName"},{"value":"Northern Ireland","key":"StateName"},{"value":"County Armagh","key":"CountyName"}]},"MapReference":{"ReferenceId":"907156606","SideOfStreet":"neither","StateId":"20403688","CountyId":"20411120","CityId":"20419114","DistrictId":"20419129"}}},{"Relevance":1.0,"Distance":3.6,"MatchLevel":"houseNumber","MatchQuality":{"Country":1.0,"State":1.0,"County":1.0,"City":1.0,"District":1.0,"Street":[1.0],"HouseNumber":1.0,"PostalCode":1.0},"MatchType":"interpolated","Location":{"LocationId":"NT_P534qvoqSNeMnykzY8STwD_l_791147851_R_xUTN","LocationType":"point","DisplayPosition":{"Latitude":54.45784,"Longitude":-6.3393},"MapView":{"TopLeft":{"Latitude":54.4589642,"Longitude":-6.3412339},"BottomRight":{"Latitude":54.4567159,"Longitude":-6.3373662}},"Address":{"Label":"155 Sloan Street, Craigavon, BT66 8, United Kingdom","Country":"GBR","State":"Northern Ireland","County":"County Armagh","City":"Craigavon","District":"Lurgan","Street":"Sloan Street","HouseNumber":"155","PostalCode":"BT66 8","AdditionalData":[{"value":"United Kingdom","key":"CountryName"},{"value":"Northern Ireland","key":"StateName"},{"value":"County Armagh","key":"CountyName"}]},"MapReference":{"ReferenceId":"791147851","Spot":0.5,"SideOfStreet":"right","StateId":"20403688","CountyId":"20411120","CityId":"20419114","DistrictId":"20419129"}}},{"Relevance":1.0,"Distance":14.6,"MatchLevel":"houseNumber","MatchQuality":{"Country":1.0,"State":1.0,"County":1.0,"City":1.0,"District":1.0,"Street":[1.0],"HouseNumber":1.0,"PostalCode":1.0},"MatchType":"interpolated","Location":{"LocationId":"NT_vFjk8WyDcer6JnPAhM56UC_yMD","LocationType":"point","DisplayPosition":{"Latitude":54.45805,"Longitude":-6.33898},"MapView":{"TopLeft":{"Latitude":54.4591742,"Longitude":-6.3409139},"BottomRight":{"Latitude":54.4569258,"Longitude":-6.3370461}},"Address":{"Label":"23 George Street, Craigavon, BT66 6BL, United Kingdom","Country":"GBR","State":"Northern Ireland","County":"County Armagh","City":"Craigavon","District":"Lurgan","Street":"George Street","HouseNumber":"23","PostalCode":"BT66 6BL","AdditionalData":[{"value":"United Kingdom","key":"CountryName"},{"value":"Northern Ireland","key":"StateName"},{"value":"County Armagh","key":"CountyName"}]},"MapReference":{"ReferenceId":"564878593","Spot":0.13,"SideOfStreet":"left","StateId":"20403688","CountyId":"20411120","CityId":"20419114","DistrictId":"20419129","AddressId":"341847869","RoadLinkId":"84957238"}}},{"Relevance":1.0,"Distance":14.8,"MatchLevel":"houseNumber","MatchQuality":{"Country":1.0,"State":1.0,"County":1.0,"City":1.0,"District":1.0,"Street":[1.0],"HouseNumber":1.0,"PostalCode":1.0},"MatchType":"interpolated","Location":{"LocationId":"NT_P534qvoqSNeMnykzY8STwD_xUzN","LocationType":"point","DisplayPosition":{"Latitude":54.45792,"Longitude":-6.33944},"MapView":{"TopLeft":{"Latitude":54.4590442,"Longitude":-6.3413739},"BottomRight":{"Latitude":54.4567958,"Longitude":-6.3375061}},"Address":{"Label":"157 Sloan Street, Craigavon, BT66 8NT, United Kingdom","Country":"GBR","State":"Northern Ireland","County":"County Armagh","City":"Craigavon","District":"Lurgan","Street":"Sloan Street","HouseNumber":"157","PostalCode":"BT66 8NT","AdditionalData":[{"value":"United Kingdom","key":"CountryName"},{"value":"Northern Ireland","key":"StateName"},{"value":"County Armagh","key":"CountyName"}]},"MapReference":{"ReferenceId":"791147852","Spot":0.0,"SideOfStreet":"right","StateId":"20403688","CountyId":"20411120","CityId":"20419114","DistrictId":"20419129","AddressId":"342141661","RoadLinkId":"183317633"}}},{"Relevance":1.0,"Distance":15.4,"MatchLevel":"street","MatchQuality":{"Country":1.0,"State":1.0,"County":1.0,"City":1.0,"District":1.0,"Street":[1.0],"PostalCode":1.0},"Location":{"LocationId":"NT_TBYdtQDR6DbBXJVCIPKDHC_l_983584733_L","LocationType":"point","DisplayPosition":{"Latitude":54.4577351,"Longitude":-6.3392161},"MapView":{"TopLeft":{"Latitude":54.45776,"Longitude":-6.34045},"BottomRight":{"Latitude":54.45738,"Longitude":-6.33916}},"Address":{"Label":"Cherrygrove, Craigavon, BT66 6, United Kingdom","Country":"GBR","State":"Northern Ireland","County":"County Armagh","City":"Craigavon","District":"Lurgan","Street":"Cherrygrove","PostalCode":"BT66 6","AdditionalData":[{"value":"United Kingdom","key":"CountryName"},{"value":"Northern Ireland","key":"StateName"},{"value":"County Armagh","key":"CountyName"}]},"MapReference":{"ReferenceId":"983584733","Spot":0.96,"SideOfStreet":"left","StateId":"20403688","CountyId":"20411120","CityId":"20419114","DistrictId":"20419129"}}},{"Relevance":1.0,"Distance":20.4,"MatchLevel":"houseNumber","MatchQuality":{"Country":1.0,"State":1.0,"County":1.0,"City":1.0,"District":1.0,"Street":[1.0],"HouseNumber":1.0,"PostalCode":1.0},"MatchType":"interpolated","Location":{"LocationId":"NT_vFjk8WyDcer6JnPAhM56UC_ygD","LocationType":"point","DisplayPosition":{"Latitude":54.45788,"Longitude":-6.33896},"MapView":{"TopLeft":{"Latitude":54.4590042,"Longitude":-6.3408939},"BottomRight":{"Latitude":54.4567558,"Longitude":-6.3370261}},"Address":{"Label":"28 George Street, Craigavon, BT66 6, United Kingdom","Country":"GBR","State":"Northern Ireland","County":"County Armagh","City":"Craigavon","District":"Lurgan","Street":"George Street","HouseNumber":"28","PostalCode":"BT66 6","AdditionalData":[{"value":"United Kingdom","key":"CountryName"},{"value":"Northern Ireland","key":"StateName"},{"value":"County Armagh","key":"CountyName"}]},"MapReference":{"ReferenceId":"564878591","Spot":0.6,"SideOfStreet":"right","StateId":"20403688","CountyId":"20411120","CityId":"20419114","DistrictId":"20419129","AddressId":"342169185","RoadLinkId":"84853898"}}},{"Relevance":1.0,"Distance":36.0,"MatchLevel":"postalCode","MatchQuality":{"PostalCode":1.0},"MatchType":"interpolated","Location":{"LocationId":"NT_P534qvoqSNeMnykzY8STwD_xUzN","LocationType":"point","DisplayPosition":{"Latitude":54.45816,"Longitude":-6.33952},"MapView":{"TopLeft":{"Latitude":54.4671532,"Longitude":-6.3549909},"BottomRight":{"Latitude":54.4491668,"Longitude":-6.3240491}},"Address":{"Label":"BT66 8NT, Craigavon, Northern Ireland, United Kingdom","Country":"GBR","State":"Northern Ireland","County":"County Armagh","City":"Craigavon","PostalCode":"BT66 8NT","AdditionalData":[{"value":"United Kingdom","key":"CountryName"},{"value":"Northern Ireland","key":"StateName"},{"value":"County Armagh","key":"CountyName"}]},"MapReference":{"ReferenceId":"791147852","Spot":0.0,"SideOfStreet":"neither","StateId":"20403688","CountyId":"20411120","CityId":"20419114"}}},{"Relevance":1.0,"Distance":40.3,"MatchLevel":"houseNumber","MatchQuality":{"Country":1.0,"State":1.0,"County":1.0,"City":1.0,"District":1.0,"Street":[1.0],"HouseNumber":1.0,"PostalCode":1.0},"MatchType":"interpolated","Location":{"LocationId":"NT_P534qvoqSNeMnykzY8STwD_xYzN","LocationType":"point","DisplayPosition":{"Latitude":54.45761,"Longitude":-6.33884},"MapView":{"TopLeft":{"Latitude":54.4587342,"Longitude":-6.3407738},"BottomRight":{"Latitude":54.4564858,"Longitude":-6.3369062}},"Address":{"Label":"167 Sloan Street, Craigavon, BT66 8NT, United Kingdom","Country":"GBR","State":"Northern Ireland","County":"County Armagh","City":"Craigavon","District":"Lurgan","Street":"Sloan Street","HouseNumber":"167","PostalCode":"BT66 8NT","AdditionalData":[{"value":"United Kingdom","key":"CountryName"},{"value":"Northern Ireland","key":"StateName"},{"value":"County Armagh","key":"CountyName"}]},"MapReference":{"ReferenceId":"564878588","Spot":0.63,"SideOfStreet":"right","StateId":"20403688","CountyId":"20411120","CityId":"20419114","DistrictId":"20419129","AddressId":"341846057","RoadLinkId":"84897817"}}},{"Relevance":1.0,"Distance":61.4,"MatchLevel":"houseNumber","MatchQuality":{"Country":1.0,"State":1.0,"County":1.0,"City":1.0,"District":1.0,"Street":[1.0],"HouseNumber":1.0,"PostalCode":1.0},"MatchType":"interpolated","Location":{"LocationId":"NT_vFjk8WyDcer6JnPAhM56UC_yED","LocationType":"point","DisplayPosition":{"Latitude":54.45816,"Longitude":-6.33845},"MapView":{"TopLeft":{"Latitude":54.4592842,"Longitude":-6.3403839},"BottomRight":{"Latitude":54.4570358,"Longitude":-6.3365161}},"Address":{"Label":"21 George Street, Craigavon, BT66 6BL, United Kingdom","Country":"GBR","State":"Northern Ireland","County":"County Armagh","City":"Craigavon","District":"Lurgan","Street":"George Street","HouseNumber":"21","PostalCode":"BT66 6BL","AdditionalData":[{"value":"United Kingdom","key":"CountryName"},{"value":"Northern Ireland","key":"StateName"},{"value":"County Armagh","key":"CountyName"}]},"MapReference":{"ReferenceId":"564878592","Spot":0.23,"SideOfStreet":"left","StateId":"20403688","CountyId":"20411120","CityId":"20419114","DistrictId":"20419129","AddressId":"342269617","RoadLinkId":"84954381"}}},{"Relevance":1.0,"Distance":68.8,"MatchLevel":"houseNumber","MatchQuality":{"Country":1.0,"State":1.0,"County":1.0,"City":1.0,"District":1.0,"Street":[1.0],"HouseNumber":1.0,"PostalCode":1.0},"MatchType":"interpolated","Location":{"LocationId":"NT_P534qvoqSNeMnykzY8STwD_xADM","LocationType":"point","DisplayPosition":{"Latitude":54.45727,"Longitude":-6.33901},"MapView":{"TopLeft":{"Latitude":54.4583942,"Longitude":-6.3409438},"BottomRight":{"Latitude":54.4561458,"Longitude":-6.3370762}},"Address":{"Label":"100 Sloan Street, Craigavon, BT66 8, United Kingdom","Country":"GBR","State":"Northern Ireland","County":"County Armagh","City":"Craigavon","District":"Lurgan","Street":"Sloan Street","HouseNumber":"100","PostalCode":"BT66 8","AdditionalData":[{"value":"United Kingdom","key":"CountryName"},{"value":"Northern Ireland","key":"StateName"},{"value":"County Armagh","key":"CountyName"}]},"MapReference":{"ReferenceId":"983576159","Spot":1.0,"SideOfStreet":"left","StateId":"20403688","CountyId":"20411120","CityId":"20419114","DistrictId":"20419129","AddressId":"341846054","RoadLinkId":"314867340"}}}]}]}}