{"Response":{"MetaInfo":{"Timestamp":"2020-03-28T10:48:20.775+0000","NextPageInformation":"2"},"View":[{"_type":"SearchResultsViewType","ViewId":0,"Result":[{"Relevance":1.0,"Distance":0.0,"Direction":0.0,"MatchLevel":"district","MatchQuality":{"Country":1.0,"State":1.0,"County":1.0,"City":1.0,"District":1.0,"PostalCode":1.0},"Location":{"LocationId":"NT_-TBvdTCAz9n.T4CkZb41PA","LocationType":"point","DisplayPosition":{"Latitude":54.4818253,"Longitude":18.5373298},"MapView":{"TopLeft":{"Latitude":54.56437,"Longitude":18.40361},"BottomRight":{"Latitude":54.45575,"Longitude":18.56736}},"Address":{"Label":"Gdynia, Woj. Pomorskie, Polska","Country":"POL","State":"Woj. Pomorskie","County":"Gdynia","City":"Gdynia","District":"Gdynia","PostalCode":"81-364","AdditionalData":[{"value":"Polska","key":"CountryName"},{"value":"Woj. Pomorskie","key":"StateName"},{"value":"Gdynia","key":"CountyName"}]},"MapReference":{"ReferenceId":"946490862","SideOfStreet":"neither","CountryId":"20624059","StateId":"20628728","CountyId":"20628732","CityId":"20628733","DistrictId":"20646651"}}},{"Relevance":1.0,"Distance":10.4,"MatchLevel":"street","MatchQuality":{"Country":1.0,"State":1.0,"County":1.0,"City":1.0,"District":1.0,"Street":[1.0],"PostalCode":1.0},"Location":{"LocationId":"NT_WBkftRj2NsvG3gIxZ9opFD_l_594903487_R","LocationType":"point","DisplayPosition":{"Latitude":54.4819174,"Longitude":18.5373021},"MapView":{"TopLeft":{"Latitude":54.48198,"Longitude":18.5356},"BottomRight":{"Latitude":54.48145,"Longitude":18.53751}},"Address":{"Label":"ulica Źródlana, 81-531 Gdynia, Polska","Country":"POL","State":"Woj. Pomorskie","County":"Gdynia","City":"Gdynia","District":"Gdynia","Street":"ulica Źródlana","PostalCode":"81-531","AdditionalData":[{"value":"Polska","key":"CountryName"},{"value":"Woj. Pomorskie","key":"StateName"},{"value":"Gdynia","key":"CountyName"}]},"MapReference":{"ReferenceId":"594903487","Spot":0.9,"SideOfStreet":"right","CountryId":"20624059","StateId":"20628728","CountyId":"20628732","CityId":"20628733","DistrictId":"20646651"}}},{"Relevance":1.0,"Distance":21.6,"MatchLevel":"houseNumber","MatchQuality":{"Country":1.0,"State":1.0,"County":1.0,"City":1.0,"District":1.0,"Street":[1.0],"HouseNumber":1.0,"PostalCode":1.0},"MatchType":"interpolated","Location":{"LocationId":"NT_KIzPMGOHCVX7qgIv-c3T7C_1QD","LocationType":"point","DisplayPosition":{"Latitude":54.48172,"Longitude":18.53773},"MapView":{"TopLeft":{"Latitude":54.4828442,"Longitude":18.535795},"BottomRight":{"Latitude":54.4805958,"Longitude":18.539665}},"Address":{"Label":"ulica Wrocławska 54, 81-553 Gdynia, Polska","Country":"POL","State":"Woj. Pomorskie","County":"Gdynia","City":"Gdynia","District":"Gdynia","Street":"ulica Wrocławska","HouseNumber":"54","PostalCode":"81-553","AdditionalData":[{"value":"Polska","key":"CountryName"},{"value":"Woj. Pomorskie","key":"StateName"},{"value":"Gdynia","key":"CountyName"}]},"MapReference":{"ReferenceId":"594903488","Spot":0.55,"SideOfStreet":"left","CountryId":"20624059","StateId":"20628728","CountyId":"20628732","CityId":"20628733","DistrictId":"20646651","AddressId":"211139431","RoadLinkId":"94838045"}}},{"Relevance":1.0,"Distance":24.3,"MatchLevel":"houseNumber","MatchQuality":{"Country":1.0,"State":1.0,"County":1.0,"City":1.0,"District":1.0,"Street":[1.0],"HouseNumber":1.0,"PostalCode":1.0},"MatchType":"interpolated","Location":{"LocationId":"NT_KIzPMGOHCVX7qgIv-c3T7C_2cD","LocationType":"point","DisplayPosition":{"Latitude":54.48203,"Longitude":18.53746},"MapView":{"TopLeft":{"Latitude":54.4831542,"Longitude":18.535525},"BottomRight":{"Latitude":54.4809058,"Longitude":18.539395}},"Address":{"Label":"ulica Wrocławska 67, 81-553 Gdynia, Polska","Country":"POL","State":"Woj. Pomorskie","County":"Gdynia","City":"Gdynia","District":"Gdynia","Street":"ulica Wrocławska","HouseNumber":"67","PostalCode":"81-553","AdditionalData":[{"value":"Polska","key":"CountryName"},{"value":"Woj. Pomorskie","key":"StateName"},{"value":"Gdynia","key":"CountyName"}]},"MapReference":{"ReferenceId":"1175944955","Spot":0.16,"SideOfStreet":"right","CountryId":"20624059","StateId":"20628728","CountyId":"20628732","CityId":"20628733","DistrictId":"20646651","AddressId":"210591020","RoadLinkId":"483511442"}}},{"Relevance":1.0,"Distance":61.3,"MatchLevel":"houseNumber","MatchQuality":{"Country":1.0,"State":1.0,"County":1.0,"City":1.0,"District":1.0,"Street":[1.0],"HouseNumber":1.0,"PostalCode":1.0},"MatchType":"interpolated","Location":{"LocationId":"NT_KIzPMGOHCVX7qgIv-c3T7C_1ID","LocationType":"point","DisplayPosition":{"Latitude":54.48237,"Longitude":18.53718},"MapView":{"TopLeft":{"Latitude":54.4834942,"Longitude":18.535245},"BottomRight":{"Latitude":54.4812458,"Longitude":18.539115}},"Address":{"Label":"ulica Wrocławska 52, 81-553 Gdynia, Polska","Country":"POL","State":"Woj. Pomorskie","County":"Gdynia","City":"Gdynia","District":"Gdynia","Street":"ulica Wrocławska","HouseNumber":"52","PostalCode":"81-553","AdditionalData":[{"value":"Polska","key":"CountryName"},{"value":"Woj. Pomorskie","key":"StateName"},{"value":"Gdynia","key":"CountyName"}]},"MapReference":{"ReferenceId":"1175944956","Spot":0.21,"SideOfStreet":"left","CountryId":"20624059","StateId":"20628728","CountyId":"20628732","CityId":"20628733","DistrictId":"20646651","AddressId":"211111985","RoadLinkId":"483511443"}}},{"Relevance":1.0,"Distance":64.1,"MatchLevel":"street","MatchQuality":{"Country":1.0,"State":1.0,"County":1.0,"City":1.0,"District":1.0,"Street":[1.0],"PostalCode":1.0},"Location":{"LocationId":"NT_KIzPMGOHCVX7qgIv-c3T7C_l_1131272625_L","LocationType":"point","DisplayPosition":{"Latitude":54.4814,"Longitude":18.538},"MapView":{"TopLeft":{"Latitude":54.48154,"Longitude":18.538},"BottomRight":{"Latitude":54.4814,"Longitude":18.53861}},"Address":{"Label":"ulica Wrocławska, 81-553 Gdynia, Polska","Country":"POL","State":"Woj. Pomorskie","County":"Gdynia","City":"Gdynia","District":"Gdynia","Street":"ulica Wrocławska","PostalCode":"81-553","AdditionalData":[{"value":"Polska","key":"CountryName"},{"value":"Woj. Pomorskie","key":"StateName"},{"value":"Gdynia","key":"CountyName"}]},"MapReference":{"ReferenceId":"1131272625","Spot":0.0,"SideOfStreet":"left","CountryId":"20624059","StateId":"20628728","CountyId":"20628732","CityId":"20628733","DistrictId":"20646651"}}},{"Relevance":1.0,"Distance":74.0,"MatchLevel":"houseNumber","MatchQuality":{"Country":1.0,"State":1.0,"County":1.0,"City":1.0,"District":1.0,"Street":[1.0],"HouseNumber":1.0,"PostalCode":1.0},"MatchType":"interpolated","Location":{"LocationId":"NT_KIzPMGOHCVX7qgIv-c3T7C_l_594903490_L_2AD","LocationType":"point","DisplayPosition":{"Latitude":54.48132,"Longitude":18.538075},"MapView":{"TopLeft":{"Latitude":54.4824442,"Longitude":18.53614},"BottomRight":{"Latitude":54.4801959,"Longitude":18.54001}},"Address":{"Label":"ulica Wrocławska 60, 81-553 Gdynia, Polska","Country":"POL","State":"Woj. Pomorskie","County":"Gdynia","City":"Gdynia","District":"Gdynia","Street":"ulica Wrocławska","HouseNumber":"60","PostalCode":"81-553","AdditionalData":[{"value":"Polska","key":"CountryName"},{"value":"Woj. Pomorskie","key":"StateName"},{"value":"Gdynia","key":"CountyName"}]},"MapReference":{"ReferenceId":"594903490","Spot":0.5,"SideOfStreet":"left","CountryId":"20624059","StateId":"20628728","CountyId":"20628732","CityId":"20628733","DistrictId":"20646651"}}},{"Relevance":1.0,"Distance":74.1,"MatchLevel":"houseNumber","MatchQuality":{"Country":1.0,"State":1.0,"County":1.0,"City":1.0,"District":1.0,"Street":[1.0],"HouseNumber":1.0,"PostalCode":1.0},"MatchType":"interpolated","Location":{"LocationId":"NT_KIzPMGOHCVX7qgIv-c3T7C_3UjQ","LocationType":"point","DisplayPosition":{"Latitude":54.48203,"Longitude":18.53898},"MapView":{"TopLeft":{"Latitude":54.4831542,"Longitude":18.537045},"BottomRight":{"Latitude":54.4809058,"Longitude":18.540915}},"Address":{"Label":"ulica Wrocławska 75B, 81-553 Gdynia, Polska","Country":"POL","State":"Woj. Pomorskie","County":"Gdynia","City":"Gdynia","District":"Gdynia","Street":"ulica Wrocławska","HouseNumber":"75B","PostalCode":"81-553","AdditionalData":[{"value":"Polska","key":"CountryName"},{"value":"Woj. Pomorskie","key":"StateName"},{"value":"Gdynia","key":"CountyName"}]},"MapReference":{"ReferenceId":"1154526433","Spot":0.49,"SideOfStreet":"left","CountryId":"20624059","StateId":"20628728","CountyId":"20628732","CityId":"20628733","DistrictId":"20646651","AddressId":"209743752","RoadLinkId":"460640536"}}},{"Relevance":1.0,"Distance":76.7,"MatchLevel":"houseNumber","MatchQuality":{"Country":1.0,"State":1.0,"County":1.0,"City":1.0,"District":1.0,"Street":[1.0],"HouseNumber":1.0,"PostalCode":1.0},"MatchType":"interpolated","Location":{"LocationId":"NT_KIzPMGOHCVX7qgIv-c3T7C_3MD","LocationType":"point","DisplayPosition":{"Latitude":54.48157,"Longitude":18.53867},"MapView":{"TopLeft":{"Latitude":54.4826942,"Longitude":18.536735},"BottomRight":{"Latitude":54.4804458,"Longitude":18.540605}},"Address":{"Label":"ulica Wrocławska 73, 81-553 Gdynia, Polska","Country":"POL","State":"Woj. Pomorskie","County":"Gdynia","City":"Gdynia","District":"Gdynia","Street":"ulica Wrocławska","HouseNumber":"73","PostalCode":"81-553","AdditionalData":[{"value":"Polska","key":"CountryName"},{"value":"Woj. Pomorskie","key":"StateName"},{"value":"Gdynia","key":"CountyName"}]},"MapReference":{"ReferenceId":"1154526432","Spot":0.13,"SideOfStreet":"left","CountryId":"20624059","StateId":"20628728","CountyId":"20628732","CityId":"20628733","DistrictId":"20646651","AddressId":"211358421","RoadLinkId":"460640535"}}},{"Relevance":1.0,"Distance":87.7,"MatchLevel":"houseNumber","MatchQuality":{"Country":1.0,"State":1.0,"County":1.0,"City":1.0,"District":1.0,"Street":[1.0],"HouseNumber":1.0,"PostalCode":1.0},"MatchType":"interpolated","Location":{"LocationId":"NT_KIzPMGOHCVX7qgIv-c3T7C_1kD","LocationType":"point","DisplayPosition":{"Latitude":54.48259,"Longitude":18.537},"MapView":{"TopLeft":{"Latitude":54.4837142,"Longitude":18.535065},"BottomRight":{"Latitude":54.4814658,"Longitude":18.538935}},"Address":{"Label":"ulica Wrocławska 59, 81-553 Gdynia, Polska","Country":"POL","State":"Woj. Pomorskie","County":"Gdynia","City":"Gdynia","District":"Gdynia","Street":"ulica Wrocławska","HouseNumber":"59","PostalCode":"81-553","AdditionalData":[{"value":"Polska","key":"CountryName"},{"value":"Woj. Pomorskie","key":"StateName"},{"value":"Gdynia","key":"CountyName"}]},"MapReference":{"ReferenceId":"1175944953","Spot":0.1,"SideOfStreet":"right","CountryId":"20624059","StateId":"20628728","CountyId":"20628732","CityId":"20628733","DistrictId":"20646651","AddressId":"210249413","RoadLinkId":"483511440"}}}]}]}}