{"Response":{"MetaInfo":{"Timestamp":"2020-03-28T09:51:34.336+0000","NextPageInformation":"2"},"View":[{"_type":"SearchResultsViewType","ViewId":0,"Result":[{"Relevance":1.0,"Distance":0.0,"Direction":0.0,"MatchLevel":"district","MatchQuality":{"Country":1.0,"State":1.0,"County":1.0,"City":1.0,"District":1.0,"PostalCode":1.0},"Location":{"LocationId":"NT_t-GJWDCOL8p8w3wSC2oU8C","LocationType":"point","DisplayPosition":{"Latitude":54.4491795,"Longitude":-6.369342},"MapView":{"TopLeft":{"Latitude":54.45404,"Longitude":-6.37102},"BottomRight":{"Latitude":54.44605,"Longitude":-6.35975}},"Address":{"Label":"Legahory, Craigavon, Northern Ireland, United Kingdom","Country":"GBR","State":"Northern Ireland","County":"County Armagh","City":"Craigavon","District":"Legahory","PostalCode":"BT64 1","AdditionalData":[{"value":"United Kingdom","key":"CountryName"},{"value":"Northern Ireland","key":"StateName"},{"value":"County Armagh","key":"CountyName"}]},"MapReference":{"ReferenceId":"564879809","SideOfStreet":"neither","StateId":"20403688","CountyId":"20411120","CityId":"20419114","DistrictId":"20419128"}}},{"Relevance":1.0,"Distance":29.1,"MatchLevel":"houseNumber","MatchQuality":{"Country":1.0,"State":1.0,"County":1.0,"City":1.0,"District":1.0,"Street":[1.0],"HouseNumber":1.0,"PostalCode":1.0},"MatchType":"interpolated","Location":{"LocationId":"NT_kHF4Whgg4AwMamAQVKfduC_xA","LocationType":"point","DisplayPosition":{"Latitude":54.44875,"Longitude":-6.36988},"MapView":{"TopLeft":{"Latitude":54.4498742,"Longitude":-6.3718134},"BottomRight":{"Latitude":54.4476258,"Longitude":-6.3679466}},"Address":{"Label":"1 Legahory Centre, Craigavon, BT65 5BE, United Kingdom","Country":"GBR","State":"Northern Ireland","County":"County Armagh","City":"Craigavon","District":"Tullygally","Street":"Legahory Centre","HouseNumber":"1","PostalCode":"BT65 5BE","AdditionalData":[{"value":"United Kingdom","key":"CountryName"},{"value":"Northern Ireland","key":"StateName"},{"value":"County Armagh","key":"CountyName"}]},"MapReference":{"ReferenceId":"564880413","Spot":0.9,"SideOfStreet":"right","StateId":"20403688","CountyId":"20411120","CityId":"20419114","DistrictId":"20419137","AddressId":"342349079","RoadLinkId":"84961655"}}},{"Relevance":1.0,"Distance":54.4,"MatchLevel":"street","MatchQuality":{"Country":1.0,"State":1.0,"County":1.0,"City":1.0,"District":1.0,"PostalCode":1.0},"Location":{"LocationId":"NT_UuXA9PsIRS3me3MeOLU4WC_l_1210317480_R","LocationType":"point","DisplayPosition":{"Latitude":54.44909,"Longitude":-6.37017},"MapView":{"TopLeft":{"Latitude":54.44912,"Longitude":-6.37031},"BottomRight":{"Latitude":54.44909,"Longitude":-6.37017}},"Address":{"Label":"Craigavon, BT65 5, United Kingdom","Country":"GBR","State":"Northern Ireland","County":"County Armagh","City":"Craigavon","District":"Tullygally","PostalCode":"BT65 5","AdditionalData":[{"value":"United Kingdom","key":"CountryName"},{"value":"Northern Ireland","key":"StateName"},{"value":"County Armagh","key":"CountyName"}]},"MapReference":{"ReferenceId":"1210317480","Spot":0.0,"SideOfStreet":"right","StateId":"20403688","CountyId":"20411120","CityId":"20419114","DistrictId":"20419137"}}},{"Relevance":1.0,"Distance":54.5,"MatchLevel":"street","MatchQuality":{"Country":1.0,"State":1.0,"County":1.0,"City":1.0,"District":1.0,"PostalCode":1.0},"Location":{"LocationId":"NT_UuXA9PsIRS3me3MeOLU4WC_l_1210288920_R","LocationType":"point","DisplayPosition":{"Latitude":54.44906,"Longitude":-6.37016},"MapView":{"TopLeft":{"Latitude":54.44909,"Longitude":-6.37021},"BottomRight":{"Latitude":54.44901,"Longitude":-6.37016}},"Address":{"Label":"Craigavon, BT65 5, United Kingdom","Country":"GBR","State":"Northern Ireland","County":"County Armagh","City":"Craigavon","District":"Tullygally","PostalCode":"BT65 5","AdditionalData":[{"value":"United Kingdom","key":"CountryName"},{"value":"Northern Ireland","key":"StateName"},{"value":"County Armagh","key":"CountyName"}]},"MapReference":{"ReferenceId":"1210288920","Spot":0.71,"SideOfStreet":"right","StateId":"20403688","CountyId":"20411120","CityId":"20419114","DistrictId":"20419137"}}},{"Relevance":1.0,"Distance":59.2,"MatchLevel":"street","MatchQuality":{"Country":1.0,"State":1.0,"County":1.0,"City":1.0,"District":1.0,"PostalCode":1.0},"Location":{"LocationId":"NT_UuXA9PsIRS3me3MeOLU4WC_l_1210288918_L","LocationType":"point","DisplayPosition":{"Latitude":54.44901,"Longitude":-6.37021},"MapView":{"TopLeft":{"Latitude":54.44903,"Longitude":-6.37035},"BottomRight":{"Latitude":54.449,"Longitude":-6.37021}},"Address":{"Label":"Craigavon, BT65 5, United Kingdom","Country":"GBR","State":"Northern Ireland","County":"County Armagh","City":"Craigavon","District":"Tullygally","PostalCode":"BT65 5","AdditionalData":[{"value":"United Kingdom","key":"CountryName"},{"value":"Northern Ireland","key":"StateName"},{"value":"County Armagh","key":"CountyName"}]},"MapReference":{"ReferenceId":"1210288918","Spot":0.0,"SideOfStreet":"left","StateId":"20403688","CountyId":"20411120","CityId":"20419114","DistrictId":"20419137"}}},{"Relevance":1.0,"Distance":63.1,"MatchLevel":"street","MatchQuality":{"Country":1.0,"State":1.0,"County":1.0,"City":1.0,"District":1.0,"PostalCode":1.0},"Location":{"LocationId":"NT_UuXA9PsIRS3me3MeOLU4WC_l_1210317479_R","LocationType":"point","DisplayPosition":{"Latitude":54.44911,"Longitude":-6.37031},"MapView":{"TopLeft":{"Latitude":54.44911,"Longitude":-6.37036},"BottomRight":{"Latitude":54.44903,"Longitude":-6.37031}},"Address":{"Label":"Craigavon, BT65 5, United Kingdom","Country":"GBR","State":"Northern Ireland","County":"County Armagh","City":"Craigavon","District":"Tullygally","PostalCode":"BT65 5","AdditionalData":[{"value":"United Kingdom","key":"CountryName"},{"value":"Northern Ireland","key":"StateName"},{"value":"County Armagh","key":"CountyName"}]},"MapReference":{"ReferenceId":"1210317479","Spot":1.0,"SideOfStreet":"right","StateId":"20403688","CountyId":"20411120","CityId":"20419114","DistrictId":"20419137"}}},{"Relevance":1.0,"Distance":77.7,"MatchLevel":"houseNumber","MatchQuality":{"Country":1.0,"State":1.0,"County":1.0,"City":1.0,"District":1.0,"Street":[1.0],"HouseNumber":1.0,"PostalCode":1.0},"MatchType":"interpolated","Location":{"LocationId":"NT_bZCnyRmaHlHmq3rH5WV.8A_xID","LocationType":"point","DisplayPosition":{"Latitude":54.44932,"Longitude":-6.37052},"MapView":{"TopLeft":{"Latitude":54.4504442,"Longitude":-6.3724535},"BottomRight":{"Latitude":54.4481958,"Longitude":-6.3685865}},"Address":{"Label":"12 Tullygally Road, Craigavon, BT65 5BL, United Kingdom","Country":"GBR","State":"Northern Ireland","County":"County Armagh","City":"Craigavon","District":"Tullygally","Street":"Tullygally Road","HouseNumber":"12","PostalCode":"BT65 5BL","AdditionalData":[{"value":"United Kingdom","key":"CountryName"},{"value":"Northern Ireland","key":"StateName"},{"value":"County Armagh","key":"CountyName"}],"Building":"St Anthony's Church"},"MapReference":{"ReferenceId":"1210317481","Spot":0.7,"SideOfStreet":"left","StateId":"20403688","CountyId":"20411120","CityId":"20419114","DistrictId":"20419137","AddressId":"783493710","RoadLinkId":"525206905"}}},{"Relevance":1.0,"Distance":100.7,"MatchLevel":"postalCode","MatchQuality":{"PostalCode":1.0},"MatchType":"interpolated","Location":{"LocationId":"NT_bZCnyRmaHlHmq3rH5WV.8A_xID","LocationType":"point","DisplayPosition":{"Latitude":54.45005,"Longitude":-6.36891},"MapView":{"TopLeft":{"Latitude":54.4590432,"Longitude":-6.3843779},"BottomRight":{"Latitude":54.4410568,"Longitude":-6.3534421}},"Address":{"Label":"BT65 5BL, Craigavon, Northern Ireland, United Kingdom","Country":"GBR","State":"Northern Ireland","County":"County Armagh","City":"Craigavon","PostalCode":"BT65 5BL","AdditionalData":[{"value":"United Kingdom","key":"CountryName"},{"value":"Northern Ireland","key":"StateName"},{"value":"County Armagh","key":"CountyName"}]},"MapReference":{"ReferenceId":"1210317481","Spot":0.7,"SideOfStreet":"neither","StateId":"20403688","CountyId":"20411120","CityId":"20419114"}}},{"Relevance":1.0,"Distance":109.7,"MatchLevel":"houseNumber","MatchQuality":{"Country":1.0,"State":1.0,"County":1.0,"City":1.0,"District":1.0,"Street":[1.0],"PostalCode":1.0},"MatchType":"interpolated","Location":{"LocationId":"NT_V8jx1roy9pzjcSFfX8yzuD","LocationType":"point","DisplayPosition":{"Latitude":54.45012,"Longitude":-6.36883},"MapView":{"TopLeft":{"Latitude":54.4512442,"Longitude":-6.3707635},"BottomRight":{"Latitude":54.4489958,"Longitude":-6.3668965}},"Address":{"Label":"Tullygally Road, Craigavon, BT65 5, United Kingdom","Country":"GBR","State":"Northern Ireland","County":"County Armagh","City":"Craigavon","District":"Legahory","Street":"Tullygally Road","PostalCode":"BT65 5","AdditionalData":[{"value":"United Kingdom","key":"CountryName"},{"value":"Northern Ireland","key":"StateName"},{"value":"County Armagh","key":"CountyName"}],"Building":"St Anthony's Primary School"},"MapReference":{"ReferenceId":"564880412","Spot":0.52,"SideOfStreet":"right","StateId":"20403688","CountyId":"20411120","CityId":"20419114","DistrictId":"20419128","AddressId":"342355973","RoadLinkId":"84966803"}}},{"Relevance":1.0,"Distance":111.2,"MatchLevel":"houseNumber","MatchQuality":{"Country":1.0,"State":1.0,"County":1.0,"City":1.0,"District":1.0,"Street":[1.0],"HouseNumber":1.0,"PostalCode":1.0},"MatchType":"interpolated","Location":{"LocationId":"NT_3yT632W3-2FHCfSRsVUP7A_yAjZ","LocationType":"point","DisplayPosition":{"Latitude":54.45063,"Longitude":-6.3694},"MapView":{"TopLeft":{"Latitude":54.4517542,"Longitude":-6.3713335},"BottomRight":{"Latitude":54.4495058,"Longitude":-6.3674665}},"Address":{"Label":"20f Rowan Manor, Craigavon, BT65 5AZ, United Kingdom","Country":"GBR","State":"Northern Ireland","County":"County Armagh","City":"Craigavon","District":"Tullygally","Street":"Rowan Manor","HouseNumber":"20f","PostalCode":"BT65 5AZ","AdditionalData":[{"value":"United Kingdom","key":"CountryName"},{"value":"Northern Ireland","key":"StateName"},{"value":"County Armagh","key":"CountyName"}]},"MapReference":{"ReferenceId":"564880402","Spot":0.0,"SideOfStreet":"left","StateId":"20403688","CountyId":"20411120","CityId":"20419114","DistrictId":"20419137","AddressId":"341721910","RoadLinkId":"84851209"}}}]}]}}