{"Response":{"MetaInfo":{"Timestamp":"2020-03-28T11:15:53.696+0000","NextPageInformation":"2"},"View":[{"_type":"SearchResultsViewType","ViewId":0,"Result":[{"Relevance":1.0,"Distance":0.0,"Direction":0.0,"MatchLevel":"district","MatchQuality":{"Country":1.0,"State":1.0,"County":1.0,"City":1.0,"District":1.0,"PostalCode":1.0},"Location":{"LocationId":"NT_SZmDWRAGrxoZhVnoQQue8B","LocationType":"point","DisplayPosition":{"Latitude":54.5547138,"Longitude":-1.2497345},"MapView":{"TopLeft":{"Latitude":54.56539,"Longitude":-1.26489},"BottomRight":{"Latitude":54.54997,"Longitude":-1.23057}},"Address":{"Label":"Linthorpe, Middlesbrough, England, United Kingdom","Country":"GBR","State":"England","County":"Cleveland","City":"Middlesbrough","District":"Linthorpe","PostalCode":"TS5 5","AdditionalData":[{"value":"United Kingdom","key":"CountryName"},{"value":"England","key":"StateName"},{"value":"Cleveland","key":"CountyName"}]},"MapReference":{"ReferenceId":"26899691","SideOfStreet":"neither","StateId":"20248595","CountyId":"20345544","CityId":"20345576","DistrictId":"20345594"}}},{"Relevance":1.0,"Distance":2.1,"MatchLevel":"houseNumber","MatchQuality":{"Country":1.0,"State":1.0,"County":1.0,"City":1.0,"District":1.0,"Street":[1.0],"HouseNumber":1.0,"PostalCode":1.0},"MatchType":"interpolated","Location":{"LocationId":"NT_Es6WMCMkX0eusAzfcJa17B_l_26900690_R_xAD","LocationType":"point","DisplayPosition":{"Latitude":54.55486,"Longitude":-1.2497299},"MapView":{"TopLeft":{"Latitude":54.5559842,"Longitude":-1.2516684},"BottomRight":{"Latitude":54.5537359,"Longitude":-1.2477915}},"Address":{"Label":"10 Cambridge Road, Middlesbrough, TS5 5NQ, United Kingdom","Country":"GBR","State":"England","County":"Cleveland","City":"Middlesbrough","District":"Linthorpe","Street":"Cambridge Road","HouseNumber":"10","PostalCode":"TS5 5NQ","AdditionalData":[{"value":"United Kingdom","key":"CountryName"},{"value":"England","key":"StateName"},{"value":"Cleveland","key":"CountyName"}]},"MapReference":{"ReferenceId":"26900690","Spot":0.09,"SideOfStreet":"right","StateId":"20248595","CountyId":"20345544","CityId":"20345576","DistrictId":"20345594"}}},{"Relevance":1.0,"Distance":47.6,"MatchLevel":"houseNumber","MatchQuality":{"Country":1.0,"State":1.0,"County":1.0,"City":1.0,"District":1.0,"Street":[1.0],"HouseNumber":1.0,"PostalCode":1.0},"MatchType":"interpolated","Location":{"LocationId":"NT_Es6WMCMkX0eusAzfcJa17B_l_26900725_R_xID","LocationType":"point","DisplayPosition":{"Latitude":54.554755,"Longitude":-1.250475},"MapView":{"TopLeft":{"Latitude":54.5558792,"Longitude":-1.2524134},"BottomRight":{"Latitude":54.5536309,"Longitude":-1.2485365}},"Address":{"Label":"12 Cambridge Road, Middlesbrough, TS5 5NN, United Kingdom","Country":"GBR","State":"England","County":"Cleveland","City":"Middlesbrough","District":"Linthorpe","Street":"Cambridge Road","HouseNumber":"12","PostalCode":"TS5 5NN","AdditionalData":[{"value":"United Kingdom","key":"CountryName"},{"value":"England","key":"StateName"},{"value":"Cleveland","key":"CountyName"}]},"MapReference":{"ReferenceId":"26900725","Spot":0.5,"SideOfStreet":"right","StateId":"20248595","CountyId":"20345544","CityId":"20345576","DistrictId":"20345594"}}},{"Relevance":1.0,"Distance":51.1,"MatchLevel":"houseNumber","MatchQuality":{"Country":1.0,"State":1.0,"County":1.0,"City":1.0,"District":1.0,"Street":[1.0],"HouseNumber":1.0,"PostalCode":1.0},"MatchType":"interpolated","Location":{"LocationId":"NT_WOUdXqpGAm4kn1RV2O9U4B_l_26900901_R_yAD","LocationType":"point","DisplayPosition":{"Latitude":54.5541945,"Longitude":-1.2496779},"MapView":{"TopLeft":{"Latitude":54.5553187,"Longitude":-1.2516163},"BottomRight":{"Latitude":54.5530704,"Longitude":-1.2477395}},"Address":{"Label":"20 Northgate Road, Middlesbrough, TS5 5NW, United Kingdom","Country":"GBR","State":"England","County":"Cleveland","City":"Middlesbrough","District":"Linthorpe","Street":"Northgate Road","HouseNumber":"20","PostalCode":"TS5 5NW","AdditionalData":[{"value":"United Kingdom","key":"CountryName"},{"value":"England","key":"StateName"},{"value":"Cleveland","key":"CountyName"}]},"MapReference":{"ReferenceId":"26900901","Spot":0.49,"SideOfStreet":"right","StateId":"20248595","CountyId":"20345544","CityId":"20345576","DistrictId":"20345594"}}},{"Relevance":1.0,"Distance":66.7,"MatchLevel":"houseNumber","MatchQuality":{"Country":1.0,"State":1.0,"County":1.0,"City":1.0,"District":1.0,"Street":[1.0],"HouseNumber":1.0,"PostalCode":1.0},"MatchType":"interpolated","Location":{"LocationId":"NT_CLmWKpIgtWkSYCkF12q7dD_l_26900864_R_xA","LocationType":"point","DisplayPosition":{"Latitude":54.5545141,"Longitude":-1.25094},"MapView":{"TopLeft":{"Latitude":54.5556383,"Longitude":-1.2528784},"BottomRight":{"Latitude":54.5533899,"Longitude":-1.2490016}},"Address":{"Label":"1 Oriel Close, Middlesbrough, TS5 5NJ, United Kingdom","Country":"GBR","State":"England","County":"Cleveland","City":"Middlesbrough","District":"Linthorpe","Street":"Oriel Close","HouseNumber":"1","PostalCode":"TS5 5NJ","AdditionalData":[{"value":"United Kingdom","key":"CountryName"},{"value":"England","key":"StateName"},{"value":"Cleveland","key":"CountyName"}]},"MapReference":{"ReferenceId":"26900864","Spot":0.8,"SideOfStreet":"right","StateId":"20248595","CountyId":"20345544","CityId":"20345576","DistrictId":"20345594"}}},{"Relevance":1.0,"Distance":75.9,"MatchLevel":"postalCode","MatchQuality":{"PostalCode":1.0},"MatchType":"interpolated","Location":{"LocationId":"NT_Es6WMCMkX0eusAzfcJa17B_l_26900690_R_xAD","LocationType":"point","DisplayPosition":{"Latitude":54.55498,"Longitude":-1.24865},"MapView":{"TopLeft":{"Latitude":54.5639732,"Longitude":-1.2641576},"BottomRight":{"Latitude":54.5459868,"Longitude":-1.2331424}},"Address":{"Label":"TS5 5NQ, Middlesbrough, England, United Kingdom","Country":"GBR","State":"England","County":"Cleveland","City":"Middlesbrough","PostalCode":"TS5 5NQ","AdditionalData":[{"value":"United Kingdom","key":"CountryName"},{"value":"England","key":"StateName"},{"value":"Cleveland","key":"CountyName"}]},"MapReference":{"ReferenceId":"26900690","Spot":0.09,"SideOfStreet":"neither","StateId":"20248595","CountyId":"20345544","CityId":"20345576"}}},{"Relevance":1.0,"Distance":85.2,"MatchLevel":"postalCode","MatchQuality":{"PostalCode":1.0},"MatchType":"interpolated","Location":{"LocationId":"NT_CLmWKpIgtWkSYCkF12q7dD_l_26900864_R_xA","LocationType":"point","DisplayPosition":{"Latitude":54.55423,"Longitude":-1.25076},"MapView":{"TopLeft":{"Latitude":54.5632232,"Longitude":-1.2662674},"BottomRight":{"Latitude":54.5452368,"Longitude":-1.2352526}},"Address":{"Label":"TS5 5NJ, Middlesbrough, England, United Kingdom","Country":"GBR","State":"England","County":"Cleveland","City":"Middlesbrough","PostalCode":"TS5 5NJ","AdditionalData":[{"value":"United Kingdom","key":"CountryName"},{"value":"England","key":"StateName"},{"value":"Cleveland","key":"CountyName"}]},"MapReference":{"ReferenceId":"26900864","Spot":0.8,"SideOfStreet":"neither","StateId":"20248595","CountyId":"20345544","CityId":"20345576"}}},{"Relevance":1.0,"Distance":101.8,"MatchLevel":"postalCode","MatchQuality":{"PostalCode":1.0},"MatchType":"interpolated","Location":{"LocationId":"NT_WOUdXqpGAm4kn1RV2O9U4B_l_26900901_R_yAD","LocationType":"point","DisplayPosition":{"Latitude":54.5538,"Longitude":-1.24963},"MapView":{"TopLeft":{"Latitude":54.5627932,"Longitude":-1.2651372},"BottomRight":{"Latitude":54.5448068,"Longitude":-1.2341228}},"Address":{"Label":"TS5 5NW, Middlesbrough, England, United Kingdom","Country":"GBR","State":"England","County":"Cleveland","City":"Middlesbrough","PostalCode":"TS5 5NW","AdditionalData":[{"value":"United Kingdom","key":"CountryName"},{"value":"England","key":"StateName"},{"value":"Cleveland","key":"CountyName"}]},"MapReference":{"ReferenceId":"26900901","Spot":0.49,"SideOfStreet":"neither","StateId":"20248595","CountyId":"20345544","CityId":"20345576"}}},{"Relevance":1.0,"Distance":107.2,"MatchLevel":"houseNumber","MatchQuality":{"Country":1.0,"State":1.0,"County":1.0,"City":1.0,"District":1.0,"Street":[1.0],"HouseNumber":1.0,"PostalCode":1.0},"MatchType":"interpolated","Location":{"LocationId":"NT_PHqZ48WiO4N6QPm.sP6lOD_l_867322935_L_0kD","LocationType":"point","DisplayPosition":{"Latitude":54.5557863,"Longitude":-1.2493227},"MapView":{"TopLeft":{"Latitude":54.5569105,"Longitude":-1.2512612},"BottomRight":{"Latitude":54.5546622,"Longitude":-1.2473842}},"Address":{"Label":"49 Dorman Gardens, Middlesbrough, TS5 5, United Kingdom","Country":"GBR","State":"England","County":"Cleveland","City":"Middlesbrough","District":"Linthorpe","Street":"Dorman Gardens","HouseNumber":"49","PostalCode":"TS5 5","AdditionalData":[{"value":"United Kingdom","key":"CountryName"},{"value":"England","key":"StateName"},{"value":"Cleveland","key":"CountyName"}]},"MapReference":{"ReferenceId":"867322935","Spot":0.68,"SideOfStreet":"left","StateId":"20248595","CountyId":"20345544","CityId":"20345576","DistrictId":"20345594"}}},{"Relevance":1.0,"Distance":112.6,"MatchLevel":"houseNumber","MatchQuality":{"Country":1.0,"State":1.0,"County":1.0,"City":1.0,"District":1.0,"Street":[1.0],"HouseNumber":1.0,"PostalCode":1.0},"MatchType":"interpolated","Location":{"LocationId":"NT_Es6WMCMkX0eusAzfcJa17B_l_26900800_R_xYD","LocationType":"point","DisplayPosition":{"Latitude":54.5546172,"Longitude":-1.2514725},"MapView":{"TopLeft":{"Latitude":54.5557413,"Longitude":-1.2534109},"BottomRight":{"Latitude":54.553493,"Longitude":-1.2495341}},"Address":{"Label":"16 Cambridge Road, Middlesbrough, TS5 5NN, United Kingdom","Country":"GBR","State":"England","County":"Cleveland","City":"Middlesbrough","District":"Linthorpe","Street":"Cambridge Road","HouseNumber":"16","PostalCode":"TS5 5NN","AdditionalData":[{"value":"United Kingdom","key":"CountryName"},{"value":"England","key":"StateName"},{"value":"Cleveland","key":"CountyName"}]},"MapReference":{"ReferenceId":"26900800","Spot":0.84,"SideOfStreet":"right","StateId":"20248595","CountyId":"20345544","CityId":"20345576","DistrictId":"20345594"}}}]}]}}