{"Response":{"MetaInfo":{"Timestamp":"2020-03-28T10:08:32.512+0000","NextPageInformation":"2"},"View":[{"_type":"SearchResultsViewType","ViewId":0,"Result":[{"Relevance":1.0,"Distance":0.0,"Direction":0.0,"MatchLevel":"district","MatchQuality":{"Country":1.0,"State":1.0,"County":1.0,"City":1.0,"District":1.0,"PostalCode":1.0},"Location":{"LocationId":"NT_es.wawcuk8v4-3GnAmUO0C","LocationType":"point","DisplayPosition":{"Latitude":54.5659437,"Longitude":-1.360484},"MapView":{"TopLeft":{"Latitude":54.57509,"Longitude":-1.37379},"BottomRight":{"Latitude":54.55825,"Longitude":-1.34476}},"Address":{"Label":"Fairfield, Stockton-on-Tees, England, United Kingdom","Country":"GBR","State":"England","County":"Cleveland","City":"Stockton-on-Tees","District":"Fairfield","PostalCode":"TS19 7","AdditionalData":[{"value":"United Kingdom","key":"CountryName"},{"value":"England","key":"StateName"},{"value":"Cleveland","key":"CountyName"}]},"MapReference":{"ReferenceId":"1054024751","SideOfStreet":"neither","StateId":"20248595","CountyId":"20345544","CityId":"20345644","DistrictId":"20345651"}}},{"Relevance":1.0,"Distance":15.9,"MatchLevel":"postalCode","MatchQuality":{"PostalCode":1.0},"MatchType":"interpolated","Location":{"LocationId":"NT_V6DwEKqU6Ga2YwJhqKYgjA_l_565954873_R_yED","LocationType":"point","DisplayPosition":{"Latitude":54.56603,"Longitude":-1.36068},"MapView":{"TopLeft":{"Latitude":54.5750232,"Longitude":-1.3761918},"BottomRight":{"Latitude":54.5570368,"Longitude":-1.3451682}},"Address":{"Label":"TS19 7PP, Stockton-on-Tees, England, United Kingdom","Country":"GBR","State":"England","County":"Cleveland","City":"Stockton-on-Tees","PostalCode":"TS19 7PP","AdditionalData":[{"value":"United Kingdom","key":"CountryName"},{"value":"England","key":"StateName"},{"value":"Cleveland","key":"CountyName"}]},"MapReference":{"ReferenceId":"565954873","Spot":0.49,"SideOfStreet":"neither","StateId":"20248595","CountyId":"20345544","CityId":"20345644"}}},{"Relevance":1.0,"Distance":17.7,"MatchLevel":"street","MatchQuality":{"Country":1.0,"State":1.0,"County":1.0,"City":1.0,"District":1.0,"Street":[1.0],"PostalCode":1.0},"Location":{"LocationId":"NT_9zFOtLJkroItVAMzzZzd6C_l_565954877_R","LocationType":"point","DisplayPosition":{"Latitude":54.5657868,"Longitude":-1.3605323},"MapView":{"TopLeft":{"Latitude":54.56589,"Longitude":-1.36084},"BottomRight":{"Latitude":54.56518,"Longitude":-1.35945}},"Address":{"Label":"Limbrick Avenue, Stockton-on-Tees, TS19 7, United Kingdom","Country":"GBR","State":"England","County":"Cleveland","City":"Stockton-on-Tees","District":"Fairfield","Street":"Limbrick Avenue","PostalCode":"TS19 7","AdditionalData":[{"value":"United Kingdom","key":"CountryName"},{"value":"England","key":"StateName"},{"value":"Cleveland","key":"CountyName"}]},"MapReference":{"ReferenceId":"565954877","Spot":0.79,"SideOfStreet":"right","StateId":"20248595","CountyId":"20345544","CityId":"20345644","DistrictId":"20345651"}}},{"Relevance":1.0,"Distance":24.1,"MatchLevel":"houseNumber","MatchQuality":{"Country":1.0,"State":1.0,"County":1.0,"City":1.0,"District":1.0,"Street":[1.0],"HouseNumber":1.0,"PostalCode":1.0},"MatchType":"interpolated","Location":{"LocationId":"NT_V6DwEKqU6Ga2YwJhqKYgjA_l_565954873_R_yED","LocationType":"point","DisplayPosition":{"Latitude":54.5661414,"Longitude":-1.3601624},"MapView":{"TopLeft":{"Latitude":54.5672655,"Longitude":-1.3621014},"BottomRight":{"Latitude":54.5650172,"Longitude":-1.3582234}},"Address":{"Label":"21 Wellburn Road, Stockton-on-Tees, TS19 7PP, United Kingdom","Country":"GBR","State":"England","County":"Cleveland","City":"Stockton-on-Tees","District":"Fairfield","Street":"Wellburn Road","HouseNumber":"21","PostalCode":"TS19 7PP","AdditionalData":[{"value":"United Kingdom","key":"CountryName"},{"value":"England","key":"StateName"},{"value":"Cleveland","key":"CountyName"}]},"MapReference":{"ReferenceId":"565954873","Spot":0.49,"SideOfStreet":"right","StateId":"20248595","CountyId":"20345544","CityId":"20345644","DistrictId":"20345651"}}},{"Relevance":1.0,"Distance":35.2,"MatchLevel":"houseNumber","MatchQuality":{"Country":1.0,"State":1.0,"County":1.0,"City":1.0,"District":1.0,"Street":[1.0],"HouseNumber":1.0,"PostalCode":1.0},"MatchType":"interpolated","Location":{"LocationId":"NT_9zFOtLJkroItVAMzzZzd6C_l_26899020_R_xAD","LocationType":"point","DisplayPosition":{"Latitude":54.5659401,"Longitude":-1.3610502},"MapView":{"TopLeft":{"Latitude":54.5670643,"Longitude":-1.3629892},"BottomRight":{"Latitude":54.564816,"Longitude":-1.3591112}},"Address":{"Label":"10 Limbrick Avenue, Stockton-on-Tees, TS19 7NW, United Kingdom","Country":"GBR","State":"England","County":"Cleveland","City":"Stockton-on-Tees","District":"Fairfield","Street":"Limbrick Avenue","HouseNumber":"10","PostalCode":"TS19 7NW","AdditionalData":[{"value":"United Kingdom","key":"CountryName"},{"value":"England","key":"StateName"},{"value":"Cleveland","key":"CountyName"}]},"MapReference":{"ReferenceId":"26899020","Spot":0.07,"SideOfStreet":"right","StateId":"20248595","CountyId":"20345544","CityId":"20345644","DistrictId":"20345651"}}},{"Relevance":1.0,"Distance":79.8,"MatchLevel":"street","MatchQuality":{"Country":1.0,"State":1.0,"County":1.0,"City":1.0,"District":1.0,"Street":[1.0],"PostalCode":1.0},"Location":{"LocationId":"NT_oDlZWT5jzLYuUhuJWt15CB_l_565954875_L","LocationType":"point","DisplayPosition":{"Latitude":54.56633,"Longitude":-1.35944},"MapView":{"TopLeft":{"Latitude":54.56633,"Longitude":-1.35944},"BottomRight":{"Latitude":54.56595,"Longitude":-1.35918}},"Address":{"Label":"Wellburn Court, Stockton-on-Tees, TS19 7, United Kingdom","Country":"GBR","State":"England","County":"Cleveland","City":"Stockton-on-Tees","District":"Fairfield","Street":"Wellburn Court","PostalCode":"TS19 7","AdditionalData":[{"value":"United Kingdom","key":"CountryName"},{"value":"England","key":"StateName"},{"value":"Cleveland","key":"CountyName"}]},"MapReference":{"ReferenceId":"565954875","Spot":1.0,"SideOfStreet":"left","StateId":"20248595","CountyId":"20345544","CityId":"20345644","DistrictId":"20345651"}}},{"Relevance":1.0,"Distance":79.8,"MatchLevel":"street","MatchQuality":{"Country":1.0,"State":1.0,"County":1.0,"City":1.0,"District":1.0,"Street":[1.0],"PostalCode":1.0},"Location":{"LocationId":"NT_V6DwEKqU6Ga2YwJhqKYgjA_l_565954874_R","LocationType":"point","DisplayPosition":{"Latitude":54.56633,"Longitude":-1.35944},"MapView":{"TopLeft":{"Latitude":54.56636,"Longitude":-1.35944},"BottomRight":{"Latitude":54.56633,"Longitude":-1.35934}},"Address":{"Label":"Wellburn Road, Stockton-on-Tees, TS19 7, United Kingdom","Country":"GBR","State":"England","County":"Cleveland","City":"Stockton-on-Tees","District":"Fairfield","Street":"Wellburn Road","PostalCode":"TS19 7","AdditionalData":[{"value":"United Kingdom","key":"CountryName"},{"value":"England","key":"StateName"},{"value":"Cleveland","key":"CountyName"}]},"MapReference":{"ReferenceId":"565954874","Spot":0.0,"SideOfStreet":"right","StateId":"20248595","CountyId":"20345544","CityId":"20345644","DistrictId":"20345651"}}},{"Relevance":1.0,"Distance":80.8,"MatchLevel":"postalCode","MatchQuality":{"PostalCode":1.0},"Location":{"LocationId":"NT_oDlZWT5jzLYuUhuJWt15CB_l_565954875_L","LocationType":"point","DisplayPosition":{"Latitude":54.56595,"Longitude":-1.35923},"MapView":{"TopLeft":{"Latitude":54.5749432,"Longitude":-1.3747418},"BottomRight":{"Latitude":54.5569568,"Longitude":-1.3437182}},"Address":{"Label":"TS19 7QE, Stockton-on-Tees, England, United Kingdom","Country":"GBR","State":"England","County":"Cleveland","City":"Stockton-on-Tees","PostalCode":"TS19 7QE","AdditionalData":[{"value":"United Kingdom","key":"CountryName"},{"value":"England","key":"StateName"},{"value":"Cleveland","key":"CountyName"}]},"MapReference":{"ReferenceId":"565954875","Spot":1.0,"SideOfStreet":"neither","StateId":"20248595","CountyId":"20345544","CityId":"20345644"}}},{"Relevance":1.0,"Distance":90.9,"MatchLevel":"houseNumber","MatchQuality":{"Country":1.0,"State":1.0,"County":1.0,"City":1.0,"District":1.0,"Street":[1.0],"HouseNumber":1.0,"PostalCode":1.0},"MatchType":"interpolated","Location":{"LocationId":"NT_ptVEJ4s6zWP.rFKOTVjl5D_l_26898959_R_xUD","LocationType":"point","DisplayPosition":{"Latitude":54.5664801,"Longitude":-1.35942},"MapView":{"TopLeft":{"Latitude":54.5676042,"Longitude":-1.361359},"BottomRight":{"Latitude":54.5653559,"Longitude":-1.357481}},"Address":{"Label":"15 Glenfield Road, Stockton-on-Tees, TS19 7PW, United Kingdom","Country":"GBR","State":"England","County":"Cleveland","City":"Stockton-on-Tees","District":"Fairfield","Street":"Glenfield Road","HouseNumber":"15","PostalCode":"TS19 7PW","AdditionalData":[{"value":"United Kingdom","key":"CountryName"},{"value":"England","key":"StateName"},{"value":"Cleveland","key":"CountyName"}]},"MapReference":{"ReferenceId":"26898959","Spot":0.07,"SideOfStreet":"right","StateId":"20248595","CountyId":"20345544","CityId":"20345644","DistrictId":"20345651"}}},{"Relevance":1.0,"Distance":97.2,"MatchLevel":"houseNumber","MatchQuality":{"Country":1.0,"State":1.0,"County":1.0,"City":1.0,"District":1.0,"Street":[1.0],"HouseNumber":1.0,"PostalCode":1.0},"MatchType":"interpolated","Location":{"LocationId":"NT_V6DwEKqU6Ga2YwJhqKYgjA_l_26898958_R_xUD","LocationType":"point","DisplayPosition":{"Latitude":54.5664,"Longitude":-1.3591099},"MapView":{"TopLeft":{"Latitude":54.5675242,"Longitude":-1.3610489},"BottomRight":{"Latitude":54.5652759,"Longitude":-1.3571709}},"Address":{"Label":"15 Wellburn Road, Stockton-on-Tees, TS19 7PS, United Kingdom","Country":"GBR","State":"England","County":"Cleveland","City":"Stockton-on-Tees","District":"Fairfield","Street":"Wellburn Road","HouseNumber":"15","PostalCode":"TS19 7PS","AdditionalData":[{"value":"United Kingdom","key":"CountryName"},{"value":"England","key":"StateName"},{"value":"Cleveland","key":"CountyName"}]},"MapReference":{"ReferenceId":"26898958","Spot":0.18,"SideOfStreet":"right","StateId":"20248595","CountyId":"20345544","CityId":"20345644","DistrictId":"20345651"}}}]}]}}