{"Response":{"MetaInfo":{"Timestamp":"2020-03-28T11:55:41.224+0000","NextPageInformation":"2"},"View":[{"_type":"SearchResultsViewType","ViewId":0,"Result":[{"Relevance":1.0,"Distance":0.0,"Direction":0.0,"MatchLevel":"district","MatchQuality":{"Country":1.0,"State":1.0,"County":1.0,"City":1.0,"District":1.0,"PostalCode":1.0},"Location":{"LocationId":"NT_BW93m1y9wxSSeO0SgZgvQB","LocationType":"point","DisplayPosition":{"Latitude":54.5284169,"Longitude":-1.1689048},"MapView":{"TopLeft":{"Latitude":54.54056,"Longitude":-1.20729},"BottomRight":{"Latitude":54.49989,"Longitude":-1.14079}},"Address":{"Label":"Nunthorpe, Middlesbrough, England, United Kingdom","Country":"GBR","State":"England","County":"Cleveland","City":"Middlesbrough","District":"Nunthorpe","PostalCode":"TS7 0","AdditionalData":[{"value":"United Kingdom","key":"CountryName"},{"value":"England","key":"StateName"},{"value":"Cleveland","key":"CountyName"}]},"MapReference":{"ReferenceId":"762204834","SideOfStreet":"neither","StateId":"20248595","CountyId":"20345544","CityId":"20345576","DistrictId":"20345601"}}},{"Relevance":1.0,"Distance":19.0,"MatchLevel":"houseNumber","MatchQuality":{"Country":1.0,"State":1.0,"County":1.0,"City":1.0,"District":1.0,"Street":[1.0],"HouseNumber":1.0,"PostalCode":1.0},"MatchType":"interpolated","Location":{"LocationId":"NT_x2oSIrsONJqjMl5lj9I80D_l_762204831_L_5MD","LocationType":"point","DisplayPosition":{"Latitude":54.5281229,"Longitude":-1.1687759},"MapView":{"TopLeft":{"Latitude":54.5292471,"Longitude":-1.1707131},"BottomRight":{"Latitude":54.5269988,"Longitude":-1.1668387}},"Address":{"Label":"93 Guisborough Road, Middlesbrough, TS7 0JS, United Kingdom","Country":"GBR","State":"England","County":"Cleveland","City":"Middlesbrough","District":"Nunthorpe","Street":"Guisborough Road","HouseNumber":"93","PostalCode":"TS7 0JS","AdditionalData":[{"value":"United Kingdom","key":"CountryName"},{"value":"England","key":"StateName"},{"value":"Cleveland","key":"CountyName"}]},"MapReference":{"ReferenceId":"762204831","Spot":0.63,"SideOfStreet":"left","StateId":"20248595","CountyId":"20345544","CityId":"20345576","DistrictId":"20345601"}}},{"Relevance":1.0,"Distance":20.0,"MatchLevel":"houseNumber","MatchQuality":{"Country":1.0,"State":1.0,"County":1.0,"City":1.0,"District":1.0,"Street":[1.0],"HouseNumber":1.0,"PostalCode":1.0},"MatchType":"interpolated","Location":{"LocationId":"NT_x2oSIrsONJqjMl5lj9I80D_l_1065345516_L_5ED","LocationType":"point","DisplayPosition":{"Latitude":54.52835,"Longitude":-1.1685},"MapView":{"TopLeft":{"Latitude":54.5294742,"Longitude":-1.1704372},"BottomRight":{"Latitude":54.5272259,"Longitude":-1.1665628}},"Address":{"Label":"91 Guisborough Road, Middlesbrough, TS7 0JS, United Kingdom","Country":"GBR","State":"England","County":"Cleveland","City":"Middlesbrough","District":"Nunthorpe","Street":"Guisborough Road","HouseNumber":"91","PostalCode":"TS7 0JS","AdditionalData":[{"value":"United Kingdom","key":"CountryName"},{"value":"England","key":"StateName"},{"value":"Cleveland","key":"CountyName"}]},"MapReference":{"ReferenceId":"1065345516","Spot":0.0,"SideOfStreet":"left","StateId":"20248595","CountyId":"20345544","CityId":"20345576","DistrictId":"20345601"}}},{"Relevance":1.0,"Distance":25.9,"MatchLevel":"street","MatchQuality":{"Country":1.0,"State":1.0,"County":1.0,"City":1.0,"District":1.0,"Street":[1.0],"PostalCode":1.0},"Location":{"LocationId":"NT_x2oSIrsONJqjMl5lj9I80D_l_762204832_L","LocationType":"point","DisplayPosition":{"Latitude":54.52828,"Longitude":-1.16858},"MapView":{"TopLeft":{"Latitude":54.52835,"Longitude":-1.16858},"BottomRight":{"Latitude":54.52828,"Longitude":-1.1685}},"Address":{"Label":"Guisborough Road, Middlesbrough, TS7 0, United Kingdom","Country":"GBR","State":"England","County":"Cleveland","City":"Middlesbrough","District":"Nunthorpe","Street":"Guisborough Road","PostalCode":"TS7 0","AdditionalData":[{"value":"United Kingdom","key":"CountryName"},{"value":"England","key":"StateName"},{"value":"Cleveland","key":"CountyName"}]},"MapReference":{"ReferenceId":"762204832","Spot":0.0,"SideOfStreet":"left","StateId":"20248595","CountyId":"20345544","CityId":"20345576","DistrictId":"20345601"}}},{"Relevance":1.0,"Distance":40.4,"MatchLevel":"postalCode","MatchQuality":{"PostalCode":1.0},"MatchType":"interpolated","Location":{"LocationId":"NT_x2oSIrsONJqjMl5lj9I80D_l_1065345516_L_5ED","LocationType":"point","DisplayPosition":{"Latitude":54.52856,"Longitude":-1.16833},"MapView":{"TopLeft":{"Latitude":54.5375532,"Longitude":-1.1838276},"BottomRight":{"Latitude":54.5195668,"Longitude":-1.1528324}},"Address":{"Label":"TS7 0JS, Middlesbrough, England, United Kingdom","Country":"GBR","State":"England","County":"Cleveland","City":"Middlesbrough","PostalCode":"TS7 0JS","AdditionalData":[{"value":"United Kingdom","key":"CountryName"},{"value":"England","key":"StateName"},{"value":"Cleveland","key":"CountyName"}]},"MapReference":{"ReferenceId":"1065345516","Spot":0.0,"SideOfStreet":"neither","StateId":"20248595","CountyId":"20345544","CityId":"20345576"}}},{"Relevance":1.0,"Distance":47.5,"MatchLevel":"postalCode","MatchQuality":{"PostalCode":1.0},"MatchType":"interpolated","Location":{"LocationId":"NT_x2oSIrsONJqjMl5lj9I80D_l_762204831_L_5MD","LocationType":"point","DisplayPosition":{"Latitude":54.52799,"Longitude":-1.16887},"MapView":{"TopLeft":{"Latitude":54.5369832,"Longitude":-1.1843674},"BottomRight":{"Latitude":54.5189968,"Longitude":-1.1533726}},"Address":{"Label":"TS7 0PP, Middlesbrough, England, United Kingdom","Country":"GBR","State":"England","County":"Cleveland","City":"Middlesbrough","PostalCode":"TS7 0PP","AdditionalData":[{"value":"United Kingdom","key":"CountryName"},{"value":"England","key":"StateName"},{"value":"Cleveland","key":"CountyName"}]},"MapReference":{"ReferenceId":"762204831","Spot":0.63,"SideOfStreet":"neither","StateId":"20248595","CountyId":"20345544","CityId":"20345576"}}},{"Relevance":1.0,"Distance":50.9,"MatchLevel":"postalCode","MatchQuality":{"PostalCode":1.0},"Location":{"LocationId":"NT_Llm8DHseaAzQvDmT6F9UXA_l_1175372248_R","LocationType":"point","DisplayPosition":{"Latitude":54.528,"Longitude":-1.16923},"MapView":{"TopLeft":{"Latitude":54.5369932,"Longitude":-1.1847274},"BottomRight":{"Latitude":54.5190068,"Longitude":-1.1537326}},"Address":{"Label":"TS7 0BG, Middlesbrough, England, United Kingdom","Country":"GBR","State":"England","County":"Cleveland","City":"Middlesbrough","PostalCode":"TS7 0BG","AdditionalData":[{"value":"United Kingdom","key":"CountryName"},{"value":"England","key":"StateName"},{"value":"Cleveland","key":"CountyName"}]},"MapReference":{"ReferenceId":"1175372248","Spot":0.15,"SideOfStreet":"neither","StateId":"20248595","CountyId":"20345544","CityId":"20345576"}}},{"Relevance":1.0,"Distance":56.3,"MatchLevel":"houseNumber","MatchQuality":{"Country":1.0,"State":1.0,"County":1.0,"City":1.0,"District":1.0,"Street":[1.0],"HouseNumber":1.0,"PostalCode":1.0},"MatchType":"interpolated","Location":{"LocationId":"NT_x2oSIrsONJqjMl5lj9I80D_l_1065345517_L_4cD","LocationType":"point","DisplayPosition":{"Latitude":54.5286601,"Longitude":-1.1681399},"MapView":{"TopLeft":{"Latitude":54.5297842,"Longitude":-1.1700771},"BottomRight":{"Latitude":54.5275359,"Longitude":-1.1662027}},"Address":{"Label":"87 Guisborough Road, Middlesbrough, TS7 0JS, United Kingdom","Country":"GBR","State":"England","County":"Cleveland","City":"Middlesbrough","District":"Nunthorpe","Street":"Guisborough Road","HouseNumber":"87","PostalCode":"TS7 0JS","AdditionalData":[{"value":"United Kingdom","key":"CountryName"},{"value":"England","key":"StateName"},{"value":"Cleveland","key":"CountyName"}]},"MapReference":{"ReferenceId":"1065345517","Spot":0.15,"SideOfStreet":"left","StateId":"20248595","CountyId":"20345544","CityId":"20345576","DistrictId":"20345601"}}},{"Relevance":1.0,"Distance":58.1,"MatchLevel":"street","MatchQuality":{"Country":1.0,"State":1.0,"County":1.0,"City":1.0,"District":1.0,"Street":[1.0],"PostalCode":1.0},"Location":{"LocationId":"NT_Llm8DHseaAzQvDmT6F9UXA_l_1175372248_R","LocationType":"point","DisplayPosition":{"Latitude":54.5279215,"Longitude":-1.1691916},"MapView":{"TopLeft":{"Latitude":54.52817,"Longitude":-1.1695},"BottomRight":{"Latitude":54.52788,"Longitude":-1.16912}},"Address":{"Label":"Railway Cottages, Middlesbrough, TS7 0, United Kingdom","Country":"GBR","State":"England","County":"Cleveland","City":"Middlesbrough","District":"Nunthorpe","Street":"Railway Cottages","PostalCode":"TS7 0","AdditionalData":[{"value":"United Kingdom","key":"CountryName"},{"value":"England","key":"StateName"},{"value":"Cleveland","key":"CountyName"}]},"MapReference":{"ReferenceId":"1175372248","Spot":0.15,"SideOfStreet":"right","StateId":"20248595","CountyId":"20345544","CityId":"20345576","DistrictId":"20345601"}}},{"Relevance":1.0,"Distance":60.2,"MatchLevel":"houseNumber","MatchQuality":{"Country":1.0,"State":1.0,"County":1.0,"City":1.0,"District":1.0,"Street":[1.0],"HouseNumber":1.0,"PostalCode":1.0},"MatchType":"interpolated","Location":{"LocationId":"NT_ZjDTkpMGf67Is4ykiMFtEA_l_26923262_L_yA","LocationType":"point","DisplayPosition":{"Latitude":54.5281771,"Longitude":-1.1680677},"MapView":{"TopLeft":{"Latitude":54.5293012,"Longitude":-1.1700049},"BottomRight":{"Latitude":54.5270529,"Longitude":-1.1661305}},"Address":{"Label":"2 The Crescent, Middlesbrough, TS7 0JP, United Kingdom","Country":"GBR","State":"England","County":"Cleveland","City":"Middlesbrough","District":"Nunthorpe","Street":"The Crescent","HouseNumber":"2","PostalCode":"TS7 0JP","AdditionalData":[{"value":"United Kingdom","key":"CountryName"},{"value":"England","key":"StateName"},{"value":"Cleveland","key":"CountyName"}]},"MapReference":{"ReferenceId":"26923262","Spot":0.73,"SideOfStreet":"left","StateId":"20248595","CountyId":"20345544","CityId":"20345576","DistrictId":"20345601"}}}]}]}}