{"Response":{"MetaInfo":{"Timestamp":"2020-03-28T11:57:18.938+0000","NextPageInformation":"2"},"View":[{"_type":"SearchResultsViewType","ViewId":0,"Result":[{"Relevance":1.0,"Distance":0.0,"Direction":0.0,"MatchLevel":"district","MatchQuality":{"Country":1.0,"State":1.0,"County":1.0,"City":1.0,"District":1.0,"PostalCode":1.0},"Location":{"LocationId":"NT_yd.pdZXraSKlol9b3B7XoB","LocationType":"point","DisplayPosition":{"Latitude":54.595824,"Longitude":-1.2927548},"MapView":{"TopLeft":{"Latitude":54.62832,"Longitude":-1.31956},"BottomRight":{"Latitude":54.57301,"Longitude":-1.22023}},"Address":{"Label":"Billingham, England, United Kingdom","Country":"GBR","State":"England","County":"Cleveland","City":"Billingham","District":"Billingham","PostalCode":"TS23 2","AdditionalData":[{"value":"United Kingdom","key":"CountryName"},{"value":"England","key":"StateName"},{"value":"Cleveland","key":"CountyName"}]},"MapReference":{"ReferenceId":"1141735701","SideOfStreet":"neither","StateId":"20248595","CountyId":"20345544","CityId":"20345545","DistrictId":"20345546"}}},{"Relevance":1.0,"Distance":5.9,"MatchLevel":"houseNumber","MatchQuality":{"Country":1.0,"State":1.0,"County":1.0,"City":1.0,"District":1.0,"Street":[1.0],"HouseNumber":1.0,"PostalCode":1.0},"MatchType":"interpolated","Location":{"LocationId":"NT_60x2NF6OCxFPligLD2OVJC_l_26894871_L_5A","LocationType":"point","DisplayPosition":{"Latitude":54.5958966,"Longitude":-1.2926818},"MapView":{"TopLeft":{"Latitude":54.5970207,"Longitude":-1.2946223},"BottomRight":{"Latitude":54.5947724,"Longitude":-1.2907414}},"Address":{"Label":"9 Station Road, Billingham, TS23 1AG, United Kingdom","Country":"GBR","State":"England","County":"Cleveland","City":"Billingham","District":"Billingham","Street":"Station Road","HouseNumber":"9","PostalCode":"TS23 1AG","AdditionalData":[{"value":"United Kingdom","key":"CountryName"},{"value":"England","key":"StateName"},{"value":"Cleveland","key":"CountyName"}]},"MapReference":{"ReferenceId":"26894871","Spot":0.67,"SideOfStreet":"left","StateId":"20248595","CountyId":"20345544","CityId":"20345545","DistrictId":"20345546"}}},{"Relevance":1.0,"Distance":13.7,"MatchLevel":"postalCode","MatchQuality":{"PostalCode":1.0},"MatchType":"interpolated","Location":{"LocationId":"NT_60x2NF6OCxFPligLD2OVJC_l_26894871_L_5A","LocationType":"point","DisplayPosition":{"Latitude":54.59579,"Longitude":-1.29255},"MapView":{"TopLeft":{"Latitude":54.6047832,"Longitude":-1.3080732},"BottomRight":{"Latitude":54.5867968,"Longitude":-1.2770268}},"Address":{"Label":"TS23 1AQ, Billingham, England, United Kingdom","Country":"GBR","State":"England","County":"Cleveland","City":"Billingham","PostalCode":"TS23 1AQ","AdditionalData":[{"value":"United Kingdom","key":"CountryName"},{"value":"England","key":"StateName"},{"value":"Cleveland","key":"CountyName"}]},"MapReference":{"ReferenceId":"26894871","Spot":0.67,"SideOfStreet":"neither","StateId":"20248595","CountyId":"20345544","CityId":"20345545"}}},{"Relevance":1.0,"Distance":25.7,"MatchLevel":"houseNumber","MatchQuality":{"Country":1.0,"State":1.0,"County":1.0,"City":1.0,"District":1.0,"Street":[1.0],"HouseNumber":1.0,"PostalCode":1.0},"MatchType":"interpolated","Location":{"LocationId":"NT_60x2NF6OCxFPligLD2OVJC_l_1130509594_L_xED","LocationType":"point","DisplayPosition":{"Latitude":54.59612,"Longitude":-1.29289},"MapView":{"TopLeft":{"Latitude":54.5972442,"Longitude":-1.2948304},"BottomRight":{"Latitude":54.5949959,"Longitude":-1.2909496}},"Address":{"Label":"11 Station Road, Billingham, TS23 1AF, United Kingdom","Country":"GBR","State":"England","County":"Cleveland","City":"Billingham","District":"Billingham","Street":"Station Road","HouseNumber":"11","PostalCode":"TS23 1AF","AdditionalData":[{"value":"United Kingdom","key":"CountryName"},{"value":"England","key":"StateName"},{"value":"Cleveland","key":"CountyName"}]},"MapReference":{"ReferenceId":"1130509594","Spot":0.0,"SideOfStreet":"left","StateId":"20248595","CountyId":"20345544","CityId":"20345545","DistrictId":"20345546"}}},{"Relevance":1.0,"Distance":32.1,"MatchLevel":"houseNumber","MatchQuality":{"Country":1.0,"State":1.0,"County":1.0,"City":1.0,"District":1.0,"Street":[1.0],"HouseNumber":1.0,"PostalCode":1.0},"MatchType":"interpolated","Location":{"LocationId":"NT_9ETCWEj3eBBx4177qjCsTD_l_26894759_R_yA","LocationType":"point","DisplayPosition":{"Latitude":54.59624,"Longitude":-1.2927499},"MapView":{"TopLeft":{"Latitude":54.5973642,"Longitude":-1.2946903},"BottomRight":{"Latitude":54.5951159,"Longitude":-1.2908095}},"Address":{"Label":"2 Bedale Avenue, Billingham, TS23 1AH, United Kingdom","Country":"GBR","State":"England","County":"Cleveland","City":"Billingham","District":"Billingham","Street":"Bedale Avenue","HouseNumber":"2","PostalCode":"TS23 1AH","AdditionalData":[{"value":"United Kingdom","key":"CountryName"},{"value":"England","key":"StateName"},{"value":"Cleveland","key":"CountyName"}]},"MapReference":{"ReferenceId":"26894759","Spot":0.16,"SideOfStreet":"right","StateId":"20248595","CountyId":"20345544","CityId":"20345545","DistrictId":"20345546"}}},{"Relevance":1.0,"Distance":34.0,"MatchLevel":"street","MatchQuality":{"Country":1.0,"State":1.0,"County":1.0,"City":1.0,"District":1.0,"Street":[1.0],"PostalCode":1.0},"Location":{"LocationId":"NT_BkeocoCpFSR0U8tlD8bEYB_l_26894776_R","LocationType":"point","DisplayPosition":{"Latitude":54.59612,"Longitude":-1.29289},"MapView":{"TopLeft":{"Latitude":54.59612,"Longitude":-1.2935},"BottomRight":{"Latitude":54.59595,"Longitude":-1.29289}},"Address":{"Label":"Parklands Avenue, Billingham, TS23 1, United Kingdom","Country":"GBR","State":"England","County":"Cleveland","City":"Billingham","District":"Billingham","Street":"Parklands Avenue","PostalCode":"TS23 1","AdditionalData":[{"value":"United Kingdom","key":"CountryName"},{"value":"England","key":"StateName"},{"value":"Cleveland","key":"CountyName"}]},"MapReference":{"ReferenceId":"26894776","Spot":1.0,"SideOfStreet":"right","StateId":"20248595","CountyId":"20345544","CityId":"20345545","DistrictId":"20345546"}}},{"Relevance":1.0,"Distance":43.5,"MatchLevel":"houseNumber","MatchQuality":{"Country":1.0,"State":1.0,"County":1.0,"City":1.0,"District":1.0,"Street":[1.0],"HouseNumber":1.0,"PostalCode":1.0},"MatchType":"interpolated","Location":{"LocationId":"NT_60x2NF6OCxFPligLD2OVJC_l_1130509595_L_xUD","LocationType":"point","DisplayPosition":{"Latitude":54.5962601,"Longitude":-1.2930702},"MapView":{"TopLeft":{"Latitude":54.5973843,"Longitude":-1.2950106},"BottomRight":{"Latitude":54.595136,"Longitude":-1.2911298}},"Address":{"Label":"15 Station Road, Billingham, TS23 1, United Kingdom","Country":"GBR","State":"England","County":"Cleveland","City":"Billingham","District":"Billingham","Street":"Station Road","HouseNumber":"15","PostalCode":"TS23 1","AdditionalData":[{"value":"United Kingdom","key":"CountryName"},{"value":"England","key":"StateName"},{"value":"Cleveland","key":"CountyName"}]},"MapReference":{"ReferenceId":"1130509595","Spot":0.14,"SideOfStreet":"left","StateId":"20248595","CountyId":"20345544","CityId":"20345545","DistrictId":"20345546"}}},{"Relevance":1.0,"Distance":48.6,"MatchLevel":"houseNumber","MatchQuality":{"Country":1.0,"State":1.0,"County":1.0,"City":1.0,"District":1.0,"Street":[1.0],"HouseNumber":1.0,"PostalCode":1.0},"MatchType":"interpolated","Location":{"LocationId":"NT_-jCaOLBs.FkqjaGYWi4JPC_l_1130564012_L_xQD","LocationType":"point","DisplayPosition":{"Latitude":54.5952533,"Longitude":-1.2927003},"MapView":{"TopLeft":{"Latitude":54.5963775,"Longitude":-1.2946407},"BottomRight":{"Latitude":54.5941291,"Longitude":-1.2907599}},"Address":{"Label":"14 Chapel Road, Billingham, TS23 1, United Kingdom","Country":"GBR","State":"England","County":"Cleveland","City":"Billingham","District":"Billingham","Street":"Chapel Road","HouseNumber":"14","PostalCode":"TS23 1","AdditionalData":[{"value":"United Kingdom","key":"CountryName"},{"value":"England","key":"StateName"},{"value":"Cleveland","key":"CountyName"}]},"MapReference":{"ReferenceId":"1130564012","Spot":0.6,"SideOfStreet":"left","StateId":"20248595","CountyId":"20345544","CityId":"20345545","DistrictId":"20345546"}}},{"Relevance":1.0,"Distance":59.8,"MatchLevel":"street","MatchQuality":{"Country":1.0,"State":1.0,"County":1.0,"City":1.0,"District":1.0,"Street":[1.0],"PostalCode":1.0},"Location":{"LocationId":"NT_rRrTuKyNt.EMYUQo97nLyD_l_774090951_R","LocationType":"point","DisplayPosition":{"Latitude":54.59532,"Longitude":-1.29243},"MapView":{"TopLeft":{"Latitude":54.59532,"Longitude":-1.29243},"BottomRight":{"Latitude":54.59523,"Longitude":-1.29233}},"Address":{"Label":"Station Road, Billingham, TS23 1, United Kingdom","Country":"GBR","State":"England","County":"Cleveland","City":"Billingham","District":"Billingham","Street":"Station Road","PostalCode":"TS23 1","AdditionalData":[{"value":"United Kingdom","key":"CountryName"},{"value":"England","key":"StateName"},{"value":"Cleveland","key":"CountyName"}]},"MapReference":{"ReferenceId":"774090951","Spot":1.0,"SideOfStreet":"right","StateId":"20248595","CountyId":"20345544","CityId":"20345545","DistrictId":"20345546"}}},{"Relevance":1.0,"Distance":61.4,"MatchLevel":"postalCode","MatchQuality":{"PostalCode":1.0},"MatchType":"interpolated","Location":{"LocationId":"NT_-jCaOLBs.FkqjaGYWi4JPC_l_1130564012_L_xQD","LocationType":"point","DisplayPosition":{"Latitude":54.59528,"Longitude":-1.29292},"MapView":{"TopLeft":{"Latitude":54.6042732,"Longitude":-1.308443},"BottomRight":{"Latitude":54.5862868,"Longitude":-1.277397}},"Address":{"Label":"TS23 1DY, Billingham, England, United Kingdom","Country":"GBR","State":"England","County":"Cleveland","City":"Billingham","PostalCode":"TS23 1DY","AdditionalData":[{"value":"United Kingdom","key":"CountryName"},{"value":"England","key":"StateName"},{"value":"Cleveland","key":"CountyName"}]},"MapReference":{"ReferenceId":"1130564012","Spot":0.6,"SideOfStreet":"neither","StateId":"20248595","CountyId":"20345544","CityId":"20345545"}}}]}]}}