{"Response":{"MetaInfo":{"Timestamp":"2020-03-28T10:46:35.241+0000","NextPageInformation":"2"},"View":[{"_type":"SearchResultsViewType","ViewId":0,"Result":[{"Relevance":1.0,"Distance":0.0,"Direction":0.0,"MatchLevel":"district","MatchQuality":{"Country":1.0,"State":1.0,"County":1.0,"City":1.0,"District":1.0,"PostalCode":1.0},"Location":{"LocationId":"NT_-TBvdTCAz9n.T4CkZb41PA","LocationType":"point","DisplayPosition":{"Latitude":54.5523116,"Longitude":18.5158963},"MapView":{"TopLeft":{"Latitude":54.56437,"Longitude":18.40361},"BottomRight":{"Latitude":54.45575,"Longitude":18.56736}},"Address":{"Label":"Gdynia, Woj. Pomorskie, Polska","Country":"POL","State":"Woj. Pomorskie","County":"Gdynia","City":"Gdynia","District":"Gdynia","PostalCode":"81-364","AdditionalData":[{"value":"Polska","key":"CountryName"},{"value":"Woj. Pomorskie","key":"StateName"},{"value":"Gdynia","key":"CountyName"}]},"MapReference":{"ReferenceId":"946490862","SideOfStreet":"neither","CountryId":"20624059","StateId":"20628728","CountyId":"20628732","CityId":"20628733","DistrictId":"20646651"}}},{"Relevance":1.0,"Distance":10.5,"MatchLevel":"houseNumber","MatchQuality":{"Country":1.0,"State":1.0,"County":1.0,"City":1.0,"District":1.0,"Street":[1.0],"HouseNumber":1.0,"PostalCode":1.0},"MatchType":"interpolated","Location":{"LocationId":"NT_OAY.4oqvFO8ewH1F3Dsh9B_l_594910400_R_yMD","LocationType":"point","DisplayPosition":{"Latitude":54.5524715,"Longitude":18.5157239},"MapView":{"TopLeft":{"Latitude":54.5535957,"Longitude":18.5137855},"BottomRight":{"Latitude":54.5513474,"Longitude":18.5176622}},"Address":{"Label":"ulica Stolarska 23, 81-173 Gdynia, Polska","Country":"POL","State":"Woj. Pomorskie","County":"Gdynia","City":"Gdynia","District":"Gdynia","Street":"ulica Stolarska","HouseNumber":"23","PostalCode":"81-173","AdditionalData":[{"value":"Polska","key":"CountryName"},{"value":"Woj. Pomorskie","key":"StateName"},{"value":"Gdynia","key":"CountyName"}]},"MapReference":{"ReferenceId":"594910400","Spot":0.51,"SideOfStreet":"right","CountryId":"20624059","StateId":"20628728","CountyId":"20628732","CityId":"20628733","DistrictId":"20646651"}}},{"Relevance":1.0,"Distance":11.5,"MatchLevel":"houseNumber","MatchQuality":{"Country":1.0,"State":1.0,"County":1.0,"City":1.0,"District":1.0,"Street":[1.0],"HouseNumber":1.0,"PostalCode":1.0},"MatchType":"interpolated","Location":{"LocationId":"NT_Gz8iE3xwOee3.n17KJ4mEB_yA","LocationType":"point","DisplayPosition":{"Latitude":54.55221,"Longitude":18.51521},"MapView":{"TopLeft":{"Latitude":54.5533342,"Longitude":18.5132717},"BottomRight":{"Latitude":54.5510858,"Longitude":18.5171483}},"Address":{"Label":"ulica Cechowa 2, 81-174 Gdynia, Polska","Country":"POL","State":"Woj. Pomorskie","County":"Gdynia","City":"Gdynia","District":"Gdynia","Street":"ulica Cechowa","HouseNumber":"2","PostalCode":"81-174","AdditionalData":[{"value":"Polska","key":"CountryName"},{"value":"Woj. Pomorskie","key":"StateName"},{"value":"Gdynia","key":"CountyName"}]},"MapReference":{"ReferenceId":"594902018","Spot":0.92,"SideOfStreet":"right","CountryId":"20624059","StateId":"20628728","CountyId":"20628732","CityId":"20628733","DistrictId":"20646651","AddressId":"221967776","RoadLinkId":"475440601"}}},{"Relevance":1.0,"Distance":22.9,"MatchLevel":"street","MatchQuality":{"Country":1.0,"State":1.0,"County":1.0,"City":1.0,"District":1.0,"Street":[1.0],"PostalCode":1.0},"Location":{"LocationId":"NT_OAY.4oqvFO8ewH1F3Dsh9B_l_880335861_L","LocationType":"point","DisplayPosition":{"Latitude":54.5525,"Longitude":18.51604},"MapView":{"TopLeft":{"Latitude":54.5525,"Longitude":18.51604},"BottomRight":{"Latitude":54.55212,"Longitude":18.51714}},"Address":{"Label":"ulica Stolarska, 81-173 Gdynia, Polska","Country":"POL","State":"Woj. Pomorskie","County":"Gdynia","City":"Gdynia","District":"Gdynia","Street":"ulica Stolarska","PostalCode":"81-173","AdditionalData":[{"value":"Polska","key":"CountryName"},{"value":"Woj. Pomorskie","key":"StateName"},{"value":"Gdynia","key":"CountyName"}]},"MapReference":{"ReferenceId":"880335861","Spot":1.0,"SideOfStreet":"left","CountryId":"20624059","StateId":"20628728","CountyId":"20628732","CityId":"20628733","DistrictId":"20646651"}}},{"Relevance":1.0,"Distance":31.9,"MatchLevel":"street","MatchQuality":{"Country":1.0,"State":1.0,"County":1.0,"City":1.0,"District":1.0,"PostalCode":1.0},"Location":{"LocationId":"NT_dzGeR4ABDmIcIN--BHlDMC_l_893918334_R","LocationType":"point","DisplayPosition":{"Latitude":54.55239,"Longitude":18.51542},"MapView":{"TopLeft":{"Latitude":54.55245,"Longitude":18.51539},"BottomRight":{"Latitude":54.55239,"Longitude":18.51542}},"Address":{"Label":"81-173 Gdynia, Polska","Country":"POL","State":"Woj. Pomorskie","County":"Gdynia","City":"Gdynia","District":"Gdynia","PostalCode":"81-173","AdditionalData":[{"value":"Polska","key":"CountryName"},{"value":"Woj. Pomorskie","key":"StateName"},{"value":"Gdynia","key":"CountyName"}]},"MapReference":{"ReferenceId":"893918334","Spot":0.0,"SideOfStreet":"right","CountryId":"20624059","StateId":"20628728","CountyId":"20628732","CityId":"20628733","DistrictId":"20646651"}}},{"Relevance":1.0,"Distance":31.9,"MatchLevel":"street","MatchQuality":{"Country":1.0,"State":1.0,"County":1.0,"City":1.0,"District":1.0,"PostalCode":1.0},"Location":{"LocationId":"NT_dzGeR4ABDmIcIN--BHlDMC_l_893918333_R","LocationType":"point","DisplayPosition":{"Latitude":54.55239,"Longitude":18.51542},"MapView":{"TopLeft":{"Latitude":54.55239,"Longitude":18.51539},"BottomRight":{"Latitude":54.55233,"Longitude":18.51542}},"Address":{"Label":"81-173 Gdynia, Polska","Country":"POL","State":"Woj. Pomorskie","County":"Gdynia","City":"Gdynia","District":"Gdynia","PostalCode":"81-173","AdditionalData":[{"value":"Polska","key":"CountryName"},{"value":"Woj. Pomorskie","key":"StateName"},{"value":"Gdynia","key":"CountyName"}]},"MapReference":{"ReferenceId":"893918333","Spot":1.0,"SideOfStreet":"right","CountryId":"20624059","StateId":"20628728","CountyId":"20628732","CityId":"20628733","DistrictId":"20646651"}}},{"Relevance":1.0,"Distance":32.7,"MatchLevel":"street","MatchQuality":{"Country":1.0,"State":1.0,"County":1.0,"City":1.0,"District":1.0,"PostalCode":1.0},"Location":{"LocationId":"NT_dzGeR4ABDmIcIN--BHlDMC_l_893918336_R","LocationType":"point","DisplayPosition":{"Latitude":54.55233,"Longitude":18.51539},"MapView":{"TopLeft":{"Latitude":54.55233,"Longitude":18.51521},"BottomRight":{"Latitude":54.55227,"Longitude":18.51539}},"Address":{"Label":"81-173 Gdynia, Polska","Country":"POL","State":"Woj. Pomorskie","County":"Gdynia","City":"Gdynia","District":"Gdynia","PostalCode":"81-173","AdditionalData":[{"value":"Polska","key":"CountryName"},{"value":"Woj. Pomorskie","key":"StateName"},{"value":"Gdynia","key":"CountyName"}]},"MapReference":{"ReferenceId":"893918336","Spot":1.0,"SideOfStreet":"right","CountryId":"20624059","StateId":"20628728","CountyId":"20628732","CityId":"20628733","DistrictId":"20646651"}}},{"Relevance":1.0,"Distance":36.1,"MatchLevel":"street","MatchQuality":{"Country":1.0,"State":1.0,"County":1.0,"City":1.0,"District":1.0,"PostalCode":1.0},"Location":{"LocationId":"NT_dzGeR4ABDmIcIN--BHlDMC_l_893918335_L","LocationType":"point","DisplayPosition":{"Latitude":54.55245,"Longitude":18.51539},"MapView":{"TopLeft":{"Latitude":54.55251,"Longitude":18.51503},"BottomRight":{"Latitude":54.55245,"Longitude":18.51539}},"Address":{"Label":"81-173 Gdynia, Polska","Country":"POL","State":"Woj. Pomorskie","County":"Gdynia","City":"Gdynia","District":"Gdynia","PostalCode":"81-173","AdditionalData":[{"value":"Polska","key":"CountryName"},{"value":"Woj. Pomorskie","key":"StateName"},{"value":"Gdynia","key":"CountyName"}]},"MapReference":{"ReferenceId":"893918335","Spot":1.0,"SideOfStreet":"left","CountryId":"20624059","StateId":"20628728","CountyId":"20628732","CityId":"20628733","DistrictId":"20646651"}}},{"Relevance":1.0,"Distance":44.5,"MatchLevel":"street","MatchQuality":{"Country":1.0,"State":1.0,"County":1.0,"City":1.0,"District":1.0,"PostalCode":1.0},"Location":{"LocationId":"NT_dzGeR4ABDmIcIN--BHlDMC_l_893918337_R","LocationType":"point","DisplayPosition":{"Latitude":54.55227,"Longitude":18.51521},"MapView":{"TopLeft":{"Latitude":54.55245,"Longitude":18.515},"BottomRight":{"Latitude":54.55227,"Longitude":18.51521}},"Address":{"Label":"81-173 Gdynia, Polska","Country":"POL","State":"Woj. Pomorskie","County":"Gdynia","City":"Gdynia","District":"Gdynia","PostalCode":"81-173","AdditionalData":[{"value":"Polska","key":"CountryName"},{"value":"Woj. Pomorskie","key":"StateName"},{"value":"Gdynia","key":"CountyName"}]},"MapReference":{"ReferenceId":"893918337","Spot":0.0,"SideOfStreet":"right","CountryId":"20624059","StateId":"20628728","CountyId":"20628732","CityId":"20628733","DistrictId":"20646651"}}},{"Relevance":1.0,"Distance":47.6,"MatchLevel":"houseNumber","MatchQuality":{"Country":1.0,"State":1.0,"County":1.0,"City":1.0,"District":1.0,"Street":[1.0],"HouseNumber":1.0,"PostalCode":1.0},"MatchType":"interpolated","Location":{"LocationId":"NT_TcUoMXT82UIfBbyKtocRbC_xgE","LocationType":"point","DisplayPosition":{"Latitude":54.55269,"Longitude":18.51624},"MapView":{"TopLeft":{"Latitude":54.5538142,"Longitude":18.5143017},"BottomRight":{"Latitude":54.5515658,"Longitude":18.5181783}},"Address":{"Label":"ulica Białowieska 1H, 81-179 Gdynia, Polska","Country":"POL","State":"Woj. Pomorskie","County":"Gdynia","City":"Gdynia","District":"Gdynia","Street":"ulica Białowieska","HouseNumber":"1H","PostalCode":"81-179","AdditionalData":[{"value":"Polska","key":"CountryName"},{"value":"Woj. Pomorskie","key":"StateName"},{"value":"Gdynia","key":"CountyName"}]},"MapReference":{"ReferenceId":"880338330","Spot":0.32,"SideOfStreet":"right","CountryId":"20624059","StateId":"20628728","CountyId":"20628732","CityId":"20628733","DistrictId":"20646651","AddressId":"731658545","RoadLinkId":"475438220"}}}]}]}}