{"Response":{"MetaInfo":{"Timestamp":"2020-03-28T10:40:16.684+0000","NextPageInformation":"2"},"View":[{"_type":"SearchResultsViewType","ViewId":0,"Result":[{"Relevance":1.0,"Distance":0.0,"Direction":0.0,"MatchLevel":"district","MatchQuality":{"Country":1.0,"State":1.0,"County":1.0,"City":1.0,"District":1.0,"PostalCode":1.0},"Location":{"LocationId":"NT_zHzp8CQTEvAR6HUigM5DQD","LocationType":"point","DisplayPosition":{"Latitude":54.5505144,"Longitude":-6.0035078},"MapView":{"TopLeft":{"Latitude":54.57178,"Longitude":-6.05563},"BottomRight":{"Latitude":54.53451,"Longitude":-5.97636}},"Address":{"Label":"Dunmurry, Belfast, Northern Ireland, United Kingdom","Country":"GBR","State":"Northern Ireland","County":"County Antrim","City":"Belfast","District":"Dunmurry","PostalCode":"BT17 9","AdditionalData":[{"value":"United Kingdom","key":"CountryName"},{"value":"Northern Ireland","key":"StateName"},{"value":"County Antrim","key":"CountyName"}]},"MapReference":{"ReferenceId":"1219020987","SideOfStreet":"neither","StateId":"20403688","CountyId":"20411119","CityId":"20412709","DistrictId":"20419051"}}},{"Relevance":1.0,"Distance":5.1,"MatchLevel":"houseNumber","MatchQuality":{"Country":1.0,"State":1.0,"County":1.0,"City":1.0,"District":1.0,"Street":[1.0],"HouseNumber":1.0,"PostalCode":1.0},"MatchType":"interpolated","Location":{"LocationId":"NT_Pup6SZVyiMaPH4Qz9BMxnD_xYjMhB","LocationType":"point","DisplayPosition":{"Latitude":54.55056,"Longitude":-6.0035},"MapView":{"TopLeft":{"Latitude":54.5516842,"Longitude":-6.0054382},"BottomRight":{"Latitude":54.5494358,"Longitude":-6.0015618}},"Address":{"Label":"162a Kingsway, Belfast, BT17 9, United Kingdom","Country":"GBR","State":"Northern Ireland","County":"County Antrim","City":"Belfast","District":"Dunmurry","Street":"Kingsway","HouseNumber":"162a","PostalCode":"BT17 9","AdditionalData":[{"value":"United Kingdom","key":"CountryName"},{"value":"Northern Ireland","key":"StateName"},{"value":"County Antrim","key":"CountyName"}]},"MapReference":{"ReferenceId":"555950625","Spot":0.33,"SideOfStreet":"left","StateId":"20403688","CountyId":"20411119","CityId":"20412709","DistrictId":"20419051","AddressId":"345509861","RoadLinkId":"84888871"}}},{"Relevance":1.0,"Distance":31.4,"MatchLevel":"landmark","MatchQuality":{"Country":1.0,"State":1.0,"County":1.0,"City":1.0,"District":1.0,"Street":[1.0],"PostalCode":1.0,"Name":1.0},"Location":{"LocationId":"NT_alJk8Y-Ps4fMrvBCoG7W7A_p_0wclCGL6IAi-R5ZyhoxM3C","LocationType":"park","Name":"Jubilee Park","DisplayPosition":{"Latitude":54.54846,"Longitude":-5.99759},"MapView":{"TopLeft":{"Latitude":54.55086,"Longitude":-6.00529},"BottomRight":{"Latitude":54.54845,"Longitude":-5.99647}},"Address":{"Label":"Glenburn Road, Belfast, BT17 9, United Kingdom","Country":"GBR","State":"Northern Ireland","County":"County Antrim","City":"Belfast","District":"Dunmurry","Street":"Glenburn Road","PostalCode":"BT17 9","AdditionalData":[{"value":"United Kingdom","key":"CountryName"},{"value":"Northern Ireland","key":"StateName"},{"value":"County Antrim","key":"CountyName"}]},"MapReference":{"StateId":"20403688","CountyId":"20411119","CityId":"20412709","DistrictId":"20419051","PlaceId":"83624230"}}},{"Relevance":1.0,"Distance":49.6,"MatchLevel":"houseNumber","MatchQuality":{"Country":1.0,"State":1.0,"County":1.0,"City":1.0,"District":1.0,"Street":[1.0],"HouseNumber":1.0,"PostalCode":1.0},"MatchType":"interpolated","Location":{"LocationId":"NT_Pup6SZVyiMaPH4Qz9BMxnD_xgjM","LocationType":"point","DisplayPosition":{"Latitude":54.55113,"Longitude":-6.00367},"MapView":{"TopLeft":{"Latitude":54.5522542,"Longitude":-6.0056083},"BottomRight":{"Latitude":54.5500058,"Longitude":-6.0017317}},"Address":{"Label":"182 Kingsway, Belfast, BT17 9, United Kingdom","Country":"GBR","State":"Northern Ireland","County":"County Antrim","City":"Belfast","District":"Dunmurry","Street":"Kingsway","HouseNumber":"182","PostalCode":"BT17 9","AdditionalData":[{"value":"United Kingdom","key":"CountryName"},{"value":"Northern Ireland","key":"StateName"},{"value":"County Antrim","key":"CountyName"}]},"MapReference":{"ReferenceId":"555950696","Spot":0.32,"SideOfStreet":"right","StateId":"20403688","CountyId":"20411119","CityId":"20412709","DistrictId":"20419051","AddressId":"342285575","RoadLinkId":"84882945"}}},{"Relevance":1.0,"Distance":54.6,"MatchLevel":"postalCode","MatchQuality":{"PostalCode":1.0},"MatchType":"interpolated","Location":{"LocationId":"NT_Pup6SZVyiMaPH4Qz9BMxnD_xgjM","LocationType":"point","DisplayPosition":{"Latitude":54.551,"Longitude":-6.00363},"MapView":{"TopLeft":{"Latitude":54.5599932,"Longitude":-6.0191361},"BottomRight":{"Latitude":54.5420068,"Longitude":-5.9881239}},"Address":{"Label":"BT17 9AD, Belfast, Northern Ireland, United Kingdom","Country":"GBR","State":"Northern Ireland","County":"County Antrim","City":"Belfast","PostalCode":"BT17 9AD","AdditionalData":[{"value":"United Kingdom","key":"CountryName"},{"value":"Northern Ireland","key":"StateName"},{"value":"County Antrim","key":"CountyName"}]},"MapReference":{"ReferenceId":"555950696","Spot":0.32,"SideOfStreet":"neither","StateId":"20403688","CountyId":"20411119","CityId":"20412709"}}},{"Relevance":1.0,"Distance":61.9,"MatchLevel":"houseNumber","MatchQuality":{"Country":1.0,"State":1.0,"County":1.0,"City":1.0,"District":1.0,"Street":[1.0],"HouseNumber":1.0,"PostalCode":1.0},"MatchType":"interpolated","Location":{"LocationId":"NT_zIe6puLQs.dl4wOvKBaJbC_xID","LocationType":"point","DisplayPosition":{"Latitude":54.54985,"Longitude":-6.00288},"MapView":{"TopLeft":{"Latitude":54.5509742,"Longitude":-6.0048182},"BottomRight":{"Latitude":54.5487258,"Longitude":-6.0009418}},"Address":{"Label":"12 Malone Gardens, Belfast, BT17 9RX, United Kingdom","Country":"GBR","State":"Northern Ireland","County":"County Antrim","City":"Belfast","District":"Dunmurry","Street":"Malone Gardens","HouseNumber":"12","PostalCode":"BT17 9RX","AdditionalData":[{"value":"United Kingdom","key":"CountryName"},{"value":"Northern Ireland","key":"StateName"},{"value":"County Antrim","key":"CountyName"}]},"MapReference":{"ReferenceId":"555951436","Spot":0.0,"SideOfStreet":"left","StateId":"20403688","CountyId":"20411119","CityId":"20412709","DistrictId":"20419051","AddressId":"342067190","RoadLinkId":"84916934"}}},{"Relevance":1.0,"Distance":66.2,"MatchLevel":"houseNumber","MatchQuality":{"Country":1.0,"State":1.0,"County":1.0,"City":1.0,"District":1.0,"Street":[1.0],"HouseNumber":1.0,"PostalCode":1.0},"MatchType":"interpolated","Location":{"LocationId":"NT_iIge7bpiCVLaUJMBY41KUC_3A","LocationType":"point","DisplayPosition":{"Latitude":54.55084,"Longitude":-6.00229},"MapView":{"TopLeft":{"Latitude":54.5519642,"Longitude":-6.0042283},"BottomRight":{"Latitude":54.5497158,"Longitude":-6.0003517}},"Address":{"Label":"7 Church Avenue, Belfast, BT17 9RS, United Kingdom","Country":"GBR","State":"Northern Ireland","County":"County Antrim","City":"Belfast","District":"Dunmurry","Street":"Church Avenue","HouseNumber":"7","PostalCode":"BT17 9RS","AdditionalData":[{"value":"United Kingdom","key":"CountryName"},{"value":"Northern Ireland","key":"StateName"},{"value":"County Antrim","key":"CountyName"}]},"MapReference":{"ReferenceId":"555951435","Spot":0.49,"SideOfStreet":"left","StateId":"20403688","CountyId":"20411119","CityId":"20412709","DistrictId":"20419051","AddressId":"713708554","RoadLinkId":"84885424"}}},{"Relevance":1.0,"Distance":66.9,"MatchLevel":"houseNumber","MatchQuality":{"Country":1.0,"State":1.0,"County":1.0,"City":1.0,"District":1.0,"Street":[1.0],"HouseNumber":1.0,"PostalCode":1.0},"MatchType":"interpolated","Location":{"LocationId":"NT_Pup6SZVyiMaPH4Qz9BMxnD_xcTN","LocationType":"point","DisplayPosition":{"Latitude":54.551,"Longitude":-6.00412},"MapView":{"TopLeft":{"Latitude":54.5521242,"Longitude":-6.0060583},"BottomRight":{"Latitude":54.5498758,"Longitude":-6.0021817}},"Address":{"Label":"175 Kingsway, Belfast, BT17 9, United Kingdom","Country":"GBR","State":"Northern Ireland","County":"County Antrim","City":"Belfast","District":"Dunmurry","Street":"Kingsway","HouseNumber":"175","PostalCode":"BT17 9","AdditionalData":[{"value":"United Kingdom","key":"CountryName"},{"value":"Northern Ireland","key":"StateName"},{"value":"County Antrim","key":"CountyName"}]},"MapReference":{"ReferenceId":"555950415","Spot":0.39,"SideOfStreet":"left","StateId":"20403688","CountyId":"20411119","CityId":"20412709","DistrictId":"20419051","AddressId":"341760958","RoadLinkId":"84902739"}}},{"Relevance":1.0,"Distance":70.6,"MatchLevel":"houseNumber","MatchQuality":{"Country":1.0,"State":1.0,"County":1.0,"City":1.0,"District":1.0,"Street":[1.0],"HouseNumber":1.0,"PostalCode":1.0},"MatchType":"interpolated","Location":{"LocationId":"NT_Pup6SZVyiMaPH4Qz9BMxnD_xkDN","LocationType":"point","DisplayPosition":{"Latitude":54.55083,"Longitude":-6.00469},"MapView":{"TopLeft":{"Latitude":54.5519542,"Longitude":-6.0066283},"BottomRight":{"Latitude":54.5497058,"Longitude":-6.0027517}},"Address":{"Label":"194 Kingsway, Belfast, BT17 9, United Kingdom","Country":"GBR","State":"Northern Ireland","County":"County Antrim","City":"Belfast","District":"Dunmurry","Street":"Kingsway","HouseNumber":"194","PostalCode":"BT17 9","AdditionalData":[{"value":"United Kingdom","key":"CountryName"},{"value":"Northern Ireland","key":"StateName"},{"value":"County Antrim","key":"CountyName"}]},"MapReference":{"ReferenceId":"555950416","Spot":0.42,"SideOfStreet":"right","StateId":"20403688","CountyId":"20411119","CityId":"20412709","DistrictId":"20419051","AddressId":"341719704","RoadLinkId":"84936637"}}},{"Relevance":1.0,"Distance":94.0,"MatchLevel":"houseNumber","MatchQuality":{"Country":1.0,"State":1.0,"County":1.0,"City":1.0,"District":1.0,"Street":[1.0],"HouseNumber":1.0,"PostalCode":1.0},"MatchType":"interpolated","Location":{"LocationId":"NT_OC5l88mo6pUaWR5NVhl0LA_xED","LocationType":"point","DisplayPosition":{"Latitude":54.55124,"Longitude":-6.00425},"MapView":{"TopLeft":{"Latitude":54.5523642,"Longitude":-6.0061883},"BottomRight":{"Latitude":54.5501158,"Longitude":-6.0023117}},"Address":{"Label":"11 Auburn Street, Belfast, BT17 9, United Kingdom","Country":"GBR","State":"Northern Ireland","County":"County Antrim","City":"Belfast","District":"Dunmurry","Street":"Auburn Street","HouseNumber":"11","PostalCode":"BT17 9","AdditionalData":[{"value":"United Kingdom","key":"CountryName"},{"value":"Northern Ireland","key":"StateName"},{"value":"County Antrim","key":"CountyName"}]},"MapReference":{"ReferenceId":"555950628","Spot":0.47,"SideOfStreet":"right","StateId":"20403688","CountyId":"20411119","CityId":"20412709","DistrictId":"20419051","AddressId":"341877494","RoadLinkId":"84896742"}}}]}]}}