{"Response":{"MetaInfo":{"Timestamp":"2020-03-28T10:07:45.231+0000","NextPageInformation":"2"},"View":[{"_type":"SearchResultsViewType","ViewId":0,"Result":[{"Relevance":1.0,"Distance":0.0,"Direction":0.0,"MatchLevel":"district","MatchQuality":{"Country":1.0,"State":1.0,"County":1.0,"City":1.0,"District":1.0,"PostalCode":1.0},"Location":{"LocationId":"NT_CU1o7GGHX9a0jVA4gN5VRA","LocationType":"point","DisplayPosition":{"Latitude":54.5172551,"Longitude":-5.8875208},"MapView":{"TopLeft":{"Latitude":54.53193,"Longitude":-5.90227},"BottomRight":{"Latitude":54.50168,"Longitude":-5.87579}},"Address":{"Label":"Carryduff, Belfast, Northern Ireland, United Kingdom","Country":"GBR","State":"Northern Ireland","County":"County Antrim","City":"Belfast","District":"Carryduff","PostalCode":"BT8 8","AdditionalData":[{"value":"United Kingdom","key":"CountryName"},{"value":"Northern Ireland","key":"StateName"},{"value":"County Antrim","key":"CountyName"}]},"MapReference":{"ReferenceId":"564872018","SideOfStreet":"neither","StateId":"20403688","CountyId":"20411119","CityId":"20412709","DistrictId":"20419047"}}},{"Relevance":1.0,"Distance":10.6,"MatchLevel":"houseNumber","MatchQuality":{"Country":1.0,"State":1.0,"County":1.0,"City":1.0,"District":1.0,"Street":[1.0],"HouseNumber":1.0,"PostalCode":1.0},"MatchType":"interpolated","Location":{"LocationId":"NT_FwDkog4Hva-rE3EUMhOEDC_2A","LocationType":"point","DisplayPosition":{"Latitude":54.51746,"Longitude":-5.88757},"MapView":{"TopLeft":{"Latitude":54.5185842,"Longitude":-5.8895067},"BottomRight":{"Latitude":54.5163358,"Longitude":-5.8856333}},"Address":{"Label":"6 The Crescent, Belfast, BT8 8DW, United Kingdom","Country":"GBR","State":"Northern Ireland","County":"County Antrim","City":"Belfast","District":"Carryduff","Street":"The Crescent","HouseNumber":"6","PostalCode":"BT8 8DW","AdditionalData":[{"value":"United Kingdom","key":"CountryName"},{"value":"Northern Ireland","key":"StateName"},{"value":"County Antrim","key":"CountyName"}]},"MapReference":{"ReferenceId":"564872036","Spot":0.94,"SideOfStreet":"left","StateId":"20403688","CountyId":"20411119","CityId":"20412709","DistrictId":"20419047","AddressId":"342036919","RoadLinkId":"84915721"}}},{"Relevance":1.0,"Distance":26.8,"MatchLevel":"street","MatchQuality":{"Country":1.0,"State":1.0,"County":1.0,"City":1.0,"District":1.0,"Street":[1.0],"PostalCode":1.0},"Location":{"LocationId":"NT_FwDkog4Hva-rE3EUMhOEDC_l_564872037_L","LocationType":"point","DisplayPosition":{"Latitude":54.51747,"Longitude":-5.88771},"MapView":{"TopLeft":{"Latitude":54.51752,"Longitude":-5.88785},"BottomRight":{"Latitude":54.51747,"Longitude":-5.88771}},"Address":{"Label":"The Crescent, Belfast, BT8 8, United Kingdom","Country":"GBR","State":"Northern Ireland","County":"County Antrim","City":"Belfast","District":"Carryduff","Street":"The Crescent","PostalCode":"BT8 8","AdditionalData":[{"value":"United Kingdom","key":"CountryName"},{"value":"Northern Ireland","key":"StateName"},{"value":"County Antrim","key":"CountyName"}]},"MapReference":{"ReferenceId":"564872037","Spot":0.0,"SideOfStreet":"left","StateId":"20403688","CountyId":"20411119","CityId":"20412709","DistrictId":"20419047"}}},{"Relevance":1.0,"Distance":30.4,"MatchLevel":"street","MatchQuality":{"Country":1.0,"State":1.0,"County":1.0,"City":1.0,"District":1.0,"Street":[1.0],"PostalCode":1.0},"Location":{"LocationId":"NT_25AQWvBXwy-5pbS8WrZuZB_l_986607978_R","LocationType":"point","DisplayPosition":{"Latitude":54.51723,"Longitude":-5.88799},"MapView":{"TopLeft":{"Latitude":54.51729,"Longitude":-5.88835},"BottomRight":{"Latitude":54.51723,"Longitude":-5.88799}},"Address":{"Label":"Annavale Avenue, Belfast, BT8 8, United Kingdom","Country":"GBR","State":"Northern Ireland","County":"County Antrim","City":"Belfast","District":"Carryduff","Street":"Annavale Avenue","PostalCode":"BT8 8","AdditionalData":[{"value":"United Kingdom","key":"CountryName"},{"value":"Northern Ireland","key":"StateName"},{"value":"County Antrim","key":"CountyName"}]},"MapReference":{"ReferenceId":"986607978","Spot":0.0,"SideOfStreet":"right","StateId":"20403688","CountyId":"20411119","CityId":"20412709","DistrictId":"20419047"}}},{"Relevance":1.0,"Distance":31.1,"MatchLevel":"street","MatchQuality":{"Country":1.0,"State":1.0,"County":1.0,"City":1.0,"District":1.0,"Street":[1.0],"PostalCode":1.0},"Location":{"LocationId":"NT_iVo8yDHGzhDqsKCmwfQMaC_l_564872034_R","LocationType":"point","DisplayPosition":{"Latitude":54.5174341,"Longitude":-5.8878915},"MapView":{"TopLeft":{"Latitude":54.51752,"Longitude":-5.88799},"BottomRight":{"Latitude":54.51723,"Longitude":-5.88785}},"Address":{"Label":"Ballynahinch Road, Belfast, BT8 8, United Kingdom","Country":"GBR","State":"Northern Ireland","County":"County Antrim","City":"Belfast","District":"Carryduff","Street":"Ballynahinch Road","PostalCode":"BT8 8","AdditionalData":[{"value":"United Kingdom","key":"CountryName"},{"value":"Northern Ireland","key":"StateName"},{"value":"County Antrim","key":"CountyName"}]},"MapReference":{"ReferenceId":"564872034","Spot":0.7,"SideOfStreet":"right","StateId":"20403688","CountyId":"20411119","CityId":"20412709","DistrictId":"20419047"}}},{"Relevance":1.0,"Distance":32.0,"MatchLevel":"houseNumber","MatchQuality":{"Country":1.0,"State":1.0,"County":1.0,"City":1.0,"District":1.0,"Street":[1.0],"HouseNumber":1.0,"PostalCode":1.0},"MatchType":"interpolated","Location":{"LocationId":"NT_.KxX4mRuaG-.1EwUcJLtRC_4A","LocationType":"point","DisplayPosition":{"Latitude":54.51704,"Longitude":-5.88785},"MapView":{"TopLeft":{"Latitude":54.5181642,"Longitude":-5.8897867},"BottomRight":{"Latitude":54.5159158,"Longitude":-5.8859133}},"Address":{"Label":"8 Ballynahinch Road, Belfast, BT8 8DN, United Kingdom","Country":"GBR","State":"Northern Ireland","County":"County Antrim","City":"Belfast","District":"Carryduff","Street":"Ballynahinch Road","HouseNumber":"8","PostalCode":"BT8 8DN","AdditionalData":[{"value":"United Kingdom","key":"CountryName"},{"value":"Northern Ireland","key":"StateName"},{"value":"County Antrim","key":"CountyName"}]},"MapReference":{"ReferenceId":"564872038","Spot":0.0,"SideOfStreet":"right","StateId":"20403688","CountyId":"20411119","CityId":"20412709","DistrictId":"20419047","AddressId":"342347207","RoadLinkId":"84933267"}}},{"Relevance":1.0,"Distance":56.3,"MatchLevel":"houseNumber","MatchQuality":{"Country":1.0,"State":1.0,"County":1.0,"City":1.0,"District":1.0,"Street":[1.0],"HouseNumber":1.0,"PostalCode":1.0},"MatchType":"interpolated","Location":{"LocationId":"NT_.KxX4mRuaG-.1EwUcJLtRC_2A","LocationType":"point","DisplayPosition":{"Latitude":54.5178,"Longitude":-5.88773},"MapView":{"TopLeft":{"Latitude":54.5189242,"Longitude":-5.8896667},"BottomRight":{"Latitude":54.5166758,"Longitude":-5.8857933}},"Address":{"Label":"6 Ballynahinch Road, Belfast, BT8 8DN, United Kingdom","Country":"GBR","State":"Northern Ireland","County":"County Antrim","City":"Belfast","District":"Carryduff","Street":"Ballynahinch Road","HouseNumber":"6","PostalCode":"BT8 8DN","AdditionalData":[{"value":"United Kingdom","key":"CountryName"},{"value":"Northern Ireland","key":"StateName"},{"value":"County Antrim","key":"CountyName"}]},"MapReference":{"ReferenceId":"564872035","Spot":0.65,"SideOfStreet":"right","StateId":"20403688","CountyId":"20411119","CityId":"20412709","DistrictId":"20419047","AddressId":"713703556","RoadLinkId":"84914218"}}},{"Relevance":1.0,"Distance":56.4,"MatchLevel":"houseNumber","MatchQuality":{"Country":1.0,"State":1.0,"County":1.0,"City":1.0,"District":1.0,"Street":[1.0],"HouseNumber":1.0,"PostalCode":1.0},"MatchType":"interpolated","Location":{"LocationId":"NT_oPaUiMms2qyUAfg8bBrwEB_0A","LocationType":"point","DisplayPosition":{"Latitude":54.51763,"Longitude":-5.88811},"MapView":{"TopLeft":{"Latitude":54.5187542,"Longitude":-5.8900467},"BottomRight":{"Latitude":54.5165058,"Longitude":-5.8861733}},"Address":{"Label":"4 Queensway, Belfast, BT8 8, United Kingdom","Country":"GBR","State":"Northern Ireland","County":"County Antrim","City":"Belfast","District":"Carryduff","Street":"Queensway","HouseNumber":"4","PostalCode":"BT8 8","AdditionalData":[{"value":"United Kingdom","key":"CountryName"},{"value":"Northern Ireland","key":"StateName"},{"value":"County Antrim","key":"CountyName"}]},"MapReference":{"ReferenceId":"986607979","Spot":0.49,"SideOfStreet":"left","StateId":"20403688","CountyId":"20411119","CityId":"20412709","DistrictId":"20419047","AddressId":"398952608","RoadLinkId":"317213696"}}},{"Relevance":1.0,"Distance":67.6,"MatchLevel":"houseNumber","MatchQuality":{"Country":1.0,"State":1.0,"County":1.0,"City":1.0,"District":1.0,"Street":[1.0],"HouseNumber":1.0,"PostalCode":1.0},"MatchType":"interpolated","Location":{"LocationId":"NT_.KxX4mRuaG-.1EwUcJLtRC_xAD","LocationType":"point","DisplayPosition":{"Latitude":54.51674,"Longitude":-5.88823},"MapView":{"TopLeft":{"Latitude":54.5178642,"Longitude":-5.8901666},"BottomRight":{"Latitude":54.5156158,"Longitude":-5.8862934}},"Address":{"Label":"10 Ballynahinch Road, Belfast, BT8 8DN, United Kingdom","Country":"GBR","State":"Northern Ireland","County":"County Antrim","City":"Belfast","District":"Carryduff","Street":"Ballynahinch Road","HouseNumber":"10","PostalCode":"BT8 8DN","AdditionalData":[{"value":"United Kingdom","key":"CountryName"},{"value":"Northern Ireland","key":"StateName"},{"value":"County Antrim","key":"CountyName"}]},"MapReference":{"ReferenceId":"808116858","Spot":0.61,"SideOfStreet":"right","StateId":"20403688","CountyId":"20411119","CityId":"20412709","DistrictId":"20419047","AddressId":"341808650","RoadLinkId":"195455821"}}},{"Relevance":1.0,"Distance":70.8,"MatchLevel":"houseNumber","MatchQuality":{"Country":1.0,"State":1.0,"County":1.0,"City":1.0,"District":1.0,"Street":[1.0],"HouseNumber":1.0,"PostalCode":1.0},"MatchType":"interpolated","Location":{"LocationId":"NT_.KxX4mRuaG-.1EwUcJLtRC_0A","LocationType":"point","DisplayPosition":{"Latitude":54.51798,"Longitude":-5.88764},"MapView":{"TopLeft":{"Latitude":54.5191042,"Longitude":-5.8895767},"BottomRight":{"Latitude":54.5168558,"Longitude":-5.8857033}},"Address":{"Label":"4 Ballynahinch Road, Belfast, BT8 8DN, United Kingdom","Country":"GBR","State":"Northern Ireland","County":"County Antrim","City":"Belfast","District":"Carryduff","Street":"Ballynahinch Road","HouseNumber":"4","PostalCode":"BT8 8DN","AdditionalData":[{"value":"United Kingdom","key":"CountryName"},{"value":"Northern Ireland","key":"StateName"},{"value":"County Antrim","key":"CountyName"}]},"MapReference":{"ReferenceId":"564872095","Spot":0.09,"SideOfStreet":"right","StateId":"20403688","CountyId":"20411119","CityId":"20412709","DistrictId":"20419047","AddressId":"342090701","RoadLinkId":"84850134"}}}]}]}}