{"Response":{"MetaInfo":{"Timestamp":"2020-03-28T11:17:22.266+0000","NextPageInformation":"2"},"View":[{"_type":"SearchResultsViewType","ViewId":0,"Result":[{"Relevance":1.0,"Distance":-8.4,"MatchLevel":"landmark","MatchQuality":{"Country":1.0,"State":1.0,"County":1.0,"City":1.0,"District":1.0,"PostalCode":1.0,"Name":1.0},"Location":{"LocationId":"NT_6P0W.EOrWYwsDWX7jOS.2B","LocationType":"hospital","Name":"Lagan Valley Hospital","DisplayPosition":{"Latitude":54.5046,"Longitude":-6.04487},"MapView":{"TopLeft":{"Latitude":54.5068,"Longitude":-6.04856},"BottomRight":{"Latitude":54.5024,"Longitude":-6.04169}},"Address":{"Label":"Lisburn, BT28 1, United Kingdom","Country":"GBR","State":"Northern Ireland","County":"County Antrim","City":"Lisburn","District":"Lisburn","PostalCode":"BT28 1","AdditionalData":[{"value":"United Kingdom","key":"CountryName"},{"value":"Northern Ireland","key":"StateName"},{"value":"County Antrim","key":"CountyName"}]},"MapReference":{"StateId":"20403688","CountyId":"20411119","CityId":"20419088","DistrictId":"20419097","PlaceId":"545590968"}}},{"Relevance":1.0,"Distance":0.0,"Direction":0.0,"MatchLevel":"district","MatchQuality":{"Country":1.0,"State":1.0,"County":1.0,"City":1.0,"District":1.0,"PostalCode":1.0},"Location":{"LocationId":"NT_FRiESIhbfVR095c6YAUeZC","LocationType":"point","DisplayPosition":{"Latitude":54.5047144,"Longitude":-6.0477059},"MapView":{"TopLeft":{"Latitude":54.5376,"Longitude":-6.10776},"BottomRight":{"Latitude":54.49449,"Longitude":-6.01499}},"Address":{"Label":"Lisburn, Northern Ireland, United Kingdom","Country":"GBR","State":"Northern Ireland","County":"County Antrim","City":"Lisburn","District":"Lisburn","PostalCode":"BT28 1","AdditionalData":[{"value":"United Kingdom","key":"CountryName"},{"value":"Northern Ireland","key":"StateName"},{"value":"County Antrim","key":"CountyName"}]},"MapReference":{"ReferenceId":"1218805310","SideOfStreet":"neither","StateId":"20403688","CountyId":"20411119","CityId":"20419088","DistrictId":"20419097"}}},{"Relevance":1.0,"Distance":13.4,"MatchLevel":"houseNumber","MatchQuality":{"Country":1.0,"State":1.0,"County":1.0,"City":1.0,"District":1.0,"Street":[1.0],"HouseNumber":1.0,"PostalCode":1.0},"MatchType":"interpolated","Location":{"LocationId":"NT_0tWv.HPRJMJ9JCCN6.cA3D_2cD","LocationType":"point","DisplayPosition":{"Latitude":54.50464,"Longitude":-6.04787},"MapView":{"TopLeft":{"Latitude":54.5057642,"Longitude":-6.0498061},"BottomRight":{"Latitude":54.5035158,"Longitude":-6.0459339}},"Address":{"Label":"67 Hillsborough Road, Lisburn, BT28 1JN, United Kingdom","Country":"GBR","State":"Northern Ireland","County":"County Antrim","City":"Lisburn","District":"Lisburn","Street":"Hillsborough Road","HouseNumber":"67","PostalCode":"BT28 1JN","AdditionalData":[{"value":"United Kingdom","key":"CountryName"},{"value":"Northern Ireland","key":"StateName"},{"value":"County Antrim","key":"CountyName"}],"Building":"Woodgrove Private Nursing Home"},"MapReference":{"ReferenceId":"584104708","Spot":0.68,"SideOfStreet":"right","StateId":"20403688","CountyId":"20411119","CityId":"20419088","DistrictId":"20419097","AddressId":"783490975","RoadLinkId":"84891793"}}},{"Relevance":1.0,"Distance":27.3,"MatchLevel":"street","MatchQuality":{"Country":1.0,"State":1.0,"County":1.0,"City":1.0,"District":1.0,"Street":[1.0],"PostalCode":1.0},"Location":{"LocationId":"NT_KDLBY08ayRuYrgpn9Osj-C_l_554963331_L","LocationType":"point","DisplayPosition":{"Latitude":54.50496,"Longitude":-6.04772},"MapView":{"TopLeft":{"Latitude":54.50497,"Longitude":-6.04789},"BottomRight":{"Latitude":54.50496,"Longitude":-6.04772}},"Address":{"Label":"Warren Park, Lisburn, BT28 1, United Kingdom","Country":"GBR","State":"Northern Ireland","County":"County Antrim","City":"Lisburn","District":"Lisburn","Street":"Warren Park","PostalCode":"BT28 1","AdditionalData":[{"value":"United Kingdom","key":"CountryName"},{"value":"Northern Ireland","key":"StateName"},{"value":"County Antrim","key":"CountyName"}]},"MapReference":{"ReferenceId":"554963331","Spot":0.0,"SideOfStreet":"left","StateId":"20403688","CountyId":"20411119","CityId":"20419088","DistrictId":"20419097"}}},{"Relevance":1.0,"Distance":30.8,"MatchLevel":"street","MatchQuality":{"Country":1.0,"State":1.0,"County":1.0,"City":1.0,"District":1.0,"Street":[1.0],"PostalCode":1.0},"Location":{"LocationId":"NT_KDLBY08ayRuYrgpn9Osj-C_l_1000285907_L","LocationType":"point","DisplayPosition":{"Latitude":54.50497,"Longitude":-6.04789},"MapView":{"TopLeft":{"Latitude":54.50499,"Longitude":-6.04834},"BottomRight":{"Latitude":54.50497,"Longitude":-6.04789}},"Address":{"Label":"Warren Park, Lisburn, BT28 1, United Kingdom","Country":"GBR","State":"Northern Ireland","County":"County Antrim","City":"Lisburn","District":"Lisburn","Street":"Warren Park","PostalCode":"BT28 1","AdditionalData":[{"value":"United Kingdom","key":"CountryName"},{"value":"Northern Ireland","key":"StateName"},{"value":"County Antrim","key":"CountyName"}]},"MapReference":{"ReferenceId":"1000285907","Spot":0.0,"SideOfStreet":"left","StateId":"20403688","CountyId":"20411119","CityId":"20419088","DistrictId":"20419097"}}},{"Relevance":1.0,"Distance":38.8,"MatchLevel":"street","MatchQuality":{"Country":1.0,"State":1.0,"County":1.0,"City":1.0,"District":1.0,"Street":[1.0],"PostalCode":1.0},"Location":{"LocationId":"NT_bGAvn5d-s97K2ql-pWNGKD_l_1000285908_R","LocationType":"point","DisplayPosition":{"Latitude":54.50461,"Longitude":-6.04828},"MapView":{"TopLeft":{"Latitude":54.50499,"Longitude":-6.04835},"BottomRight":{"Latitude":54.50461,"Longitude":-6.04828}},"Address":{"Label":"Keightley Court, Lisburn, BT28 1, United Kingdom","Country":"GBR","State":"Northern Ireland","County":"County Antrim","City":"Lisburn","District":"Lisburn","Street":"Keightley Court","PostalCode":"BT28 1","AdditionalData":[{"value":"United Kingdom","key":"CountryName"},{"value":"Northern Ireland","key":"StateName"},{"value":"County Antrim","key":"CountyName"}]},"MapReference":{"ReferenceId":"1000285908","Spot":0.0,"SideOfStreet":"right","StateId":"20403688","CountyId":"20411119","CityId":"20419088","DistrictId":"20419097"}}},{"Relevance":1.0,"Distance":47.4,"MatchLevel":"houseNumber","MatchQuality":{"Country":1.0,"State":1.0,"County":1.0,"City":1.0,"District":1.0,"Street":[1.0],"HouseNumber":1.0,"PostalCode":1.0},"MatchType":"interpolated","Location":{"LocationId":"NT_0tWv.HPRJMJ9JCCN6.cA3D_zkTY","LocationType":"point","DisplayPosition":{"Latitude":54.50514,"Longitude":-6.04766},"MapView":{"TopLeft":{"Latitude":54.5062642,"Longitude":-6.0495961},"BottomRight":{"Latitude":54.5040158,"Longitude":-6.0457239}},"Address":{"Label":"39a Hillsborough Road, Lisburn, BT28 1, United Kingdom","Country":"GBR","State":"Northern Ireland","County":"County Antrim","City":"Lisburn","District":"Lisburn","Street":"Hillsborough Road","HouseNumber":"39a","PostalCode":"BT28 1","AdditionalData":[{"value":"United Kingdom","key":"CountryName"},{"value":"Northern Ireland","key":"StateName"},{"value":"County Antrim","key":"CountyName"}],"Building":"Lagan Valley Hospital"},"MapReference":{"ReferenceId":"907777908","Spot":0.5,"SideOfStreet":"right","StateId":"20403688","CountyId":"20411119","CityId":"20419088","DistrictId":"20419097","AddressId":"589986624","RoadLinkId":"268382303"}}},{"Relevance":1.0,"Distance":50.4,"MatchLevel":"houseNumber","MatchQuality":{"Country":1.0,"State":1.0,"County":1.0,"City":1.0,"District":1.0,"Street":[1.0],"HouseNumber":1.0,"PostalCode":1.0},"MatchType":"interpolated","Location":{"LocationId":"NT_23Mj1CWr-j5E3GuC3Fa-lA_5QD","LocationType":"point","DisplayPosition":{"Latitude":54.50515,"Longitude":-6.04792},"MapView":{"TopLeft":{"Latitude":54.5062742,"Longitude":-6.0498561},"BottomRight":{"Latitude":54.5040258,"Longitude":-6.0459839}},"Address":{"Label":"94 Elmwood Drive, Lisburn, BT28 1, United Kingdom","Country":"GBR","State":"Northern Ireland","County":"County Antrim","City":"Lisburn","District":"Lisburn","Street":"Elmwood Drive","HouseNumber":"94","PostalCode":"BT28 1","AdditionalData":[{"value":"United Kingdom","key":"CountryName"},{"value":"Northern Ireland","key":"StateName"},{"value":"County Antrim","key":"CountyName"}]},"MapReference":{"ReferenceId":"564866826","Spot":0.22,"SideOfStreet":"left","StateId":"20403688","CountyId":"20411119","CityId":"20419088","DistrictId":"20419097","AddressId":"341932405","RoadLinkId":"84848207"}}},{"Relevance":1.0,"Distance":67.7,"MatchLevel":"street","MatchQuality":{"Country":1.0,"State":1.0,"County":1.0,"City":1.0,"District":1.0,"Street":[1.0],"PostalCode":1.0},"Location":{"LocationId":"NT_0tWv.HPRJMJ9JCCN6.cA3D_l_907777909_R","LocationType":"point","DisplayPosition":{"Latitude":54.50532,"Longitude":-6.0476},"MapView":{"TopLeft":{"Latitude":54.50543,"Longitude":-6.0476},"BottomRight":{"Latitude":54.50532,"Longitude":-6.04756}},"Address":{"Label":"Hillsborough Road, Lisburn, BT28 1, United Kingdom","Country":"GBR","State":"Northern Ireland","County":"County Antrim","City":"Lisburn","District":"Lisburn","Street":"Hillsborough Road","PostalCode":"BT28 1","AdditionalData":[{"value":"United Kingdom","key":"CountryName"},{"value":"Northern Ireland","key":"StateName"},{"value":"County Antrim","key":"CountyName"}]},"MapReference":{"ReferenceId":"907777909","Spot":0.0,"SideOfStreet":"right","StateId":"20403688","CountyId":"20411119","CityId":"20419088","DistrictId":"20419097"}}},{"Relevance":1.0,"Distance":76.1,"MatchLevel":"postalCode","MatchQuality":{"PostalCode":1.0},"MatchType":"interpolated","Location":{"LocationId":"NT_0tWv.HPRJMJ9JCCN6.cA3D_2cD","LocationType":"point","DisplayPosition":{"Latitude":54.50406,"Longitude":-6.04736},"MapView":{"TopLeft":{"Latitude":54.5130532,"Longitude":-6.0628483},"BottomRight":{"Latitude":54.4950668,"Longitude":-6.0318717}},"Address":{"Label":"BT28 1JN, Lisburn, Northern Ireland, United Kingdom","Country":"GBR","State":"Northern Ireland","County":"County Antrim","City":"Lisburn","PostalCode":"BT28 1JN","AdditionalData":[{"value":"United Kingdom","key":"CountryName"},{"value":"Northern Ireland","key":"StateName"},{"value":"County Antrim","key":"CountyName"}]},"MapReference":{"ReferenceId":"584104708","Spot":0.68,"SideOfStreet":"neither","StateId":"20403688","CountyId":"20411119","CityId":"20419088"}}}]}]}}