{"Response":{"MetaInfo":{"Timestamp":"2020-03-28T10:41:37.166+0000","NextPageInformation":"2"},"View":[{"_type":"SearchResultsViewType","ViewId":0,"Result":[{"Relevance":1.0,"Distance":0.0,"Direction":0.0,"MatchLevel":"district","MatchQuality":{"Country":1.0,"State":1.0,"County":1.0,"City":1.0,"District":1.0,"PostalCode":1.0},"Location":{"LocationId":"NT_TCrQVx9Uaf5kwtQZA5veAA","LocationType":"point","DisplayPosition":{"Latitude":54.5464787,"Longitude":-1.5247096},"MapView":{"TopLeft":{"Latitude":54.56426,"Longitude":-1.60898},"BottomRight":{"Latitude":54.50576,"Longitude":-1.49854}},"Address":{"Label":"Darlington, England, United Kingdom","Country":"GBR","State":"England","County":"County Durham","City":"Darlington","District":"Darlington","PostalCode":"DL1 1","AdditionalData":[{"value":"United Kingdom","key":"CountryName"},{"value":"England","key":"StateName"},{"value":"County Durham","key":"CountyName"}]},"MapReference":{"ReferenceId":"26904923","SideOfStreet":"neither","StateId":"20248595","CountyId":"20345678","CityId":"20345833","DistrictId":"20345834"}}},{"Relevance":1.0,"Distance":5.7,"MatchLevel":"houseNumber","MatchQuality":{"Country":1.0,"State":1.0,"County":1.0,"City":1.0,"District":1.0,"Street":[1.0],"HouseNumber":1.0,"PostalCode":1.0},"MatchType":"interpolated","Location":{"LocationId":"NT_GWLCQOGqDDmHmD31EsBW5A_l_26902032_L_xED","LocationType":"point","DisplayPosition":{"Latitude":54.5466601,"Longitude":-1.5246402},"MapView":{"TopLeft":{"Latitude":54.5477842,"Longitude":-1.5265783},"BottomRight":{"Latitude":54.5455359,"Longitude":-1.5227022}},"Address":{"Label":"11 Sparrow Hall Drive, Darlington, DL1 3PA, United Kingdom","Country":"GBR","State":"England","County":"County Durham","City":"Darlington","District":"Darlington","Street":"Sparrow Hall Drive","HouseNumber":"11","PostalCode":"DL1 3PA","AdditionalData":[{"value":"United Kingdom","key":"CountryName"},{"value":"England","key":"StateName"},{"value":"County Durham","key":"CountyName"}]},"MapReference":{"ReferenceId":"26902032","Spot":0.11,"SideOfStreet":"left","StateId":"20248595","CountyId":"20345678","CityId":"20345833","DistrictId":"20345834"}}},{"Relevance":1.0,"Distance":13.7,"MatchLevel":"street","MatchQuality":{"Country":1.0,"State":1.0,"County":1.0,"City":1.0,"District":1.0,"Street":[1.0],"PostalCode":1.0},"Location":{"LocationId":"NT_tAzp4xYaifIFrkk2pkE-cD_l_26902077_L","LocationType":"point","DisplayPosition":{"Latitude":54.5463962,"Longitude":-1.5245515},"MapView":{"TopLeft":{"Latitude":54.54661,"Longitude":-1.52456},"BottomRight":{"Latitude":54.54638,"Longitude":-1.52444}},"Address":{"Label":"Whinbush Way, Darlington, DL1 3, United Kingdom","Country":"GBR","State":"England","County":"County Durham","City":"Darlington","District":"Darlington","Street":"Whinbush Way","PostalCode":"DL1 3","AdditionalData":[{"value":"United Kingdom","key":"CountryName"},{"value":"England","key":"StateName"},{"value":"County Durham","key":"CountyName"}]},"MapReference":{"ReferenceId":"26902077","Spot":0.07,"SideOfStreet":"left","StateId":"20248595","CountyId":"20345678","CityId":"20345833","DistrictId":"20345834"}}},{"Relevance":1.0,"Distance":14.6,"MatchLevel":"street","MatchQuality":{"Country":1.0,"State":1.0,"County":1.0,"City":1.0,"District":1.0,"Street":[1.0],"PostalCode":1.0},"Location":{"LocationId":"NT_tAzp4xYaifIFrkk2pkE-cD_l_26902128_L","LocationType":"point","DisplayPosition":{"Latitude":54.54638,"Longitude":-1.52456},"MapView":{"TopLeft":{"Latitude":54.54638,"Longitude":-1.52461},"BottomRight":{"Latitude":54.54609,"Longitude":-1.52454}},"Address":{"Label":"Whinbush Way, Darlington, DL1 3, United Kingdom","Country":"GBR","State":"England","County":"County Durham","City":"Darlington","District":"Darlington","Street":"Whinbush Way","PostalCode":"DL1 3","AdditionalData":[{"value":"United Kingdom","key":"CountryName"},{"value":"England","key":"StateName"},{"value":"County Durham","key":"CountyName"}]},"MapReference":{"ReferenceId":"26902128","Spot":1.0,"SideOfStreet":"left","StateId":"20248595","CountyId":"20345678","CityId":"20345833","DistrictId":"20345834"}}},{"Relevance":1.0,"Distance":15.8,"MatchLevel":"street","MatchQuality":{"Country":1.0,"State":1.0,"County":1.0,"City":1.0,"District":1.0,"Street":[1.0],"PostalCode":1.0},"Location":{"LocationId":"NT_tAzp4xYaifIFrkk2pkE-cD_l_26902126_L","LocationType":"point","DisplayPosition":{"Latitude":54.5463587,"Longitude":-1.5245796},"MapView":{"TopLeft":{"Latitude":54.54638,"Longitude":-1.52475},"BottomRight":{"Latitude":54.54611,"Longitude":-1.52456}},"Address":{"Label":"Whinbush Way, Darlington, DL1 3, United Kingdom","Country":"GBR","State":"England","County":"County Durham","City":"Darlington","District":"Darlington","Street":"Whinbush Way","PostalCode":"DL1 3","AdditionalData":[{"value":"United Kingdom","key":"CountryName"},{"value":"England","key":"StateName"},{"value":"County Durham","key":"CountyName"}]},"MapReference":{"ReferenceId":"26902126","Spot":0.91,"SideOfStreet":"left","StateId":"20248595","CountyId":"20345678","CityId":"20345833","DistrictId":"20345834"}}},{"Relevance":1.0,"Distance":22.7,"MatchLevel":"street","MatchQuality":{"Country":1.0,"State":1.0,"County":1.0,"City":1.0,"District":1.0,"Street":[1.0],"PostalCode":1.0},"Location":{"LocationId":"NT_tAzp4xYaifIFrkk2pkE-cD_l_26902031_L","LocationType":"point","DisplayPosition":{"Latitude":54.54661,"Longitude":-1.52444},"MapView":{"TopLeft":{"Latitude":54.5475,"Longitude":-1.52444},"BottomRight":{"Latitude":54.54661,"Longitude":-1.52381}},"Address":{"Label":"Whinbush Way, Darlington, DL1 3, United Kingdom","Country":"GBR","State":"England","County":"County Durham","City":"Darlington","District":"Darlington","Street":"Whinbush Way","PostalCode":"DL1 3","AdditionalData":[{"value":"United Kingdom","key":"CountryName"},{"value":"England","key":"StateName"},{"value":"County Durham","key":"CountyName"}]},"MapReference":{"ReferenceId":"26902031","Spot":0.0,"SideOfStreet":"left","StateId":"20248595","CountyId":"20345678","CityId":"20345833","DistrictId":"20345834"}}},{"Relevance":1.0,"Distance":41.1,"MatchLevel":"street","MatchQuality":{"Country":1.0,"State":1.0,"County":1.0,"City":1.0,"District":1.0,"Street":[1.0],"PostalCode":1.0},"Location":{"LocationId":"NT_tAzp4xYaifIFrkk2pkE-cD_l_26902213_L","LocationType":"point","DisplayPosition":{"Latitude":54.54611,"Longitude":-1.52475},"MapView":{"TopLeft":{"Latitude":54.54611,"Longitude":-1.525},"BottomRight":{"Latitude":54.54557,"Longitude":-1.52475}},"Address":{"Label":"Whinbush Way, Darlington, DL1 3, United Kingdom","Country":"GBR","State":"England","County":"County Durham","City":"Darlington","District":"Darlington","Street":"Whinbush Way","PostalCode":"DL1 3","AdditionalData":[{"value":"United Kingdom","key":"CountryName"},{"value":"England","key":"StateName"},{"value":"County Durham","key":"CountyName"}]},"MapReference":{"ReferenceId":"26902213","Spot":1.0,"SideOfStreet":"left","StateId":"20248595","CountyId":"20345678","CityId":"20345833","DistrictId":"20345834"}}},{"Relevance":1.0,"Distance":41.1,"MatchLevel":"street","MatchQuality":{"Country":1.0,"State":1.0,"County":1.0,"City":1.0,"District":1.0,"PostalCode":1.0},"Location":{"LocationId":"NT_cIGYfveSF9xoxkX0amC0XD_l_26902129_R","LocationType":"point","DisplayPosition":{"Latitude":54.54611,"Longitude":-1.52475},"MapView":{"TopLeft":{"Latitude":54.54611,"Longitude":-1.52475},"BottomRight":{"Latitude":54.54609,"Longitude":-1.52461}},"Address":{"Label":"Darlington, DL1 3, United Kingdom","Country":"GBR","State":"England","County":"County Durham","City":"Darlington","District":"Darlington","PostalCode":"DL1 3","AdditionalData":[{"value":"United Kingdom","key":"CountryName"},{"value":"England","key":"StateName"},{"value":"County Durham","key":"CountyName"}]},"MapReference":{"ReferenceId":"26902129","Spot":1.0,"SideOfStreet":"right","StateId":"20248595","CountyId":"20345678","CityId":"20345833","DistrictId":"20345834"}}},{"Relevance":1.0,"Distance":43.7,"MatchLevel":"street","MatchQuality":{"Country":1.0,"State":1.0,"County":1.0,"City":1.0,"District":1.0,"Street":[1.0],"PostalCode":1.0},"Location":{"LocationId":"NT_tAzp4xYaifIFrkk2pkE-cD_l_26902217_L","LocationType":"point","DisplayPosition":{"Latitude":54.54609,"Longitude":-1.52461},"MapView":{"TopLeft":{"Latitude":54.54609,"Longitude":-1.52488},"BottomRight":{"Latitude":54.54554,"Longitude":-1.52461}},"Address":{"Label":"Whinbush Way, Darlington, DL1 3, United Kingdom","Country":"GBR","State":"England","County":"County Durham","City":"Darlington","District":"Darlington","Street":"Whinbush Way","PostalCode":"DL1 3","AdditionalData":[{"value":"United Kingdom","key":"CountryName"},{"value":"England","key":"StateName"},{"value":"County Durham","key":"CountyName"}]},"MapReference":{"ReferenceId":"26902217","Spot":1.0,"SideOfStreet":"left","StateId":"20248595","CountyId":"20345678","CityId":"20345833","DistrictId":"20345834"}}},{"Relevance":1.0,"Distance":54.8,"MatchLevel":"street","MatchQuality":{"Country":1.0,"State":1.0,"County":1.0,"City":1.0,"District":1.0,"PostalCode":1.0},"Location":{"LocationId":"NT_cIGYfveSF9xoxkX0amC0XD_l_26902117_R","LocationType":"point","DisplayPosition":{"Latitude":54.54605,"Longitude":-1.52513},"MapView":{"TopLeft":{"Latitude":54.54659,"Longitude":-1.52645},"BottomRight":{"Latitude":54.54605,"Longitude":-1.52513}},"Address":{"Label":"Darlington, DL1 3, United Kingdom","Country":"GBR","State":"England","County":"County Durham","City":"Darlington","District":"Darlington","PostalCode":"DL1 3","AdditionalData":[{"value":"United Kingdom","key":"CountryName"},{"value":"England","key":"StateName"},{"value":"County Durham","key":"CountyName"}]},"MapReference":{"ReferenceId":"26902117","Spot":0.0,"SideOfStreet":"right","StateId":"20248595","CountyId":"20345678","CityId":"20345833","DistrictId":"20345834"}}}]}]}}