{"Response":{"MetaInfo":{"Timestamp":"2020-03-28T09:57:19.707+0000","NextPageInformation":"2"},"View":[{"_type":"SearchResultsViewType","ViewId":0,"Result":[{"Relevance":1.0,"Distance":0.0,"Direction":0.0,"MatchLevel":"district","MatchQuality":{"Country":1.0,"State":1.0,"County":1.0,"City":1.0,"District":1.0,"PostalCode":1.0},"Location":{"LocationId":"NT_-TBvdTCAz9n.T4CkZb41PA","LocationType":"point","DisplayPosition":{"Latitude":54.5287617,"Longitude":18.5032336},"MapView":{"TopLeft":{"Latitude":54.56437,"Longitude":18.40361},"BottomRight":{"Latitude":54.45575,"Longitude":18.56736}},"Address":{"Label":"Gdynia, Woj. Pomorskie, Polska","Country":"POL","State":"Woj. Pomorskie","County":"Gdynia","City":"Gdynia","District":"Gdynia","PostalCode":"81-364","AdditionalData":[{"value":"Polska","key":"CountryName"},{"value":"Woj. Pomorskie","key":"StateName"},{"value":"Gdynia","key":"CountyName"}]},"MapReference":{"ReferenceId":"946490862","SideOfStreet":"neither","CountryId":"20624059","StateId":"20628728","CountyId":"20628732","CityId":"20628733","DistrictId":"20646651"}}},{"Relevance":1.0,"Distance":11.1,"MatchLevel":"houseNumber","MatchQuality":{"Country":1.0,"State":1.0,"County":1.0,"City":1.0,"District":1.0,"Street":[1.0],"HouseNumber":1.0,"PostalCode":1.0},"MatchType":"interpolated","Location":{"LocationId":"NT_JTfrWHxWnDCYvvTavZwv7A_xED","LocationType":"point","DisplayPosition":{"Latitude":54.52877,"Longitude":18.50294},"MapView":{"TopLeft":{"Latitude":54.5298942,"Longitude":18.5010028},"BottomRight":{"Latitude":54.5276458,"Longitude":18.5048772}},"Address":{"Label":"ulica Józefa Montwiłła-Mireckiego 11, 81-229 Gdynia, Polska","Country":"POL","State":"Woj. Pomorskie","County":"Gdynia","City":"Gdynia","District":"Gdynia","Street":"ulica Józefa Montwiłła-Mireckiego","HouseNumber":"11","PostalCode":"81-229","AdditionalData":[{"value":"Polska","key":"CountryName"},{"value":"Woj. Pomorskie","key":"StateName"},{"value":"Gdynia","key":"CountyName"}]},"MapReference":{"ReferenceId":"1175190785","Spot":0.58,"SideOfStreet":"right","CountryId":"20624059","StateId":"20628728","CountyId":"20628732","CityId":"20628733","DistrictId":"20646651","AddressId":"209285847","RoadLinkId":"482615886"}}},{"Relevance":1.0,"Distance":18.3,"MatchLevel":"houseNumber","MatchQuality":{"Country":1.0,"State":1.0,"County":1.0,"City":1.0,"District":1.0,"Street":[1.0],"HouseNumber":1.0,"PostalCode":1.0},"MatchType":"interpolated","Location":{"LocationId":"NT_mrFFI5t-KZsw7ggav0EFOD_xEzMCB","LocationType":"point","DisplayPosition":{"Latitude":54.52912,"Longitude":18.50359},"MapView":{"TopLeft":{"Latitude":54.5302442,"Longitude":18.5016528},"BottomRight":{"Latitude":54.5279958,"Longitude":18.5055272}},"Address":{"Label":"ulica Morska 113B, 81-222 Gdynia, Polska","Country":"POL","State":"Woj. Pomorskie","County":"Gdynia","City":"Gdynia","District":"Gdynia","Street":"ulica Morska","HouseNumber":"113B","PostalCode":"81-222","AdditionalData":[{"value":"Polska","key":"CountryName"},{"value":"Woj. Pomorskie","key":"StateName"},{"value":"Gdynia","key":"CountyName"}]},"MapReference":{"ReferenceId":"905321317","Spot":0.98,"SideOfStreet":"left","CountryId":"20624059","StateId":"20628728","CountyId":"20628732","CityId":"20628733","DistrictId":"20646651","AddressId":"211269897","RoadLinkId":"266476102"}}},{"Relevance":1.0,"Distance":26.7,"MatchLevel":"street","MatchQuality":{"Country":1.0,"State":1.0,"County":1.0,"City":1.0,"District":1.0,"Street":[1.0],"PostalCode":1.0},"Location":{"LocationId":"NT_JTfrWHxWnDCYvvTavZwv7A_l_1175190786_R","LocationType":"point","DisplayPosition":{"Latitude":54.529,"Longitude":18.50318},"MapView":{"TopLeft":{"Latitude":54.52918,"Longitude":18.50318},"BottomRight":{"Latitude":54.529,"Longitude":18.50336}},"Address":{"Label":"ulica Józefa Montwiłła-Mireckiego, 81-229 Gdynia, Polska","Country":"POL","State":"Woj. Pomorskie","County":"Gdynia","City":"Gdynia","District":"Gdynia","Street":"ulica Józefa Montwiłła-Mireckiego","PostalCode":"81-229","AdditionalData":[{"value":"Polska","key":"CountryName"},{"value":"Woj. Pomorskie","key":"StateName"},{"value":"Gdynia","key":"CountyName"}]},"MapReference":{"ReferenceId":"1175190786","Spot":0.0,"SideOfStreet":"right","CountryId":"20624059","StateId":"20628728","CountyId":"20628732","CityId":"20628733","DistrictId":"20646651"}}},{"Relevance":1.0,"Distance":40.1,"MatchLevel":"houseNumber","MatchQuality":{"Country":1.0,"State":1.0,"County":1.0,"City":1.0,"District":1.0,"Street":[1.0],"HouseNumber":1.0,"PostalCode":1.0},"MatchType":"interpolated","Location":{"LocationId":"NT_AcHyG3337OKhJbXlJKvboC_yQD","LocationType":"point","DisplayPosition":{"Latitude":54.52834,"Longitude":18.50291},"MapView":{"TopLeft":{"Latitude":54.5294642,"Longitude":18.5009728},"BottomRight":{"Latitude":54.5272158,"Longitude":18.5048472}},"Address":{"Label":"ulica Komandorska 24, 81-223 Gdynia, Polska","Country":"POL","State":"Woj. Pomorskie","County":"Gdynia","City":"Gdynia","District":"Gdynia","Street":"ulica Komandorska","HouseNumber":"24","PostalCode":"81-223","AdditionalData":[{"value":"Polska","key":"CountryName"},{"value":"Woj. Pomorskie","key":"StateName"},{"value":"Gdynia","key":"CountyName"}]},"MapReference":{"ReferenceId":"910481105","Spot":0.9,"SideOfStreet":"right","CountryId":"20624059","StateId":"20628728","CountyId":"20628732","CityId":"20628733","DistrictId":"20646651","AddressId":"210820968","RoadLinkId":"270003106"}}},{"Relevance":1.0,"Distance":40.1,"MatchLevel":"houseNumber","MatchQuality":{"Country":1.0,"State":1.0,"County":1.0,"City":1.0,"District":1.0,"Street":[1.0],"HouseNumber":1.0,"PostalCode":1.0},"MatchType":"interpolated","Location":{"LocationId":"NT_mrFFI5t-KZsw7ggav0EFOD_xETN","LocationType":"point","DisplayPosition":{"Latitude":54.52926,"Longitude":18.50302},"MapView":{"TopLeft":{"Latitude":54.5303842,"Longitude":18.5010828},"BottomRight":{"Latitude":54.5281358,"Longitude":18.5049572}},"Address":{"Label":"ulica Morska 115, 81-222 Gdynia, Polska","Country":"POL","State":"Woj. Pomorskie","County":"Gdynia","City":"Gdynia","District":"Gdynia","Street":"ulica Morska","HouseNumber":"115","PostalCode":"81-222","AdditionalData":[{"value":"Polska","key":"CountryName"},{"value":"Woj. Pomorskie","key":"StateName"},{"value":"Gdynia","key":"CountyName"}]},"MapReference":{"ReferenceId":"1175177783","Spot":0.45,"SideOfStreet":"left","CountryId":"20624059","StateId":"20628728","CountyId":"20628732","CityId":"20628733","DistrictId":"20646651","AddressId":"210969231","RoadLinkId":"482600025"}}},{"Relevance":1.0,"Distance":47.2,"MatchLevel":"street","MatchQuality":{"Country":1.0,"State":1.0,"County":1.0,"City":1.0,"District":1.0,"Street":[1.0],"PostalCode":1.0},"Location":{"LocationId":"NT_JTfrWHxWnDCYvvTavZwv7A_l_594874144_R","LocationType":"point","DisplayPosition":{"Latitude":54.52918,"Longitude":18.50336},"MapView":{"TopLeft":{"Latitude":54.52935,"Longitude":18.50336},"BottomRight":{"Latitude":54.52918,"Longitude":18.50352}},"Address":{"Label":"ulica Józefa Montwiłła-Mireckiego, 81-229 Gdynia, Polska","Country":"POL","State":"Woj. Pomorskie","County":"Gdynia","City":"Gdynia","District":"Gdynia","Street":"ulica Józefa Montwiłła-Mireckiego","PostalCode":"81-229","AdditionalData":[{"value":"Polska","key":"CountryName"},{"value":"Woj. Pomorskie","key":"StateName"},{"value":"Gdynia","key":"CountyName"}]},"MapReference":{"ReferenceId":"594874144","Spot":0.0,"SideOfStreet":"right","CountryId":"20624059","StateId":"20628728","CountyId":"20628732","CityId":"20628733","DistrictId":"20646651"}}},{"Relevance":1.0,"Distance":47.2,"MatchLevel":"street","MatchQuality":{"Country":1.0,"State":1.0,"County":1.0,"City":1.0,"District":1.0,"Street":[1.0],"PostalCode":1.0},"Location":{"LocationId":"NT_mrFFI5t-KZsw7ggav0EFOD_l_905321318_L","LocationType":"point","DisplayPosition":{"Latitude":54.52918,"Longitude":18.50336},"MapView":{"TopLeft":{"Latitude":54.52918,"Longitude":18.50336},"BottomRight":{"Latitude":54.52913,"Longitude":18.50355}},"Address":{"Label":"ulica Morska, 81-222 Gdynia, Polska","Country":"POL","State":"Woj. Pomorskie","County":"Gdynia","City":"Gdynia","District":"Gdynia","Street":"ulica Morska","PostalCode":"81-222","AdditionalData":[{"value":"Polska","key":"CountryName"},{"value":"Woj. Pomorskie","key":"StateName"},{"value":"Gdynia","key":"CountyName"}]},"MapReference":{"ReferenceId":"905321318","Spot":1.0,"SideOfStreet":"left","CountryId":"20624059","StateId":"20628728","CountyId":"20628732","CityId":"20628733","DistrictId":"20646651"}}},{"Relevance":1.0,"Distance":47.7,"MatchLevel":"street","MatchQuality":{"Country":1.0,"State":1.0,"County":1.0,"City":1.0,"District":1.0,"Street":[1.0],"PostalCode":1.0},"Location":{"LocationId":"NT_62hQ8n855is8bRncg6PHRA_l_905321315_L","LocationType":"point","DisplayPosition":{"Latitude":54.5291865,"Longitude":18.5033316},"MapView":{"TopLeft":{"Latitude":54.52921,"Longitude":18.50323},"BottomRight":{"Latitude":54.52918,"Longitude":18.50336}},"Address":{"Label":"ulica Morska, 81-222 Gdynia, Polska","Country":"POL","State":"Woj. Pomorskie","County":"Gdynia","City":"Gdynia","District":"Gdynia","Street":"ulica Morska","PostalCode":"81-222","AdditionalData":[{"value":"Polska","key":"CountryName"},{"value":"Woj. Pomorskie","key":"StateName"},{"value":"Gdynia","key":"CountyName"}]},"MapReference":{"ReferenceId":"905321315","Spot":0.22,"SideOfStreet":"left","CountryId":"20624059","StateId":"20628728","CountyId":"20628732","CityId":"20628733","DistrictId":"20646651"}}},{"Relevance":1.0,"Distance":66.1,"MatchLevel":"street","MatchQuality":{"Country":1.0,"State":1.0,"County":1.0,"City":1.0,"District":1.0,"Street":[1.0],"PostalCode":1.0},"Location":{"LocationId":"NT_bhJMwIxrpdoK.d61LN8oFA_l_1175189224_L","LocationType":"point","DisplayPosition":{"Latitude":54.5293,"Longitude":18.50367},"MapView":{"TopLeft":{"Latitude":54.5293,"Longitude":18.50367},"BottomRight":{"Latitude":54.52913,"Longitude":18.50413}},"Address":{"Label":"ulica Morska, 81-225 Gdynia, Polska","Country":"POL","State":"Woj. Pomorskie","County":"Gdynia","City":"Gdynia","District":"Gdynia","Street":"ulica Morska","PostalCode":"81-225","AdditionalData":[{"value":"Polska","key":"CountryName"},{"value":"Woj. Pomorskie","key":"StateName"},{"value":"Gdynia","key":"CountyName"}]},"MapReference":{"ReferenceId":"1175189224","Spot":1.0,"SideOfStreet":"left","CountryId":"20624059","StateId":"20628728","CountyId":"20628732","CityId":"20628733","DistrictId":"20646651"}}}]}]}}