{"Response":{"MetaInfo":{"Timestamp":"2020-03-28T09:51:26.795+0000","NextPageInformation":"2"},"View":[{"_type":"SearchResultsViewType","ViewId":0,"Result":[{"Relevance":1.0,"Distance":0.0,"Direction":0.0,"MatchLevel":"district","MatchQuality":{"Country":1.0,"State":1.0,"County":1.0,"City":1.0,"District":1.0,"PostalCode":1.0},"Location":{"LocationId":"NT_eQyp9scHIlSpFv9.5BXGqC","LocationType":"point","DisplayPosition":{"Latitude":54.5955254,"Longitude":-5.7011228},"MapView":{"TopLeft":{"Latitude":54.61252,"Longitude":-5.7259},"BottomRight":{"Latitude":54.57435,"Longitude":-5.65262}},"Address":{"Label":"Newtownards, Northern Ireland, United Kingdom","Country":"GBR","State":"Northern Ireland","County":"County Down","City":"Newtownards","District":"Newtownards","PostalCode":"BT23 4","AdditionalData":[{"value":"United Kingdom","key":"CountryName"},{"value":"Northern Ireland","key":"StateName"},{"value":"County Down","key":"CountyName"}]},"MapReference":{"ReferenceId":"564869439","SideOfStreet":"neither","StateId":"20403688","CountyId":"20411121","CityId":"20419241","DistrictId":"20419255"}}},{"Relevance":1.0,"Distance":11.9,"MatchLevel":"houseNumber","MatchQuality":{"Country":1.0,"State":1.0,"County":1.0,"City":1.0,"District":1.0,"Street":[1.0],"HouseNumber":1.0,"PostalCode":1.0},"MatchType":"interpolated","Location":{"LocationId":"NT_knkltZlhd1LpYOaRJxIq9B_yIG","LocationType":"point","DisplayPosition":{"Latitude":54.59543,"Longitude":-5.70104},"MapView":{"TopLeft":{"Latitude":54.5965542,"Longitude":-5.7029804},"BottomRight":{"Latitude":54.5943058,"Longitude":-5.6990996}},"Address":{"Label":"2b James Street, Newtownards, BT23 4, United Kingdom","Country":"GBR","State":"Northern Ireland","County":"County Down","City":"Newtownards","District":"Newtownards","Street":"James Street","HouseNumber":"2b","PostalCode":"BT23 4","AdditionalData":[{"value":"United Kingdom","key":"CountryName"},{"value":"Northern Ireland","key":"StateName"},{"value":"County Down","key":"CountyName"}]},"MapReference":{"ReferenceId":"564869442","Spot":0.18,"SideOfStreet":"left","StateId":"20403688","CountyId":"20411121","CityId":"20419241","DistrictId":"20419255","AddressId":"342118688","RoadLinkId":"84891032"}}},{"Relevance":1.0,"Distance":16.3,"MatchLevel":"postalCode","MatchQuality":{"PostalCode":1.0},"MatchType":"interpolated","Location":{"LocationId":"NT_knkltZlhd1LpYOaRJxIq9B_yIG","LocationType":"point","DisplayPosition":{"Latitude":54.59553,"Longitude":-5.70087},"MapView":{"TopLeft":{"Latitude":54.6045232,"Longitude":-5.7163931},"BottomRight":{"Latitude":54.5865368,"Longitude":-5.6853469}},"Address":{"Label":"BT23 4DY, Newtownards, Northern Ireland, United Kingdom","Country":"GBR","State":"Northern Ireland","County":"County Down","City":"Newtownards","PostalCode":"BT23 4DY","AdditionalData":[{"value":"United Kingdom","key":"CountryName"},{"value":"Northern Ireland","key":"StateName"},{"value":"County Down","key":"CountyName"}]},"MapReference":{"ReferenceId":"564869442","Spot":0.18,"SideOfStreet":"neither","StateId":"20403688","CountyId":"20411121","CityId":"20419241"}}},{"Relevance":1.0,"Distance":23.6,"MatchLevel":"houseNumber","MatchQuality":{"Country":1.0,"State":1.0,"County":1.0,"City":1.0,"District":1.0,"Street":[1.0],"HouseNumber":1.0,"PostalCode":1.0},"MatchType":"interpolated","Location":{"LocationId":"NT_jVN7Qq1ywm8369n1E5frWC_2MD","LocationType":"point","DisplayPosition":{"Latitude":54.59528,"Longitude":-5.70155},"MapView":{"TopLeft":{"Latitude":54.5964042,"Longitude":-5.7034904},"BottomRight":{"Latitude":54.5941558,"Longitude":-5.6996096}},"Address":{"Label":"63 West Street, Newtownards, BT23 4, United Kingdom","Country":"GBR","State":"Northern Ireland","County":"County Down","City":"Newtownards","District":"Newtownards","Street":"West Street","HouseNumber":"63","PostalCode":"BT23 4","AdditionalData":[{"value":"United Kingdom","key":"CountryName"},{"value":"Northern Ireland","key":"StateName"},{"value":"County Down","key":"CountyName"}]},"MapReference":{"ReferenceId":"564872509","Spot":0.32,"SideOfStreet":"right","StateId":"20403688","CountyId":"20411121","CityId":"20419241","DistrictId":"20419255","AddressId":"689593397","RoadLinkId":"84892502"}}},{"Relevance":1.0,"Distance":34.4,"MatchLevel":"houseNumber","MatchQuality":{"Country":1.0,"State":1.0,"County":1.0,"City":1.0,"District":1.0,"Street":[1.0],"HouseNumber":1.0,"PostalCode":1.0},"MatchType":"interpolated","Location":{"LocationId":"NT_UUCVU7lD-LcOc7mcM7Qu8C_xQD","LocationType":"point","DisplayPosition":{"Latitude":54.59559,"Longitude":-5.70055},"MapView":{"TopLeft":{"Latitude":54.5967142,"Longitude":-5.7024904},"BottomRight":{"Latitude":54.5944658,"Longitude":-5.6986096}},"Address":{"Label":"14 Thomas Street, Newtownards, BT23 4, United Kingdom","Country":"GBR","State":"Northern Ireland","County":"County Down","City":"Newtownards","District":"Newtownards","Street":"Thomas Street","HouseNumber":"14","PostalCode":"BT23 4","AdditionalData":[{"value":"United Kingdom","key":"CountryName"},{"value":"Northern Ireland","key":"StateName"},{"value":"County Down","key":"CountyName"}]},"MapReference":{"ReferenceId":"584108104","Spot":0.88,"SideOfStreet":"left","StateId":"20403688","CountyId":"20411121","CityId":"20419241","DistrictId":"20419255","AddressId":"342041035","RoadLinkId":"84928549"}}},{"Relevance":1.0,"Distance":37.3,"MatchLevel":"street","MatchQuality":{"Country":1.0,"State":1.0,"County":1.0,"City":1.0,"District":1.0,"Street":[1.0],"PostalCode":1.0},"Location":{"LocationId":"NT_knkltZlhd1LpYOaRJxIq9B_l_564869441_L","LocationType":"point","DisplayPosition":{"Latitude":54.59519,"Longitude":-5.70113},"MapView":{"TopLeft":{"Latitude":54.59519,"Longitude":-5.70141},"BottomRight":{"Latitude":54.59447,"Longitude":-5.70113}},"Address":{"Label":"James Street, Newtownards, BT23 4, United Kingdom","Country":"GBR","State":"Northern Ireland","County":"County Down","City":"Newtownards","District":"Newtownards","Street":"James Street","PostalCode":"BT23 4","AdditionalData":[{"value":"United Kingdom","key":"CountryName"},{"value":"Northern Ireland","key":"StateName"},{"value":"County Down","key":"CountyName"}]},"MapReference":{"ReferenceId":"564869441","Spot":1.0,"SideOfStreet":"left","StateId":"20403688","CountyId":"20411121","CityId":"20419241","DistrictId":"20419255"}}},{"Relevance":1.0,"Distance":40.1,"MatchLevel":"houseNumber","MatchQuality":{"Country":1.0,"State":1.0,"County":1.0,"City":1.0,"District":1.0,"Street":[1.0],"HouseNumber":1.0,"PostalCode":1.0},"MatchType":"interpolated","Location":{"LocationId":"NT_jVN7Qq1ywm8369n1E5frWC_1kD","LocationType":"point","DisplayPosition":{"Latitude":54.59514,"Longitude":-5.70086},"MapView":{"TopLeft":{"Latitude":54.5962642,"Longitude":-5.7028004},"BottomRight":{"Latitude":54.5940158,"Longitude":-5.6989196}},"Address":{"Label":"59 West Street, Newtownards, BT23 4EN, United Kingdom","Country":"GBR","State":"Northern Ireland","County":"County Down","City":"Newtownards","District":"Newtownards","Street":"West Street","HouseNumber":"59","PostalCode":"BT23 4EN","AdditionalData":[{"value":"United Kingdom","key":"CountryName"},{"value":"Northern Ireland","key":"StateName"},{"value":"County Down","key":"CountyName"}]},"MapReference":{"ReferenceId":"564869752","Spot":0.75,"SideOfStreet":"right","StateId":"20403688","CountyId":"20411121","CityId":"20419241","DistrictId":"20419255","AddressId":"689594082","RoadLinkId":"84880122"}}},{"Relevance":1.0,"Distance":59.2,"MatchLevel":"houseNumber","MatchQuality":{"Country":1.0,"State":1.0,"County":1.0,"City":1.0,"District":1.0,"Street":[1.0],"HouseNumber":1.0,"PostalCode":1.0},"MatchType":"interpolated","Location":{"LocationId":"NT_trxriHqOx7rNLWhzPKrMyC_4A","LocationType":"point","DisplayPosition":{"Latitude":54.59602,"Longitude":-5.70171},"MapView":{"TopLeft":{"Latitude":54.5971442,"Longitude":-5.7036504},"BottomRight":{"Latitude":54.5948958,"Longitude":-5.6997696}},"Address":{"Label":"8 William Street Mews, Newtownards, BT23 4, United Kingdom","Country":"GBR","State":"Northern Ireland","County":"County Down","City":"Newtownards","District":"Newtownards","Street":"William Street Mews","HouseNumber":"8","PostalCode":"BT23 4","AdditionalData":[{"value":"United Kingdom","key":"CountryName"},{"value":"Northern Ireland","key":"StateName"},{"value":"County Down","key":"CountyName"}]},"MapReference":{"ReferenceId":"564872521","Spot":0.16,"SideOfStreet":"right","StateId":"20403688","CountyId":"20411121","CityId":"20419241","DistrictId":"20419255","AddressId":"341905741","RoadLinkId":"84950767"}}},{"Relevance":1.0,"Distance":64.0,"MatchLevel":"houseNumber","MatchQuality":{"Country":1.0,"State":1.0,"County":1.0,"City":1.0,"District":1.0,"Street":[1.0],"HouseNumber":1.0,"PostalCode":1.0},"MatchType":"interpolated","Location":{"LocationId":"NT_UUCVU7lD-LcOc7mcM7Qu8C_yYD","LocationType":"point","DisplayPosition":{"Latitude":54.59606,"Longitude":-5.70027},"MapView":{"TopLeft":{"Latitude":54.5971842,"Longitude":-5.7022104},"BottomRight":{"Latitude":54.5949358,"Longitude":-5.6983296}},"Address":{"Label":"26 Thomas Street, Newtownards, BT23 4DS, United Kingdom","Country":"GBR","State":"Northern Ireland","County":"County Down","City":"Newtownards","District":"Newtownards","Street":"Thomas Street","HouseNumber":"26","PostalCode":"BT23 4DS","AdditionalData":[{"value":"United Kingdom","key":"CountryName"},{"value":"Northern Ireland","key":"StateName"},{"value":"County Down","key":"CountyName"}]},"MapReference":{"ReferenceId":"584108105","Spot":0.73,"SideOfStreet":"left","StateId":"20403688","CountyId":"20411121","CityId":"20419241","DistrictId":"20419255","AddressId":"341951241","RoadLinkId":"84941327"}}},{"Relevance":1.0,"Distance":64.0,"MatchLevel":"postalCode","MatchQuality":{"PostalCode":1.0},"MatchType":"interpolated","Location":{"LocationId":"NT_UUCVU7lD-LcOc7mcM7Qu8C_yYD","LocationType":"point","DisplayPosition":{"Latitude":54.59588,"Longitude":-5.70034},"MapView":{"TopLeft":{"Latitude":54.6048732,"Longitude":-5.7158632},"BottomRight":{"Latitude":54.5868868,"Longitude":-5.6848168}},"Address":{"Label":"BT23 4DS, Newtownards, Northern Ireland, United Kingdom","Country":"GBR","State":"Northern Ireland","County":"County Down","City":"Newtownards","PostalCode":"BT23 4DS","AdditionalData":[{"value":"United Kingdom","key":"CountryName"},{"value":"Northern Ireland","key":"StateName"},{"value":"County Down","key":"CountyName"}]},"MapReference":{"ReferenceId":"584108105","Spot":0.73,"SideOfStreet":"neither","StateId":"20403688","CountyId":"20411121","CityId":"20419241"}}}]}]}}