{"Response":{"MetaInfo":{"Timestamp":"2020-03-28T10:33:23.120+0000","NextPageInformation":"2"},"View":[{"_type":"SearchResultsViewType","ViewId":0,"Result":[{"Relevance":1.0,"Distance":0.0,"Direction":0.0,"MatchLevel":"district","MatchQuality":{"Country":1.0,"State":1.0,"County":1.0,"City":1.0,"District":1.0,"PostalCode":1.0},"Location":{"LocationId":"NT_sqxrbMTTG60D57.HJB9xCB","LocationType":"point","DisplayPosition":{"Latitude":54.6072363,"Longitude":-5.9357479},"MapView":{"TopLeft":{"Latitude":54.6477,"Longitude":-6.03279},"BottomRight":{"Latitude":54.54085,"Longitude":-5.81963}},"Address":{"Label":"Belfast, Northern Ireland, United Kingdom","Country":"GBR","State":"Northern Ireland","County":"County Antrim","City":"Belfast","District":"Belfast","PostalCode":"BT2 7","AdditionalData":[{"value":"United Kingdom","key":"CountryName"},{"value":"Northern Ireland","key":"StateName"},{"value":"County Antrim","key":"CountyName"}]},"MapReference":{"ReferenceId":"990664571","SideOfStreet":"neither","StateId":"20403688","CountyId":"20411119","CityId":"20412709","DistrictId":"20412710"}}},{"Relevance":1.0,"Distance":5.3,"MatchLevel":"houseNumber","MatchQuality":{"Country":1.0,"State":1.0,"County":1.0,"City":1.0,"District":1.0,"Street":[1.0],"HouseNumber":1.0,"PostalCode":1.0},"MatchType":"interpolated","Location":{"LocationId":"NT_RuUIVa.CYhzKpfhi76x.yD_xkD","LocationType":"point","DisplayPosition":{"Latitude":54.60719,"Longitude":-5.93591},"MapView":{"TopLeft":{"Latitude":54.6083142,"Longitude":-5.9378509},"BottomRight":{"Latitude":54.6060658,"Longitude":-5.9339691}},"Address":{"Label":"19 Clifton Street, Belfast, BT13 1, United Kingdom","Country":"GBR","State":"Northern Ireland","County":"County Antrim","City":"Belfast","District":"Belfast","Street":"Clifton Street","HouseNumber":"19","PostalCode":"BT13 1","AdditionalData":[{"value":"United Kingdom","key":"CountryName"},{"value":"Northern Ireland","key":"StateName"},{"value":"County Antrim","key":"CountyName"}]},"MapReference":{"ReferenceId":"1219737961","Spot":0.22,"SideOfStreet":"right","StateId":"20403688","CountyId":"20411119","CityId":"20412709","DistrictId":"20412710","AddressId":"341960128","RoadLinkId":"536722247"}}},{"Relevance":1.0,"Distance":9.4,"MatchLevel":"houseNumber","MatchQuality":{"Country":1.0,"State":1.0,"County":1.0,"City":1.0,"District":1.0,"Street":[1.0],"HouseNumber":1.0,"PostalCode":1.0},"MatchType":"interpolated","Location":{"LocationId":"NT_RuUIVa.CYhzKpfhi76x.yD_xUTLxcD","LocationType":"point","DisplayPosition":{"Latitude":54.6071,"Longitude":-5.93575},"MapView":{"TopLeft":{"Latitude":54.6082242,"Longitude":-5.9376909},"BottomRight":{"Latitude":54.6059758,"Longitude":-5.9338091}},"Address":{"Label":"15-17 Clifton Street, Belfast, BT13 1, United Kingdom","Country":"GBR","State":"Northern Ireland","County":"County Antrim","City":"Belfast","District":"Belfast","Street":"Clifton Street","HouseNumber":"15-17","PostalCode":"BT13 1","AdditionalData":[{"value":"United Kingdom","key":"CountryName"},{"value":"Northern Ireland","key":"StateName"},{"value":"County Antrim","key":"CountyName"}]},"MapReference":{"ReferenceId":"1219737960","Spot":0.65,"SideOfStreet":"right","StateId":"20403688","CountyId":"20411119","CityId":"20412709","DistrictId":"20412710","AddressId":"341960129","RoadLinkId":"536722246"}}},{"Relevance":1.0,"Distance":16.9,"MatchLevel":"houseNumber","MatchQuality":{"Country":1.0,"State":1.0,"County":1.0,"City":1.0,"District":1.0,"Street":[1.0],"HouseNumber":1.0,"PostalCode":1.0},"MatchType":"interpolated","Location":{"LocationId":"NT_8RHnIcX0Xeo5gS8FE26J4A_l_1219037965_L_yA","LocationType":"point","DisplayPosition":{"Latitude":54.60709,"Longitude":-5.9354},"MapView":{"TopLeft":{"Latitude":54.6082142,"Longitude":-5.9373409},"BottomRight":{"Latitude":54.6059659,"Longitude":-5.933459}},"Address":{"Label":"2 Henry Place, Belfast, BT15 2, United Kingdom","Country":"GBR","State":"Northern Ireland","County":"County Antrim","City":"Belfast","District":"Belfast","Street":"Henry Place","HouseNumber":"2","PostalCode":"BT15 2","AdditionalData":[{"value":"United Kingdom","key":"CountryName"},{"value":"Northern Ireland","key":"StateName"},{"value":"County Antrim","key":"CountyName"}]},"MapReference":{"ReferenceId":"1219037965","Spot":0.38,"SideOfStreet":"left","StateId":"20403688","CountyId":"20411119","CityId":"20412709","DistrictId":"20412710"}}},{"Relevance":1.0,"Distance":27.9,"MatchLevel":"houseNumber","MatchQuality":{"Country":1.0,"State":1.0,"County":1.0,"City":1.0,"District":1.0,"Street":[1.0],"HouseNumber":1.0,"PostalCode":1.0},"MatchType":"interpolated","Location":{"LocationId":"NT_RuUIVa.CYhzKpfhi76x.yD_ycD","LocationType":"point","DisplayPosition":{"Latitude":54.60732,"Longitude":-5.93617},"MapView":{"TopLeft":{"Latitude":54.6084442,"Longitude":-5.9381109},"BottomRight":{"Latitude":54.6061958,"Longitude":-5.9342291}},"Address":{"Label":"27 Clifton Street, Belfast, BT13 1AD, United Kingdom","Country":"GBR","State":"Northern Ireland","County":"County Antrim","City":"Belfast","District":"Belfast","Street":"Clifton Street","HouseNumber":"27","PostalCode":"BT13 1AD","AdditionalData":[{"value":"United Kingdom","key":"CountryName"},{"value":"Northern Ireland","key":"StateName"},{"value":"County Antrim","key":"CountyName"}]},"MapReference":{"ReferenceId":"1219036024","Spot":0.11,"SideOfStreet":"right","StateId":"20403688","CountyId":"20411119","CityId":"20412709","DistrictId":"20412710","AddressId":"341960126","RoadLinkId":"535834876"}}},{"Relevance":1.0,"Distance":27.9,"MatchLevel":"postalCode","MatchQuality":{"PostalCode":1.0},"MatchType":"interpolated","Location":{"LocationId":"NT_RuUIVa.CYhzKpfhi76x.yD_xkD","LocationType":"point","DisplayPosition":{"Latitude":54.60741,"Longitude":-5.93606},"MapView":{"TopLeft":{"Latitude":54.6164032,"Longitude":-5.9515876},"BottomRight":{"Latitude":54.5984168,"Longitude":-5.9205324}},"Address":{"Label":"BT13 1AD, Belfast, Northern Ireland, United Kingdom","Country":"GBR","State":"Northern Ireland","County":"County Antrim","City":"Belfast","PostalCode":"BT13 1AD","AdditionalData":[{"value":"United Kingdom","key":"CountryName"},{"value":"Northern Ireland","key":"StateName"},{"value":"County Antrim","key":"CountyName"}]},"MapReference":{"ReferenceId":"1219737961","Spot":0.22,"SideOfStreet":"neither","StateId":"20403688","CountyId":"20411119","CityId":"20412709"}}},{"Relevance":1.0,"Distance":33.6,"MatchLevel":"houseNumber","MatchQuality":{"Country":1.0,"State":1.0,"County":1.0,"City":1.0,"District":1.0,"Street":[1.0],"HouseNumber":1.0,"PostalCode":1.0},"MatchType":"interpolated","Location":{"LocationId":"NT_RuUIVa.CYhzKpfhi76x.yD_4ID","LocationType":"point","DisplayPosition":{"Latitude":54.60697,"Longitude":-5.9355},"MapView":{"TopLeft":{"Latitude":54.6080942,"Longitude":-5.9374409},"BottomRight":{"Latitude":54.6058458,"Longitude":-5.9335591}},"Address":{"Label":"82 Clifton Street, Belfast, BT13 1, United Kingdom","Country":"GBR","State":"Northern Ireland","County":"County Antrim","City":"Belfast","District":"Belfast","Street":"Clifton Street","HouseNumber":"82","PostalCode":"BT13 1","AdditionalData":[{"value":"United Kingdom","key":"CountryName"},{"value":"Northern Ireland","key":"StateName"},{"value":"County Antrim","key":"CountyName"}]},"MapReference":{"ReferenceId":"549393480","Spot":0.83,"SideOfStreet":"left","StateId":"20403688","CountyId":"20411119","CityId":"20412709","DistrictId":"20412710","AddressId":"342249594","RoadLinkId":"84898009"}}},{"Relevance":1.0,"Distance":35.2,"MatchLevel":"street","MatchQuality":{"Country":1.0,"State":1.0,"County":1.0,"City":1.0,"District":1.0,"Street":[1.0],"PostalCode":1.0},"Location":{"LocationId":"NT_FwyCeydNei3qG4jebDhQdD_l_990736682_R","LocationType":"point","DisplayPosition":{"Latitude":54.6075301,"Longitude":-5.9359499},"MapView":{"TopLeft":{"Latitude":54.60781,"Longitude":-5.93614},"BottomRight":{"Latitude":54.60749,"Longitude":-5.93579}},"Address":{"Label":"Hopewell Avenue, Belfast, BT15 2, United Kingdom","Country":"GBR","State":"Northern Ireland","County":"County Antrim","City":"Belfast","District":"Belfast","Street":"Hopewell Avenue","PostalCode":"BT15 2","AdditionalData":[{"value":"United Kingdom","key":"CountryName"},{"value":"Northern Ireland","key":"StateName"},{"value":"County Antrim","key":"CountyName"}]},"MapReference":{"ReferenceId":"990736682","Spot":0.3,"SideOfStreet":"right","StateId":"20403688","CountyId":"20411119","CityId":"20412709","DistrictId":"20412710"}}},{"Relevance":1.0,"Distance":42.7,"MatchLevel":"houseNumber","MatchQuality":{"Country":1.0,"State":1.0,"County":1.0,"City":1.0,"District":1.0,"Street":[1.0],"HouseNumber":1.0,"PostalCode":1.0},"MatchType":"interpolated","Location":{"LocationId":"NT_8RHnIcX0Xeo5gS8FE26J4A_00iM","LocationType":"point","DisplayPosition":{"Latitude":54.60732,"Longitude":-5.93502},"MapView":{"TopLeft":{"Latitude":54.6084442,"Longitude":-5.9369609},"BottomRight":{"Latitude":54.6061958,"Longitude":-5.9330791}},"Address":{"Label":"15-17 Henry Place, Belfast, BT15 2, United Kingdom","Country":"GBR","State":"Northern Ireland","County":"County Antrim","City":"Belfast","District":"Belfast","Street":"Henry Place","HouseNumber":"15-17","PostalCode":"BT15 2","AdditionalData":[{"value":"United Kingdom","key":"CountryName"},{"value":"Northern Ireland","key":"StateName"},{"value":"County Antrim","key":"CountyName"}]},"MapReference":{"ReferenceId":"1219037966","Spot":0.07,"SideOfStreet":"left","StateId":"20403688","CountyId":"20411119","CityId":"20412709","DistrictId":"20412710","AddressId":"741819209","RoadLinkId":"535837437"}}},{"Relevance":1.0,"Distance":48.6,"MatchLevel":"postalCode","MatchQuality":{"PostalCode":1.0},"MatchType":"interpolated","Location":{"LocationId":"NT_RuUIVa.CYhzKpfhi76x.yD_xUTLxcD","LocationType":"point","DisplayPosition":{"Latitude":54.60711,"Longitude":-5.93647},"MapView":{"TopLeft":{"Latitude":54.6161032,"Longitude":-5.9519975},"BottomRight":{"Latitude":54.5981168,"Longitude":-5.9209425}},"Address":{"Label":"BT13 1AB, Belfast, Northern Ireland, United Kingdom","Country":"GBR","State":"Northern Ireland","County":"County Antrim","City":"Belfast","PostalCode":"BT13 1AB","AdditionalData":[{"value":"United Kingdom","key":"CountryName"},{"value":"Northern Ireland","key":"StateName"},{"value":"County Antrim","key":"CountyName"}]},"MapReference":{"ReferenceId":"1219737960","Spot":0.65,"SideOfStreet":"neither","StateId":"20403688","CountyId":"20411119","CityId":"20412709"}}}]}]}}