{"Response":{"MetaInfo":{"Timestamp":"2020-03-28T10:38:58.133+0000","NextPageInformation":"2"},"View":[{"_type":"SearchResultsViewType","ViewId":0,"Result":[{"Relevance":1.0,"Distance":0.0,"Direction":0.0,"MatchLevel":"district","MatchQuality":{"Country":1.0,"State":1.0,"County":1.0,"City":1.0,"District":1.0,"PostalCode":1.0},"Location":{"LocationId":"NT_SUbTdSZ65VDnUyXE6pFTLA","LocationType":"point","DisplayPosition":{"Latitude":54.6614531,"Longitude":-1.1890967},"MapView":{"TopLeft":{"Latitude":54.67033,"Longitude":-1.21049},"BottomRight":{"Latitude":54.63588,"Longitude":-1.18566}},"Address":{"Label":"Seaton Carew, Hartlepool, England, United Kingdom","Country":"GBR","State":"England","County":"Cleveland","City":"Hartlepool","District":"Seaton Carew","PostalCode":"TS25 1","AdditionalData":[{"value":"United Kingdom","key":"CountryName"},{"value":"England","key":"StateName"},{"value":"Cleveland","key":"CountyName"}]},"MapReference":{"ReferenceId":"1169724152","SideOfStreet":"neither","StateId":"20248595","CountyId":"20345544","CityId":"20345559","DistrictId":"20345573"}}},{"Relevance":1.0,"Distance":2.6,"MatchLevel":"houseNumber","MatchQuality":{"Country":1.0,"State":1.0,"County":1.0,"City":1.0,"District":1.0,"Street":[1.0],"HouseNumber":1.0,"PostalCode":1.0},"MatchType":"interpolated","Location":{"LocationId":"NT_2w0LGfXPhpYGNTYGYdasCA_l_26914817_L_zA","LocationType":"point","DisplayPosition":{"Latitude":54.6614656,"Longitude":-1.1891311},"MapView":{"TopLeft":{"Latitude":54.6625898,"Longitude":-1.1910747},"BottomRight":{"Latitude":54.6603415,"Longitude":-1.1871876}},"Address":{"Label":"3 Victoria Street, Hartlepool, TS25 1AY, United Kingdom","Country":"GBR","State":"England","County":"Cleveland","City":"Hartlepool","District":"Seaton Carew","Street":"Victoria Street","HouseNumber":"3","PostalCode":"TS25 1AY","AdditionalData":[{"value":"United Kingdom","key":"CountryName"},{"value":"England","key":"StateName"},{"value":"Cleveland","key":"CountyName"}]},"MapReference":{"ReferenceId":"26914817","Spot":0.23,"SideOfStreet":"left","StateId":"20248595","CountyId":"20345544","CityId":"20345559","DistrictId":"20345573"}}},{"Relevance":1.0,"Distance":16.6,"MatchLevel":"houseNumber","MatchQuality":{"Country":1.0,"State":1.0,"County":1.0,"City":1.0,"District":1.0,"Street":[1.0],"HouseNumber":1.0,"PostalCode":1.0},"MatchType":"interpolated","Location":{"LocationId":"NT_9pqnK5AyacHnciM53hqzLC_l_78763188_L_yAD","LocationType":"point","DisplayPosition":{"Latitude":54.66126,"Longitude":-1.1888598},"MapView":{"TopLeft":{"Latitude":54.6623842,"Longitude":-1.1908034},"BottomRight":{"Latitude":54.6601358,"Longitude":-1.1869163}},"Address":{"Label":"20 Station Lane, Hartlepool, TS25 1AX, United Kingdom","Country":"GBR","State":"England","County":"Cleveland","City":"Hartlepool","District":"Seaton Carew","Street":"Station Lane","HouseNumber":"20","PostalCode":"TS25 1AX","AdditionalData":[{"value":"United Kingdom","key":"CountryName"},{"value":"England","key":"StateName"},{"value":"Cleveland","key":"CountyName"}]},"MapReference":{"ReferenceId":"78763188","Spot":0.25,"SideOfStreet":"left","StateId":"20248595","CountyId":"20345544","CityId":"20345559","DistrictId":"20345573"}}},{"Relevance":1.0,"Distance":20.3,"MatchLevel":"street","MatchQuality":{"Country":1.0,"State":1.0,"County":1.0,"City":1.0,"District":1.0,"Street":[1.0],"PostalCode":1.0},"Location":{"LocationId":"NT_9pqnK5AyacHnciM53hqzLC_l_26914818_R","LocationType":"point","DisplayPosition":{"Latitude":54.6612707,"Longitude":-1.1891094},"MapView":{"TopLeft":{"Latitude":54.66131,"Longitude":-1.18992},"BottomRight":{"Latitude":54.66127,"Longitude":-1.1891}},"Address":{"Label":"Station Lane, Hartlepool, TS25 1, United Kingdom","Country":"GBR","State":"England","County":"Cleveland","City":"Hartlepool","District":"Seaton Carew","Street":"Station Lane","PostalCode":"TS25 1","AdditionalData":[{"value":"United Kingdom","key":"CountryName"},{"value":"England","key":"StateName"},{"value":"Cleveland","key":"CountyName"}]},"MapReference":{"ReferenceId":"26914818","Spot":0.01,"SideOfStreet":"right","StateId":"20248595","CountyId":"20345544","CityId":"20345559","DistrictId":"20345573"}}},{"Relevance":1.0,"Distance":24.1,"MatchLevel":"postalCode","MatchQuality":{"PostalCode":1.0},"MatchType":"interpolated","Location":{"LocationId":"NT_2w0LGfXPhpYGNTYGYdasCA_l_26914817_L_zA","LocationType":"point","DisplayPosition":{"Latitude":54.66166,"Longitude":-1.18921},"MapView":{"TopLeft":{"Latitude":54.6706532,"Longitude":-1.2047583},"BottomRight":{"Latitude":54.6526668,"Longitude":-1.1736617}},"Address":{"Label":"TS25 1AY, Hartlepool, England, United Kingdom","Country":"GBR","State":"England","County":"Cleveland","City":"Hartlepool","PostalCode":"TS25 1AY","AdditionalData":[{"value":"United Kingdom","key":"CountryName"},{"value":"England","key":"StateName"},{"value":"Cleveland","key":"CountyName"}]},"MapReference":{"ReferenceId":"26914817","Spot":0.23,"SideOfStreet":"neither","StateId":"20248595","CountyId":"20345544","CityId":"20345559"}}},{"Relevance":1.0,"Distance":38.0,"MatchLevel":"postalCode","MatchQuality":{"PostalCode":1.0},"MatchType":"interpolated","Location":{"LocationId":"NT_9pqnK5AyacHnciM53hqzLC_l_78763188_L_yAD","LocationType":"point","DisplayPosition":{"Latitude":54.66131,"Longitude":-1.18856},"MapView":{"TopLeft":{"Latitude":54.6703032,"Longitude":-1.2041082},"BottomRight":{"Latitude":54.6523168,"Longitude":-1.1730118}},"Address":{"Label":"TS25 1AX, Hartlepool, England, United Kingdom","Country":"GBR","State":"England","County":"Cleveland","City":"Hartlepool","PostalCode":"TS25 1AX","AdditionalData":[{"value":"United Kingdom","key":"CountryName"},{"value":"England","key":"StateName"},{"value":"Cleveland","key":"CountyName"}]},"MapReference":{"ReferenceId":"78763188","Spot":0.25,"SideOfStreet":"neither","StateId":"20248595","CountyId":"20345544","CityId":"20345559"}}},{"Relevance":1.0,"Distance":43.7,"MatchLevel":"houseNumber","MatchQuality":{"Country":1.0,"State":1.0,"County":1.0,"City":1.0,"District":1.0,"Street":[1.0],"HouseNumber":1.0,"PostalCode":1.0},"MatchType":"interpolated","Location":{"LocationId":"NT_HR-v2b9-O9Qqr0qn6XpcsD_l_26914814_R_yA","LocationType":"point","DisplayPosition":{"Latitude":54.6614401,"Longitude":-1.18991},"MapView":{"TopLeft":{"Latitude":54.6625642,"Longitude":-1.1918535},"BottomRight":{"Latitude":54.6603159,"Longitude":-1.1879665}},"Address":{"Label":"2 Queen Terrace, Hartlepool, TS25 1BE, United Kingdom","Country":"GBR","State":"England","County":"Cleveland","City":"Hartlepool","District":"Seaton Carew","Street":"Queen Terrace","HouseNumber":"2","PostalCode":"TS25 1BE","AdditionalData":[{"value":"United Kingdom","key":"CountryName"},{"value":"England","key":"StateName"},{"value":"Cleveland","key":"CountyName"}]},"MapReference":{"ReferenceId":"26914814","Spot":0.21,"SideOfStreet":"right","StateId":"20248595","CountyId":"20345544","CityId":"20345559","DistrictId":"20345573"}}},{"Relevance":1.0,"Distance":53.6,"MatchLevel":"postalCode","MatchQuality":{"PostalCode":1.0},"MatchType":"interpolated","Location":{"LocationId":"NT_HR-v2b9-O9Qqr0qn6XpcsD_l_26914814_R_yA","LocationType":"point","DisplayPosition":{"Latitude":54.66166,"Longitude":-1.18985},"MapView":{"TopLeft":{"Latitude":54.6706532,"Longitude":-1.2053983},"BottomRight":{"Latitude":54.6526668,"Longitude":-1.1743017}},"Address":{"Label":"TS25 1BE, Hartlepool, England, United Kingdom","Country":"GBR","State":"England","County":"Cleveland","City":"Hartlepool","PostalCode":"TS25 1BE","AdditionalData":[{"value":"United Kingdom","key":"CountryName"},{"value":"England","key":"StateName"},{"value":"Cleveland","key":"CountyName"}]},"MapReference":{"ReferenceId":"26914814","Spot":0.21,"SideOfStreet":"neither","StateId":"20248595","CountyId":"20345544","CityId":"20345559"}}},{"Relevance":1.0,"Distance":55.5,"MatchLevel":"postalCode","MatchQuality":{"PostalCode":1.0},"Location":{"LocationId":"NT_AUJAGixfrrTRB-xpbCUjCD_l_78763190_L","LocationType":"point","DisplayPosition":{"Latitude":54.66151,"Longitude":-1.18824},"MapView":{"TopLeft":{"Latitude":54.6705032,"Longitude":-1.2037883},"BottomRight":{"Latitude":54.6525168,"Longitude":-1.1726917}},"Address":{"Label":"TS25 1BF, Hartlepool, England, United Kingdom","Country":"GBR","State":"England","County":"Cleveland","City":"Hartlepool","PostalCode":"TS25 1BF","AdditionalData":[{"value":"United Kingdom","key":"CountryName"},{"value":"England","key":"StateName"},{"value":"Cleveland","key":"CountyName"}]},"MapReference":{"ReferenceId":"78763190","Spot":1.0,"SideOfStreet":"neither","StateId":"20248595","CountyId":"20345544","CityId":"20345559"}}},{"Relevance":1.0,"Distance":58.1,"MatchLevel":"street","MatchQuality":{"Country":1.0,"State":1.0,"County":1.0,"City":1.0,"District":1.0,"Street":[1.0],"PostalCode":1.0},"Location":{"LocationId":"NT_AUJAGixfrrTRB-xpbCUjCD_l_78763190_L","LocationType":"point","DisplayPosition":{"Latitude":54.66152,"Longitude":-1.1882},"MapView":{"TopLeft":{"Latitude":54.66152,"Longitude":-1.1882},"BottomRight":{"Latitude":54.66127,"Longitude":-1.18814}},"Address":{"Label":"Belgrave Court, Hartlepool, TS25 1, United Kingdom","Country":"GBR","State":"England","County":"Cleveland","City":"Hartlepool","District":"Seaton Carew","Street":"Belgrave Court","PostalCode":"TS25 1","AdditionalData":[{"value":"United Kingdom","key":"CountryName"},{"value":"England","key":"StateName"},{"value":"Cleveland","key":"CountyName"}]},"MapReference":{"ReferenceId":"78763190","Spot":1.0,"SideOfStreet":"left","StateId":"20248595","CountyId":"20345544","CityId":"20345559","DistrictId":"20345573"}}}]}]}}