{"Response":{"MetaInfo":{"Timestamp":"2020-03-28T10:48:36.880+0000","NextPageInformation":"2"},"View":[{"_type":"SearchResultsViewType","ViewId":0,"Result":[{"Relevance":1.0,"Distance":0.0,"Direction":0.0,"MatchLevel":"district","MatchQuality":{"Country":1.0,"State":1.0,"County":1.0,"City":1.0,"District":1.0,"PostalCode":1.0},"Location":{"LocationId":"NT_6.hnSRo70EW8THPKxQrfpA","LocationType":"point","DisplayPosition":{"Latitude":54.6020954,"Longitude":18.8045308},"MapView":{"TopLeft":{"Latitude":54.61448,"Longitude":18.79375},"BottomRight":{"Latitude":54.59391,"Longitude":18.81906}},"Address":{"Label":"Hel, Woj. Pomorskie, Polska","Country":"POL","State":"Woj. Pomorskie","County":"Powiat Pucki","City":"Hel","District":"Hel","PostalCode":"84-150","AdditionalData":[{"value":"Polska","key":"CountryName"},{"value":"Woj. Pomorskie","key":"StateName"},{"value":"Powiat Pucki","key":"CountyName"}]},"MapReference":{"ReferenceId":"957650503","SideOfStreet":"neither","CountryId":"20624059","StateId":"20628728","CountyId":"20628889","CityId":"20628890","DistrictId":"20692775"}}},{"Relevance":1.0,"Distance":5.0,"MatchLevel":"houseNumber","MatchQuality":{"Country":1.0,"State":1.0,"County":1.0,"City":1.0,"District":1.0,"Street":[1.0],"HouseNumber":1.0,"PostalCode":1.0},"MatchType":"interpolated","Location":{"LocationId":"NT_mTHHMRxf-QYTuL8fC6E8UB_xIDM","LocationType":"point","DisplayPosition":{"Latitude":54.60207,"Longitude":18.80463},"MapView":{"TopLeft":{"Latitude":54.6031942,"Longitude":18.8026893},"BottomRight":{"Latitude":54.6009458,"Longitude":18.8065707}},"Address":{"Label":"ulica Wiejska 120, 84-150 Hel, Polska","Country":"POL","State":"Woj. Pomorskie","County":"Powiat Pucki","City":"Hel","District":"Hel","Street":"ulica Wiejska","HouseNumber":"120","PostalCode":"84-150","AdditionalData":[{"value":"Polska","key":"CountryName"},{"value":"Woj. Pomorskie","key":"StateName"},{"value":"Powiat Pucki","key":"CountyName"}]},"MapReference":{"ReferenceId":"594931405","Spot":0.6,"SideOfStreet":"left","CountryId":"20624059","StateId":"20628728","CountyId":"20628889","CityId":"20628890","DistrictId":"20692775","AddressId":"701921371","RoadLinkId":"95168097"}}},{"Relevance":1.0,"Distance":52.5,"MatchLevel":"houseNumber","MatchQuality":{"Country":1.0,"State":1.0,"County":1.0,"City":1.0,"District":1.0,"Street":[1.0],"HouseNumber":1.0,"PostalCode":1.0},"MatchType":"interpolated","Location":{"LocationId":"NT_dA3zi319igT3bbyRdJHDTB_yA","LocationType":"point","DisplayPosition":{"Latitude":54.60264,"Longitude":18.80485},"MapView":{"TopLeft":{"Latitude":54.6037642,"Longitude":18.8029093},"BottomRight":{"Latitude":54.6015158,"Longitude":18.8067907}},"Address":{"Label":"ulica Leśna 2, 84-150 Hel, Polska","Country":"POL","State":"Woj. Pomorskie","County":"Powiat Pucki","City":"Hel","District":"Hel","Street":"ulica Leśna","HouseNumber":"2","PostalCode":"84-150","AdditionalData":[{"value":"Polska","key":"CountryName"},{"value":"Woj. Pomorskie","key":"StateName"},{"value":"Powiat Pucki","key":"CountyName"}]},"MapReference":{"ReferenceId":"722329322","Spot":0.24,"SideOfStreet":"right","CountryId":"20624059","StateId":"20628728","CountyId":"20628889","CityId":"20628890","DistrictId":"20692775","AddressId":"209873388","RoadLinkId":"126144187"}}},{"Relevance":1.0,"Distance":58.7,"MatchLevel":"houseNumber","MatchQuality":{"Country":1.0,"State":1.0,"County":1.0,"City":1.0,"District":1.0,"Street":[1.0],"HouseNumber":1.0,"PostalCode":1.0},"MatchType":"interpolated","Location":{"LocationId":"NT_mTHHMRxf-QYTuL8fC6E8UB_xEjM","LocationType":"point","DisplayPosition":{"Latitude":54.60261,"Longitude":18.80433},"MapView":{"TopLeft":{"Latitude":54.6037342,"Longitude":18.8023893},"BottomRight":{"Latitude":54.6014858,"Longitude":18.8062707}},"Address":{"Label":"ulica Wiejska 112, 84-150 Hel, Polska","Country":"POL","State":"Woj. Pomorskie","County":"Powiat Pucki","City":"Hel","District":"Hel","Street":"ulica Wiejska","HouseNumber":"112","PostalCode":"84-150","AdditionalData":[{"value":"Polska","key":"CountryName"},{"value":"Woj. Pomorskie","key":"StateName"},{"value":"Powiat Pucki","key":"CountyName"}]},"MapReference":{"ReferenceId":"594931321","Spot":0.02,"SideOfStreet":"left","CountryId":"20624059","StateId":"20628728","CountyId":"20628889","CityId":"20628890","DistrictId":"20692775","AddressId":"210188926","RoadLinkId":"95049193"}}},{"Relevance":1.0,"Distance":59.7,"MatchLevel":"street","MatchQuality":{"Country":1.0,"State":1.0,"County":1.0,"City":1.0,"District":1.0,"Street":[1.0],"PostalCode":1.0},"Location":{"LocationId":"NT_4QzoiNPzaHGqnnK8B8dIhA_l_722330469_R","LocationType":"point","DisplayPosition":{"Latitude":54.6016759,"Longitude":18.8039516},"MapView":{"TopLeft":{"Latitude":54.6046,"Longitude":18.80209},"BottomRight":{"Latitude":54.60017,"Longitude":18.8051}},"Address":{"Label":"ulica Maszopów, 84-150 Hel, Polska","Country":"POL","State":"Woj. Pomorskie","County":"Powiat Pucki","City":"Hel","District":"Hel","Street":"ulica Maszopów","PostalCode":"84-150","AdditionalData":[{"value":"Polska","key":"CountryName"},{"value":"Woj. Pomorskie","key":"StateName"},{"value":"Powiat Pucki","key":"CountyName"}]},"MapReference":{"ReferenceId":"722330469","Spot":0.36,"SideOfStreet":"right","CountryId":"20624059","StateId":"20628728","CountyId":"20628889","CityId":"20628890","DistrictId":"20692775"}}},{"Relevance":1.0,"Distance":84.0,"MatchLevel":"street","MatchQuality":{"Country":1.0,"State":1.0,"County":1.0,"City":1.0,"District":1.0,"PostalCode":1.0},"Location":{"LocationId":"NT_L9fg42n.GMrlFTf7.pQmaA_l_826667783_R","LocationType":"point","DisplayPosition":{"Latitude":54.60144,"Longitude":18.80518},"MapView":{"TopLeft":{"Latitude":54.60147,"Longitude":18.80518},"BottomRight":{"Latitude":54.6014,"Longitude":18.80546}},"Address":{"Label":"84-150 Hel, Polska","Country":"POL","State":"Woj. Pomorskie","County":"Powiat Pucki","City":"Hel","District":"Hel","PostalCode":"84-150","AdditionalData":[{"value":"Polska","key":"CountryName"},{"value":"Woj. Pomorskie","key":"StateName"},{"value":"Powiat Pucki","key":"CountyName"}]},"MapReference":{"ReferenceId":"826667783","Spot":1.0,"SideOfStreet":"right","CountryId":"20624059","StateId":"20628728","CountyId":"20628889","CityId":"20628890","DistrictId":"20692775"}}},{"Relevance":1.0,"Distance":84.0,"MatchLevel":"street","MatchQuality":{"Country":1.0,"State":1.0,"County":1.0,"City":1.0,"District":1.0,"PostalCode":1.0},"Location":{"LocationId":"NT_L9fg42n.GMrlFTf7.pQmaA_l_826667782_L","LocationType":"point","DisplayPosition":{"Latitude":54.60144,"Longitude":18.80518},"MapView":{"TopLeft":{"Latitude":54.60144,"Longitude":18.80517},"BottomRight":{"Latitude":54.60132,"Longitude":18.80536}},"Address":{"Label":"84-150 Hel, Polska","Country":"POL","State":"Woj. Pomorskie","County":"Powiat Pucki","City":"Hel","District":"Hel","PostalCode":"84-150","AdditionalData":[{"value":"Polska","key":"CountryName"},{"value":"Woj. Pomorskie","key":"StateName"},{"value":"Powiat Pucki","key":"CountyName"}]},"MapReference":{"ReferenceId":"826667782","Spot":1.0,"SideOfStreet":"left","CountryId":"20624059","StateId":"20628728","CountyId":"20628889","CityId":"20628890","DistrictId":"20692775"}}},{"Relevance":1.0,"Distance":101.4,"MatchLevel":"street","MatchQuality":{"Country":1.0,"State":1.0,"County":1.0,"City":1.0,"District":1.0,"PostalCode":1.0},"Location":{"LocationId":"NT_L9fg42n.GMrlFTf7.pQmaA_l_826667784_L","LocationType":"point","DisplayPosition":{"Latitude":54.60132,"Longitude":18.80536},"MapView":{"TopLeft":{"Latitude":54.6014,"Longitude":18.80536},"BottomRight":{"Latitude":54.60132,"Longitude":18.80546}},"Address":{"Label":"84-150 Hel, Polska","Country":"POL","State":"Woj. Pomorskie","County":"Powiat Pucki","City":"Hel","District":"Hel","PostalCode":"84-150","AdditionalData":[{"value":"Polska","key":"CountryName"},{"value":"Woj. Pomorskie","key":"StateName"},{"value":"Powiat Pucki","key":"CountyName"}]},"MapReference":{"ReferenceId":"826667784","Spot":0.0,"SideOfStreet":"left","CountryId":"20624059","StateId":"20628728","CountyId":"20628889","CityId":"20628890","DistrictId":"20692775"}}},{"Relevance":1.0,"Distance":118.6,"MatchLevel":"houseNumber","MatchQuality":{"Country":1.0,"State":1.0,"County":1.0,"City":1.0,"District":1.0,"Street":[1.0],"HouseNumber":1.0,"PostalCode":1.0},"MatchType":"interpolated","Location":{"LocationId":"NT_dA3zi319igT3bbyRdJHDTB_4EE","LocationType":"point","DisplayPosition":{"Latitude":54.60222,"Longitude":18.80674},"MapView":{"TopLeft":{"Latitude":54.6033442,"Longitude":18.8047993},"BottomRight":{"Latitude":54.6010958,"Longitude":18.8086807}},"Address":{"Label":"ulica Leśna 8A, 84-150 Hel, Polska","Country":"POL","State":"Woj. Pomorskie","County":"Powiat Pucki","City":"Hel","District":"Hel","Street":"ulica Leśna","HouseNumber":"8A","PostalCode":"84-150","AdditionalData":[{"value":"Polska","key":"CountryName"},{"value":"Woj. Pomorskie","key":"StateName"},{"value":"Powiat Pucki","key":"CountyName"}]},"MapReference":{"ReferenceId":"722329325","Spot":0.0,"SideOfStreet":"left","CountryId":"20624059","StateId":"20628728","CountyId":"20628889","CityId":"20628890","DistrictId":"20692775","AddressId":"701939730","RoadLinkId":"126144190"}}},{"Relevance":1.0,"Distance":137.9,"MatchLevel":"houseNumber","MatchQuality":{"Country":1.0,"State":1.0,"County":1.0,"City":1.0,"District":1.0,"Street":[1.0],"HouseNumber":1.0,"PostalCode":1.0},"MatchType":"interpolated","Location":{"LocationId":"NT_-SBQv9UpWHJD3aYwYpOWUC_xA","LocationType":"point","DisplayPosition":{"Latitude":54.60124,"Longitude":18.80608},"MapView":{"TopLeft":{"Latitude":54.6023642,"Longitude":18.8041393},"BottomRight":{"Latitude":54.6001158,"Longitude":18.8080207}},"Address":{"Label":"ulica Bałtycka 1, 84-150 Hel, Polska","Country":"POL","State":"Woj. Pomorskie","County":"Powiat Pucki","City":"Hel","District":"Hel","Street":"ulica Bałtycka","HouseNumber":"1","PostalCode":"84-150","AdditionalData":[{"value":"Polska","key":"CountryName"},{"value":"Woj. Pomorskie","key":"StateName"},{"value":"Powiat Pucki","key":"CountyName"}]},"MapReference":{"ReferenceId":"594931422","Spot":0.51,"SideOfStreet":"right","CountryId":"20624059","StateId":"20628728","CountyId":"20628889","CityId":"20628890","DistrictId":"20692775","AddressId":"210824220","RoadLinkId":"95179447"}}}]}]}}