{"Response":{"MetaInfo":{"Timestamp":"2020-03-28T10:09:00.279+0000","NextPageInformation":"2"},"View":[{"_type":"SearchResultsViewType","ViewId":0,"Result":[{"Relevance":1.0,"Distance":0.0,"Direction":0.0,"MatchLevel":"district","MatchQuality":{"Country":1.0,"State":1.0,"County":1.0,"City":1.0,"District":1.0,"PostalCode":1.0},"Location":{"LocationId":"NT_vvlsT-ezZ9u59js4ykmH0B","LocationType":"point","DisplayPosition":{"Latitude":54.6945869,"Longitude":-5.8655899},"MapView":{"TopLeft":{"Latitude":54.70812,"Longitude":-5.88896},"BottomRight":{"Latitude":54.68454,"Longitude":-5.84847}},"Address":{"Label":"Greenisland, Carrickfergus, Northern Ireland, United Kingdom","Country":"GBR","State":"Northern Ireland","County":"County Antrim","City":"Carrickfergus","District":"Greenisland","PostalCode":"BT38 8","AdditionalData":[{"value":"United Kingdom","key":"CountryName"},{"value":"Northern Ireland","key":"StateName"},{"value":"County Antrim","key":"CountyName"}]},"MapReference":{"ReferenceId":"562627281","SideOfStreet":"neither","StateId":"20403688","CountyId":"20411119","CityId":"20419067","DistrictId":"20419070"}}},{"Relevance":1.0,"Distance":5.8,"MatchLevel":"houseNumber","MatchQuality":{"Country":1.0,"State":1.0,"County":1.0,"City":1.0,"District":1.0,"Street":[1.0],"HouseNumber":1.0,"PostalCode":1.0},"MatchType":"interpolated","Location":{"LocationId":"NT_.ChAWGCqz.tjQTi90RhXJB_1AD","LocationType":"point","DisplayPosition":{"Latitude":54.69466,"Longitude":-5.86528},"MapView":{"TopLeft":{"Latitude":54.6957842,"Longitude":-5.8672251},"BottomRight":{"Latitude":54.6935358,"Longitude":-5.8633349}},"Address":{"Label":"50 Station Road, Carrickfergus, BT38 8, United Kingdom","Country":"GBR","State":"Northern Ireland","County":"County Antrim","City":"Carrickfergus","District":"Greenisland","Street":"Station Road","HouseNumber":"50","PostalCode":"BT38 8","AdditionalData":[{"value":"United Kingdom","key":"CountryName"},{"value":"Northern Ireland","key":"StateName"},{"value":"County Antrim","key":"CountyName"}]},"MapReference":{"ReferenceId":"562628390","Spot":0.73,"SideOfStreet":"left","StateId":"20403688","CountyId":"20411119","CityId":"20419067","DistrictId":"20419070","AddressId":"341796825","RoadLinkId":"84861314"}}},{"Relevance":1.0,"Distance":25.0,"MatchLevel":"postalCode","MatchQuality":{"PostalCode":1.0},"MatchType":"interpolated","Location":{"LocationId":"NT_.ChAWGCqz.tjQTi90RhXJB_1AD","LocationType":"point","DisplayPosition":{"Latitude":54.69473,"Longitude":-5.86589},"MapView":{"TopLeft":{"Latitude":54.7037232,"Longitude":-5.881451},"BottomRight":{"Latitude":54.6857368,"Longitude":-5.850329}},"Address":{"Label":"BT38 8UR, Carrickfergus, Northern Ireland, United Kingdom","Country":"GBR","State":"Northern Ireland","County":"County Antrim","City":"Carrickfergus","PostalCode":"BT38 8UR","AdditionalData":[{"value":"United Kingdom","key":"CountryName"},{"value":"Northern Ireland","key":"StateName"},{"value":"County Antrim","key":"CountyName"}]},"MapReference":{"ReferenceId":"562628390","Spot":0.73,"SideOfStreet":"neither","StateId":"20403688","CountyId":"20411119","CityId":"20419067"}}},{"Relevance":1.0,"Distance":34.2,"MatchLevel":"houseNumber","MatchQuality":{"Country":1.0,"State":1.0,"County":1.0,"City":1.0,"District":1.0,"Street":[1.0],"HouseNumber":1.0,"PostalCode":1.0},"MatchType":"interpolated","Location":{"LocationId":"NT_f6w8XpoXTQxJi.cuilQ-QC_yA","LocationType":"point","DisplayPosition":{"Latitude":54.69474,"Longitude":-5.86629},"MapView":{"TopLeft":{"Latitude":54.6958642,"Longitude":-5.8682351},"BottomRight":{"Latitude":54.6936158,"Longitude":-5.8643449}},"Address":{"Label":"2 Knockleigh Drive, Carrickfergus, BT38 8, United Kingdom","Country":"GBR","State":"Northern Ireland","County":"County Antrim","City":"Carrickfergus","District":"Greenisland","Street":"Knockleigh Drive","HouseNumber":"2","PostalCode":"BT38 8","AdditionalData":[{"value":"United Kingdom","key":"CountryName"},{"value":"Northern Ireland","key":"StateName"},{"value":"County Antrim","key":"CountyName"}]},"MapReference":{"ReferenceId":"562627282","Spot":0.44,"SideOfStreet":"right","StateId":"20403688","CountyId":"20411119","CityId":"20419067","DistrictId":"20419070","AddressId":"341728243","RoadLinkId":"84942417"}}},{"Relevance":1.0,"Distance":64.0,"MatchLevel":"houseNumber","MatchQuality":{"Country":1.0,"State":1.0,"County":1.0,"City":1.0,"District":1.0,"Street":[1.0],"HouseNumber":1.0,"PostalCode":1.0},"MatchType":"interpolated","Location":{"LocationId":"NT_.ChAWGCqz.tjQTi90RhXJB_2AD","LocationType":"point","DisplayPosition":{"Latitude":54.69513,"Longitude":-5.86592},"MapView":{"TopLeft":{"Latitude":54.6962542,"Longitude":-5.8678651},"BottomRight":{"Latitude":54.6940058,"Longitude":-5.8639749}},"Address":{"Label":"60 Station Road, Carrickfergus, BT38 8UP, United Kingdom","Country":"GBR","State":"Northern Ireland","County":"County Antrim","City":"Carrickfergus","District":"Greenisland","Street":"Station Road","HouseNumber":"60","PostalCode":"BT38 8UP","AdditionalData":[{"value":"United Kingdom","key":"CountryName"},{"value":"Northern Ireland","key":"StateName"},{"value":"County Antrim","key":"CountyName"}]},"MapReference":{"ReferenceId":"562629112","Spot":0.21,"SideOfStreet":"left","StateId":"20403688","CountyId":"20411119","CityId":"20419067","DistrictId":"20419070","AddressId":"341741727","RoadLinkId":"84926575"}}},{"Relevance":1.0,"Distance":65.4,"MatchLevel":"houseNumber","MatchQuality":{"Country":1.0,"State":1.0,"County":1.0,"City":1.0,"District":1.0,"Street":[1.0],"HouseNumber":1.0,"PostalCode":1.0},"MatchType":"interpolated","Location":{"LocationId":"NT_f6w8XpoXTQxJi.cuilQ-QC_xQD","LocationType":"point","DisplayPosition":{"Latitude":54.69454,"Longitude":-5.86673},"MapView":{"TopLeft":{"Latitude":54.6956642,"Longitude":-5.8686751},"BottomRight":{"Latitude":54.6934158,"Longitude":-5.8647849}},"Address":{"Label":"14 Knockleigh Drive, Carrickfergus, BT38 8UT, United Kingdom","Country":"GBR","State":"Northern Ireland","County":"County Antrim","City":"Carrickfergus","District":"Greenisland","Street":"Knockleigh Drive","HouseNumber":"14","PostalCode":"BT38 8UT","AdditionalData":[{"value":"United Kingdom","key":"CountryName"},{"value":"Northern Ireland","key":"StateName"},{"value":"County Antrim","key":"CountyName"}]},"MapReference":{"ReferenceId":"562629111","Spot":1.0,"SideOfStreet":"right","StateId":"20403688","CountyId":"20411119","CityId":"20419067","DistrictId":"20419070","AddressId":"342132917","RoadLinkId":"84904561"}}},{"Relevance":1.0,"Distance":73.0,"MatchLevel":"houseNumber","MatchQuality":{"Country":1.0,"State":1.0,"County":1.0,"City":1.0,"District":1.0,"Street":[1.0],"HouseNumber":1.0,"PostalCode":1.0},"MatchType":"interpolated","Location":{"LocationId":"NT_bzcZNCCxqFsnBoC863ojXB_xA","LocationType":"point","DisplayPosition":{"Latitude":54.69467,"Longitude":-5.8669},"MapView":{"TopLeft":{"Latitude":54.6957942,"Longitude":-5.8688451},"BottomRight":{"Latitude":54.6935458,"Longitude":-5.8649549}},"Address":{"Label":"1 Faunoran Park, Carrickfergus, BT38 8UU, United Kingdom","Country":"GBR","State":"Northern Ireland","County":"County Antrim","City":"Carrickfergus","District":"Greenisland","Street":"Faunoran Park","HouseNumber":"1","PostalCode":"BT38 8UU","AdditionalData":[{"value":"United Kingdom","key":"CountryName"},{"value":"Northern Ireland","key":"StateName"},{"value":"County Antrim","key":"CountyName"}]},"MapReference":{"ReferenceId":"562629105","Spot":0.19,"SideOfStreet":"right","StateId":"20403688","CountyId":"20411119","CityId":"20419067","DistrictId":"20419070","AddressId":"342136434","RoadLinkId":"84894797"}}},{"Relevance":1.0,"Distance":88.0,"MatchLevel":"houseNumber","MatchQuality":{"Country":1.0,"State":1.0,"County":1.0,"City":1.0,"District":1.0,"Street":[1.0],"HouseNumber":1.0,"PostalCode":1.0},"MatchType":"interpolated","Location":{"LocationId":"NT_R.tYk02GouW9kn3RK-HwED_0ID","LocationType":"point","DisplayPosition":{"Latitude":54.69536,"Longitude":-5.8646},"MapView":{"TopLeft":{"Latitude":54.6964842,"Longitude":-5.8665452},"BottomRight":{"Latitude":54.6942358,"Longitude":-5.8626548}},"Address":{"Label":"42 Longfield Gardens, Carrickfergus, BT38 8TR, United Kingdom","Country":"GBR","State":"Northern Ireland","County":"County Antrim","City":"Carrickfergus","District":"Greenisland","Street":"Longfield Gardens","HouseNumber":"42","PostalCode":"BT38 8TR","AdditionalData":[{"value":"United Kingdom","key":"CountryName"},{"value":"Northern Ireland","key":"StateName"},{"value":"County Antrim","key":"CountyName"}]},"MapReference":{"ReferenceId":"562629098","Spot":0.89,"SideOfStreet":"left","StateId":"20403688","CountyId":"20411119","CityId":"20419067","DistrictId":"20419070","AddressId":"341987074","RoadLinkId":"84847905"}}},{"Relevance":1.0,"Distance":100.3,"MatchLevel":"houseNumber","MatchQuality":{"Country":1.0,"State":1.0,"County":1.0,"City":1.0,"District":1.0,"Street":[1.0],"HouseNumber":1.0,"PostalCode":1.0},"MatchType":"interpolated","Location":{"LocationId":"NT_R.tYk02GouW9kn3RK-HwED_0YD","LocationType":"point","DisplayPosition":{"Latitude":54.69546,"Longitude":-5.8652},"MapView":{"TopLeft":{"Latitude":54.6965842,"Longitude":-5.8671452},"BottomRight":{"Latitude":54.6943358,"Longitude":-5.8632548}},"Address":{"Label":"46 Longfield Gardens, Carrickfergus, BT38 8TR, United Kingdom","Country":"GBR","State":"Northern Ireland","County":"County Antrim","City":"Carrickfergus","District":"Greenisland","Street":"Longfield Gardens","HouseNumber":"46","PostalCode":"BT38 8TR","AdditionalData":[{"value":"United Kingdom","key":"CountryName"},{"value":"Northern Ireland","key":"StateName"},{"value":"County Antrim","key":"CountyName"}]},"MapReference":{"ReferenceId":"562627295","Spot":0.89,"SideOfStreet":"right","StateId":"20403688","CountyId":"20411119","CityId":"20419067","DistrictId":"20419070","AddressId":"341987076","RoadLinkId":"84858855"}}},{"Relevance":1.0,"Distance":111.0,"MatchLevel":"postalCode","MatchQuality":{"PostalCode":1.0},"MatchType":"interpolated","Location":{"LocationId":"NT_R.tYk02GouW9kn3RK-HwED_0ID","LocationType":"point","DisplayPosition":{"Latitude":54.69513,"Longitude":-5.86414},"MapView":{"TopLeft":{"Latitude":54.7041232,"Longitude":-5.8797012},"BottomRight":{"Latitude":54.6861368,"Longitude":-5.8485788}},"Address":{"Label":"BT38 8TR, Carrickfergus, Northern Ireland, United Kingdom","Country":"GBR","State":"Northern Ireland","County":"County Antrim","City":"Carrickfergus","PostalCode":"BT38 8TR","AdditionalData":[{"value":"United Kingdom","key":"CountryName"},{"value":"Northern Ireland","key":"StateName"},{"value":"County Antrim","key":"CountyName"}]},"MapReference":{"ReferenceId":"562629098","Spot":0.89,"SideOfStreet":"neither","StateId":"20403688","CountyId":"20411119","CityId":"20419067"}}}]}]}}