{"Response":{"MetaInfo":{"Timestamp":"2020-03-28T10:31:27.882+0000","NextPageInformation":"2"},"View":[{"_type":"SearchResultsViewType","ViewId":0,"Result":[{"Relevance":1.0,"Distance":0.0,"Direction":0.0,"MatchLevel":"district","MatchQuality":{"Country":1.0,"State":1.0,"County":1.0,"City":1.0,"District":1.0,"PostalCode":1.0},"Location":{"LocationId":"NT_yd.pdZXraSKlol9b3B7XoB","LocationType":"point","DisplayPosition":{"Latitude":54.610546,"Longitude":-1.2924686},"MapView":{"TopLeft":{"Latitude":54.62832,"Longitude":-1.31956},"BottomRight":{"Latitude":54.57301,"Longitude":-1.22023}},"Address":{"Label":"Billingham, England, United Kingdom","Country":"GBR","State":"England","County":"Cleveland","City":"Billingham","District":"Billingham","PostalCode":"TS23 2","AdditionalData":[{"value":"United Kingdom","key":"CountryName"},{"value":"England","key":"StateName"},{"value":"Cleveland","key":"CountyName"}]},"MapReference":{"ReferenceId":"1141735701","SideOfStreet":"neither","StateId":"20248595","CountyId":"20345544","CityId":"20345545","DistrictId":"20345546"}}},{"Relevance":1.0,"Distance":5.2,"MatchLevel":"street","MatchQuality":{"Country":1.0,"State":1.0,"County":1.0,"City":1.0,"District":1.0,"Street":[1.0],"PostalCode":1.0},"Location":{"LocationId":"NT_fjNRW3M4LNDiebgeNipvdA_l_832917674_L","LocationType":"point","DisplayPosition":{"Latitude":54.6105216,"Longitude":-1.2923994},"MapView":{"TopLeft":{"Latitude":54.61069,"Longitude":-1.29252},"BottomRight":{"Latitude":54.61018,"Longitude":-1.29234}},"Address":{"Label":"Finchale Avenue, Billingham, TS23 2, United Kingdom","Country":"GBR","State":"England","County":"Cleveland","City":"Billingham","District":"Billingham","Street":"Finchale Avenue","PostalCode":"TS23 2","AdditionalData":[{"value":"United Kingdom","key":"CountryName"},{"value":"England","key":"StateName"},{"value":"Cleveland","key":"CountyName"}]},"MapReference":{"ReferenceId":"832917674","Spot":0.67,"SideOfStreet":"left","StateId":"20248595","CountyId":"20345544","CityId":"20345545","DistrictId":"20345546"}}},{"Relevance":1.0,"Distance":32.8,"MatchLevel":"houseNumber","MatchQuality":{"Country":1.0,"State":1.0,"County":1.0,"City":1.0,"District":1.0,"Street":[1.0],"HouseNumber":1.0,"PostalCode":1.0},"MatchType":"interpolated","Location":{"LocationId":"NT_fjNRW3M4LNDiebgeNipvdA_l_961334013_R_yA","LocationType":"point","DisplayPosition":{"Latitude":54.6108202,"Longitude":-1.29228},"MapView":{"TopLeft":{"Latitude":54.6119443,"Longitude":-1.2942211},"BottomRight":{"Latitude":54.609696,"Longitude":-1.2903388}},"Address":{"Label":"2 Finchale Avenue, Billingham, TS23 2DG, United Kingdom","Country":"GBR","State":"England","County":"Cleveland","City":"Billingham","District":"Billingham","Street":"Finchale Avenue","HouseNumber":"2","PostalCode":"TS23 2DG","AdditionalData":[{"value":"United Kingdom","key":"CountryName"},{"value":"England","key":"StateName"},{"value":"Cleveland","key":"CountyName"}]},"MapReference":{"ReferenceId":"961334013","Spot":0.07,"SideOfStreet":"right","StateId":"20248595","CountyId":"20345544","CityId":"20345545","DistrictId":"20345546"}}},{"Relevance":1.0,"Distance":40.8,"MatchLevel":"street","MatchQuality":{"Country":1.0,"State":1.0,"County":1.0,"City":1.0,"District":1.0,"Street":[1.0],"PostalCode":1.0},"Location":{"LocationId":"NT_DRvHfu-VvpeZYFIF-MNWKA_l_832917676_R","LocationType":"point","DisplayPosition":{"Latitude":54.61018,"Longitude":-1.29252},"MapView":{"TopLeft":{"Latitude":54.61029,"Longitude":-1.29376},"BottomRight":{"Latitude":54.61018,"Longitude":-1.29252}},"Address":{"Label":"Gardenia Way, Billingham, TS23 2, United Kingdom","Country":"GBR","State":"England","County":"Cleveland","City":"Billingham","District":"Billingham","Street":"Gardenia Way","PostalCode":"TS23 2","AdditionalData":[{"value":"United Kingdom","key":"CountryName"},{"value":"England","key":"StateName"},{"value":"Cleveland","key":"CountyName"}]},"MapReference":{"ReferenceId":"832917676","Spot":0.0,"SideOfStreet":"right","StateId":"20248595","CountyId":"20345544","CityId":"20345545","DistrictId":"20345546"}}},{"Relevance":1.0,"Distance":40.8,"MatchLevel":"street","MatchQuality":{"Country":1.0,"State":1.0,"County":1.0,"City":1.0,"District":1.0,"Street":[1.0],"PostalCode":1.0},"Location":{"LocationId":"NT_fjNRW3M4LNDiebgeNipvdA_l_832917673_L","LocationType":"point","DisplayPosition":{"Latitude":54.61018,"Longitude":-1.29252},"MapView":{"TopLeft":{"Latitude":54.61018,"Longitude":-1.29276},"BottomRight":{"Latitude":54.60944,"Longitude":-1.29252}},"Address":{"Label":"Finchale Avenue, Billingham, TS23 2, United Kingdom","Country":"GBR","State":"England","County":"Cleveland","City":"Billingham","District":"Billingham","Street":"Finchale Avenue","PostalCode":"TS23 2","AdditionalData":[{"value":"United Kingdom","key":"CountryName"},{"value":"England","key":"StateName"},{"value":"Cleveland","key":"CountyName"}]},"MapReference":{"ReferenceId":"832917673","Spot":1.0,"SideOfStreet":"left","StateId":"20248595","CountyId":"20345544","CityId":"20345545","DistrictId":"20345546"}}},{"Relevance":1.0,"Distance":47.3,"MatchLevel":"houseNumber","MatchQuality":{"Country":1.0,"State":1.0,"County":1.0,"City":1.0,"District":1.0,"Street":[1.0],"HouseNumber":1.0,"PostalCode":1.0},"MatchType":"interpolated","Location":{"LocationId":"NT_tlBxRM8faERblNou09LjNA_l_26893569_R_yQD","LocationType":"point","DisplayPosition":{"Latitude":54.6106057,"Longitude":-1.2917411},"MapView":{"TopLeft":{"Latitude":54.6117299,"Longitude":-1.2936822},"BottomRight":{"Latitude":54.6094816,"Longitude":-1.2898}},"Address":{"Label":"24 Tintern Avenue, Billingham, TS23 2DF, United Kingdom","Country":"GBR","State":"England","County":"Cleveland","City":"Billingham","District":"Billingham","Street":"Tintern Avenue","HouseNumber":"24","PostalCode":"TS23 2DF","AdditionalData":[{"value":"United Kingdom","key":"CountryName"},{"value":"England","key":"StateName"},{"value":"Cleveland","key":"CountyName"}]},"MapReference":{"ReferenceId":"26893569","Spot":0.5,"SideOfStreet":"right","StateId":"20248595","CountyId":"20345544","CityId":"20345545","DistrictId":"20345546"}}},{"Relevance":1.0,"Distance":80.0,"MatchLevel":"houseNumber","MatchQuality":{"Country":1.0,"State":1.0,"County":1.0,"City":1.0,"District":1.0,"Street":[1.0],"HouseNumber":1.0,"PostalCode":1.0},"MatchType":"interpolated","Location":{"LocationId":"NT_tlBxRM8faERblNou09LjNA_l_26893567_L_yAD","LocationType":"point","DisplayPosition":{"Latitude":54.6107,"Longitude":-1.29112},"MapView":{"TopLeft":{"Latitude":54.6118242,"Longitude":-1.2930611},"BottomRight":{"Latitude":54.6095759,"Longitude":-1.2891789}},"Address":{"Label":"20 Tintern Avenue, Billingham, TS23 2DF, United Kingdom","Country":"GBR","State":"England","County":"Cleveland","City":"Billingham","District":"Billingham","Street":"Tintern Avenue","HouseNumber":"20","PostalCode":"TS23 2DF","AdditionalData":[{"value":"United Kingdom","key":"CountryName"},{"value":"England","key":"StateName"},{"value":"Cleveland","key":"CountyName"}]},"MapReference":{"ReferenceId":"26893567","Spot":0.13,"SideOfStreet":"left","StateId":"20248595","CountyId":"20345544","CityId":"20345545","DistrictId":"20345546"}}},{"Relevance":1.0,"Distance":85.6,"MatchLevel":"street","MatchQuality":{"Country":1.0,"State":1.0,"County":1.0,"City":1.0,"District":1.0,"Street":[1.0],"PostalCode":1.0},"Location":{"LocationId":"NT_tlBxRM8faERblNou09LjNA_l_26893566_L","LocationType":"point","DisplayPosition":{"Latitude":54.61057,"Longitude":-1.29114},"MapView":{"TopLeft":{"Latitude":54.61071,"Longitude":-1.29114},"BottomRight":{"Latitude":54.61057,"Longitude":-1.2903}},"Address":{"Label":"Tintern Avenue, Billingham, TS23 2, United Kingdom","Country":"GBR","State":"England","County":"Cleveland","City":"Billingham","District":"Billingham","Street":"Tintern Avenue","PostalCode":"TS23 2","AdditionalData":[{"value":"United Kingdom","key":"CountryName"},{"value":"England","key":"StateName"},{"value":"Cleveland","key":"CountyName"}]},"MapReference":{"ReferenceId":"26893566","Spot":0.0,"SideOfStreet":"left","StateId":"20248595","CountyId":"20345544","CityId":"20345545","DistrictId":"20345546"}}},{"Relevance":1.0,"Distance":87.9,"MatchLevel":"street","MatchQuality":{"Country":1.0,"State":1.0,"County":1.0,"City":1.0,"District":1.0,"Street":[1.0],"PostalCode":1.0},"Location":{"LocationId":"NT_DRvHfu-VvpeZYFIF-MNWKA_l_832917677_R","LocationType":"point","DisplayPosition":{"Latitude":54.61029,"Longitude":-1.29376},"MapView":{"TopLeft":{"Latitude":54.6104,"Longitude":-1.29379},"BottomRight":{"Latitude":54.61029,"Longitude":-1.29376}},"Address":{"Label":"Gardenia Way, Billingham, TS23 2, United Kingdom","Country":"GBR","State":"England","County":"Cleveland","City":"Billingham","District":"Billingham","Street":"Gardenia Way","PostalCode":"TS23 2","AdditionalData":[{"value":"United Kingdom","key":"CountryName"},{"value":"England","key":"StateName"},{"value":"Cleveland","key":"CountyName"}]},"MapReference":{"ReferenceId":"832917677","Spot":0.0,"SideOfStreet":"right","StateId":"20248595","CountyId":"20345544","CityId":"20345545","DistrictId":"20345546"}}},{"Relevance":1.0,"Distance":87.9,"MatchLevel":"street","MatchQuality":{"Country":1.0,"State":1.0,"County":1.0,"City":1.0,"District":1.0,"Street":[1.0],"PostalCode":1.0},"Location":{"LocationId":"NT_DRvHfu-VvpeZYFIF-MNWKA_l_832917675_R","LocationType":"point","DisplayPosition":{"Latitude":54.61029,"Longitude":-1.29376},"MapView":{"TopLeft":{"Latitude":54.61029,"Longitude":-1.29376},"BottomRight":{"Latitude":54.61005,"Longitude":-1.29375}},"Address":{"Label":"Gardenia Way, Billingham, TS23 2, United Kingdom","Country":"GBR","State":"England","County":"Cleveland","City":"Billingham","District":"Billingham","Street":"Gardenia Way","PostalCode":"TS23 2","AdditionalData":[{"value":"United Kingdom","key":"CountryName"},{"value":"England","key":"StateName"},{"value":"Cleveland","key":"CountyName"}]},"MapReference":{"ReferenceId":"832917675","Spot":1.0,"SideOfStreet":"right","StateId":"20248595","CountyId":"20345544","CityId":"20345545","DistrictId":"20345546"}}}]}]}}