{"Response":{"MetaInfo":{"Timestamp":"2020-03-28T10:36:46.031+0000","NextPageInformation":"2"},"View":[{"_type":"SearchResultsViewType","ViewId":0,"Result":[{"Relevance":1.0,"Distance":0.0,"Direction":0.0,"MatchLevel":"district","MatchQuality":{"Country":1.0,"State":1.0,"County":1.0,"City":1.0,"District":1.0,"PostalCode":1.0},"Location":{"LocationId":"NT_y9QDFKSJlpKOzga75QmthD","LocationType":"point","DisplayPosition":{"Latitude":54.6735842,"Longitude":-1.210764},"MapView":{"TopLeft":{"Latitude":54.71895,"Longitude":-1.25878},"BottomRight":{"Latitude":54.64506,"Longitude":-1.18484}},"Address":{"Label":"Hartlepool, England, United Kingdom","Country":"GBR","State":"England","County":"Cleveland","City":"Hartlepool","District":"Hartlepool","PostalCode":"TS24 8","AdditionalData":[{"value":"United Kingdom","key":"CountryName"},{"value":"England","key":"StateName"},{"value":"Cleveland","key":"CountyName"}]},"MapReference":{"ReferenceId":"820833428","SideOfStreet":"neither","StateId":"20248595","CountyId":"20345544","CityId":"20345559","DistrictId":"20345560"}}},{"Relevance":1.0,"Distance":7.0,"MatchLevel":"houseNumber","MatchQuality":{"Country":1.0,"State":1.0,"County":1.0,"City":1.0,"District":1.0,"Street":[1.0],"HouseNumber":1.0,"PostalCode":1.0},"MatchType":"interpolated","Location":{"LocationId":"NT_Wyl6y9hjEuij.bYiuxX-gD_l_26914407_R_5A","LocationType":"point","DisplayPosition":{"Latitude":54.67355,"Longitude":-1.21088},"MapView":{"TopLeft":{"Latitude":54.6746742,"Longitude":-1.2128241},"BottomRight":{"Latitude":54.6724259,"Longitude":-1.2089359}},"Address":{"Label":"9 Kendal Road, Hartlepool, TS25 1QY, United Kingdom","Country":"GBR","State":"England","County":"Cleveland","City":"Hartlepool","District":"Hartlepool","Street":"Kendal Road","HouseNumber":"9","PostalCode":"TS25 1QY","AdditionalData":[{"value":"United Kingdom","key":"CountryName"},{"value":"England","key":"StateName"},{"value":"Cleveland","key":"CountyName"}]},"MapReference":{"ReferenceId":"26914407","Spot":0.55,"SideOfStreet":"right","StateId":"20248595","CountyId":"20345544","CityId":"20345559","DistrictId":"20345560"}}},{"Relevance":1.0,"Distance":12.8,"MatchLevel":"street","MatchQuality":{"Country":1.0,"State":1.0,"County":1.0,"City":1.0,"District":1.0,"PostalCode":1.0},"Location":{"LocationId":"NT_.j4TCYNhylh72S2pv4VFxA_l_26914392_L","LocationType":"point","DisplayPosition":{"Latitude":54.67365,"Longitude":-1.2106},"MapView":{"TopLeft":{"Latitude":54.67379,"Longitude":-1.21061},"BottomRight":{"Latitude":54.67363,"Longitude":-1.21031}},"Address":{"Label":"Hartlepool, TS25 1, United Kingdom","Country":"GBR","State":"England","County":"Cleveland","City":"Hartlepool","District":"Hartlepool","PostalCode":"TS25 1","AdditionalData":[{"value":"United Kingdom","key":"CountryName"},{"value":"England","key":"StateName"},{"value":"Cleveland","key":"CountyName"}]},"MapReference":{"ReferenceId":"26914392","Spot":0.68,"SideOfStreet":"left","StateId":"20248595","CountyId":"20345544","CityId":"20345559","DistrictId":"20345560"}}},{"Relevance":1.0,"Distance":17.3,"MatchLevel":"houseNumber","MatchQuality":{"Country":1.0,"State":1.0,"County":1.0,"City":1.0,"District":1.0,"Street":[1.0],"HouseNumber":1.0,"PostalCode":1.0},"MatchType":"interpolated","Location":{"LocationId":"NT_gYbBMu.OY4fH.GlXN8ub0D_l_1267803528_R_3A","LocationType":"point","DisplayPosition":{"Latitude":54.67372,"Longitude":-1.21106},"MapView":{"TopLeft":{"Latitude":54.6748442,"Longitude":-1.2130041},"BottomRight":{"Latitude":54.6725959,"Longitude":-1.2091159}},"Address":{"Label":"7 Hereford Street, Hartlepool, TS25 1, United Kingdom","Country":"GBR","State":"England","County":"Cleveland","City":"Hartlepool","District":"Hartlepool","Street":"Hereford Street","HouseNumber":"7","PostalCode":"TS25 1","AdditionalData":[{"value":"United Kingdom","key":"CountryName"},{"value":"England","key":"StateName"},{"value":"Cleveland","key":"CountyName"}]},"MapReference":{"ReferenceId":"1267803528","Spot":0.5,"SideOfStreet":"right","StateId":"20248595","CountyId":"20345544","CityId":"20345559","DistrictId":"20345560"}}},{"Relevance":1.0,"Distance":23.8,"MatchLevel":"houseNumber","MatchQuality":{"Country":1.0,"State":1.0,"County":1.0,"City":1.0,"District":1.0,"Street":[1.0],"HouseNumber":1.0,"PostalCode":1.0},"MatchType":"interpolated","Location":{"LocationId":"NT_9u0ezeSP3kmLLBRf3vgNHD_l_26914391_L_xAD","LocationType":"point","DisplayPosition":{"Latitude":54.67379,"Longitude":-1.21033},"MapView":{"TopLeft":{"Latitude":54.6749142,"Longitude":-1.2122741},"BottomRight":{"Latitude":54.6726659,"Longitude":-1.2083859}},"Address":{"Label":"10 Edgar Street, Hartlepool, TS25 1PY, United Kingdom","Country":"GBR","State":"England","County":"Cleveland","City":"Hartlepool","District":"Hartlepool","Street":"Edgar Street","HouseNumber":"10","PostalCode":"TS25 1PY","AdditionalData":[{"value":"United Kingdom","key":"CountryName"},{"value":"England","key":"StateName"},{"value":"Cleveland","key":"CountyName"}]},"MapReference":{"ReferenceId":"26914391","Spot":0.37,"SideOfStreet":"left","StateId":"20248595","CountyId":"20345544","CityId":"20345559","DistrictId":"20345560"}}},{"Relevance":1.0,"Distance":26.7,"MatchLevel":"postalCode","MatchQuality":{"PostalCode":1.0},"MatchType":"interpolated","Location":{"LocationId":"NT_9u0ezeSP3kmLLBRf3vgNHD_l_26914391_L_xAD","LocationType":"point","DisplayPosition":{"Latitude":54.67379,"Longitude":-1.21055},"MapView":{"TopLeft":{"Latitude":54.6827832,"Longitude":-1.226103},"BottomRight":{"Latitude":54.6647968,"Longitude":-1.194997}},"Address":{"Label":"TS25 1PY, Hartlepool, England, United Kingdom","Country":"GBR","State":"England","County":"Cleveland","City":"Hartlepool","PostalCode":"TS25 1PY","AdditionalData":[{"value":"United Kingdom","key":"CountryName"},{"value":"England","key":"StateName"},{"value":"Cleveland","key":"CountyName"}]},"MapReference":{"ReferenceId":"26914391","Spot":0.37,"SideOfStreet":"neither","StateId":"20248595","CountyId":"20345544","CityId":"20345559"}}},{"Relevance":1.0,"Distance":31.0,"MatchLevel":"street","MatchQuality":{"Country":1.0,"State":1.0,"County":1.0,"City":1.0,"District":1.0,"PostalCode":1.0},"Location":{"LocationId":"NT_.j4TCYNhylh72S2pv4VFxA_l_1267806742_L","LocationType":"point","DisplayPosition":{"Latitude":54.67369,"Longitude":-1.21121},"MapView":{"TopLeft":{"Latitude":54.67386,"Longitude":-1.21221},"BottomRight":{"Latitude":54.67369,"Longitude":-1.21121}},"Address":{"Label":"Hartlepool, TS25 1, United Kingdom","Country":"GBR","State":"England","County":"Cleveland","City":"Hartlepool","District":"Hartlepool","PostalCode":"TS25 1","AdditionalData":[{"value":"United Kingdom","key":"CountryName"},{"value":"England","key":"StateName"},{"value":"Cleveland","key":"CountyName"}]},"MapReference":{"ReferenceId":"1267806742","Spot":1.0,"SideOfStreet":"left","StateId":"20248595","CountyId":"20345544","CityId":"20345559","DistrictId":"20345560"}}},{"Relevance":1.0,"Distance":32.0,"MatchLevel":"houseNumber","MatchQuality":{"Country":1.0,"State":1.0,"County":1.0,"City":1.0,"District":1.0,"Street":[1.0],"HouseNumber":1.0,"PostalCode":1.0},"MatchType":"interpolated","Location":{"LocationId":"NT_3QUeuUnhtxv7Pr330-.BYB_l_26914414_L_yA","LocationType":"point","DisplayPosition":{"Latitude":54.6732538,"Longitude":-1.2110975},"MapView":{"TopLeft":{"Latitude":54.6743779,"Longitude":-1.2130416},"BottomRight":{"Latitude":54.6721296,"Longitude":-1.2091534}},"Address":{"Label":"2 Kent Avenue, Hartlepool, TS25 1RB, United Kingdom","Country":"GBR","State":"England","County":"Cleveland","City":"Hartlepool","District":"Hartlepool","Street":"Kent Avenue","HouseNumber":"2","PostalCode":"TS25 1RB","AdditionalData":[{"value":"United Kingdom","key":"CountryName"},{"value":"England","key":"StateName"},{"value":"Cleveland","key":"CountyName"}]},"MapReference":{"ReferenceId":"26914414","Spot":0.63,"SideOfStreet":"left","StateId":"20248595","CountyId":"20345544","CityId":"20345559","DistrictId":"20345560"}}},{"Relevance":1.0,"Distance":34.6,"MatchLevel":"houseNumber","MatchQuality":{"Country":1.0,"State":1.0,"County":1.0,"City":1.0,"District":1.0,"Street":[1.0],"HouseNumber":1.0,"PostalCode":1.0},"MatchType":"interpolated","Location":{"LocationId":"NT_Wyl6y9hjEuij.bYiuxX-gD_l_26914386_R_3A","LocationType":"point","DisplayPosition":{"Latitude":54.67388,"Longitude":-1.21093},"MapView":{"TopLeft":{"Latitude":54.6750042,"Longitude":-1.2128741},"BottomRight":{"Latitude":54.6727559,"Longitude":-1.2089859}},"Address":{"Label":"7 Kendal Road, Hartlepool, TS25 1QY, United Kingdom","Country":"GBR","State":"England","County":"Cleveland","City":"Hartlepool","District":"Hartlepool","Street":"Kendal Road","HouseNumber":"7","PostalCode":"TS25 1QY","AdditionalData":[{"value":"United Kingdom","key":"CountryName"},{"value":"England","key":"StateName"},{"value":"Cleveland","key":"CountyName"}]},"MapReference":{"ReferenceId":"26914386","Spot":0.35,"SideOfStreet":"right","StateId":"20248595","CountyId":"20345544","CityId":"20345559","DistrictId":"20345560"}}},{"Relevance":1.0,"Distance":39.4,"MatchLevel":"street","MatchQuality":{"Country":1.0,"State":1.0,"County":1.0,"City":1.0,"District":1.0,"PostalCode":1.0},"Location":{"LocationId":"NT_.j4TCYNhylh72S2pv4VFxA_l_26914381_L","LocationType":"point","DisplayPosition":{"Latitude":54.67393,"Longitude":-1.21063},"MapView":{"TopLeft":{"Latitude":54.67401,"Longitude":-1.21063},"BottomRight":{"Latitude":54.67393,"Longitude":-1.21037}},"Address":{"Label":"Hartlepool, TS25 1, United Kingdom","Country":"GBR","State":"England","County":"Cleveland","City":"Hartlepool","District":"Hartlepool","PostalCode":"TS25 1","AdditionalData":[{"value":"United Kingdom","key":"CountryName"},{"value":"England","key":"StateName"},{"value":"Cleveland","key":"CountyName"}]},"MapReference":{"ReferenceId":"26914381","Spot":0.0,"SideOfStreet":"left","StateId":"20248595","CountyId":"20345544","CityId":"20345559","DistrictId":"20345560"}}}]}]}}