{"Response":{"MetaInfo":{"Timestamp":"2020-03-28T11:57:46.793+0000","NextPageInformation":"2"},"View":[{"_type":"SearchResultsViewType","ViewId":0,"Result":[{"Relevance":1.0,"Distance":0.0,"Direction":0.0,"MatchLevel":"district","MatchQuality":{"Country":1.0,"State":1.0,"County":1.0,"City":1.0,"District":1.0,"PostalCode":1.0},"Location":{"LocationId":"NT_sqxrbMTTG60D57.HJB9xCB","LocationType":"point","DisplayPosition":{"Latitude":54.625901,"Longitude":-5.9376311},"MapView":{"TopLeft":{"Latitude":54.6477,"Longitude":-6.03279},"BottomRight":{"Latitude":54.54085,"Longitude":-5.81963}},"Address":{"Label":"Belfast, Northern Ireland, United Kingdom","Country":"GBR","State":"Northern Ireland","County":"County Antrim","City":"Belfast","District":"Belfast","PostalCode":"BT2 7","AdditionalData":[{"value":"United Kingdom","key":"CountryName"},{"value":"Northern Ireland","key":"StateName"},{"value":"County Antrim","key":"CountyName"}]},"MapReference":{"ReferenceId":"990664571","SideOfStreet":"neither","StateId":"20403688","CountyId":"20411119","CityId":"20412709","DistrictId":"20412710"}}},{"Relevance":1.0,"Distance":3.4,"MatchLevel":"houseNumber","MatchQuality":{"Country":1.0,"State":1.0,"County":1.0,"City":1.0,"District":1.0,"Street":[1.0],"HouseNumber":1.0,"PostalCode":1.0},"MatchType":"interpolated","Location":{"LocationId":"NT_QWblzXH2Xn2071am071k4D_1YzN","LocationType":"point","DisplayPosition":{"Latitude":54.62592,"Longitude":-5.93774},"MapView":{"TopLeft":{"Latitude":54.6270442,"Longitude":-5.9396818},"BottomRight":{"Latitude":54.6247958,"Longitude":-5.9357982}},"Address":{"Label":"567 Antrim Road, Belfast, BT15 3BU, United Kingdom","Country":"GBR","State":"Northern Ireland","County":"County Antrim","City":"Belfast","District":"Belfast","Street":"Antrim Road","HouseNumber":"567","PostalCode":"BT15 3BU","AdditionalData":[{"value":"United Kingdom","key":"CountryName"},{"value":"Northern Ireland","key":"StateName"},{"value":"County Antrim","key":"CountyName"}]},"MapReference":{"ReferenceId":"554964534","Spot":0.51,"SideOfStreet":"right","StateId":"20403688","CountyId":"20411119","CityId":"20412709","DistrictId":"20412710","AddressId":"342211824","RoadLinkId":"84951538"}}},{"Relevance":1.0,"Distance":14.2,"MatchLevel":"postalCode","MatchQuality":{"PostalCode":1.0},"MatchType":"interpolated","Location":{"LocationId":"NT_QWblzXH2Xn2071am071k4D_1QzN","LocationType":"point","DisplayPosition":{"Latitude":54.62578,"Longitude":-5.93756},"MapView":{"TopLeft":{"Latitude":54.6347732,"Longitude":-5.9530946},"BottomRight":{"Latitude":54.6167868,"Longitude":-5.9220254}},"Address":{"Label":"BT15 3BU, Belfast, Northern Ireland, United Kingdom","Country":"GBR","State":"Northern Ireland","County":"County Antrim","City":"Belfast","PostalCode":"BT15 3BU","AdditionalData":[{"value":"United Kingdom","key":"CountryName"},{"value":"Northern Ireland","key":"StateName"},{"value":"County Antrim","key":"CountyName"}]},"MapReference":{"ReferenceId":"1219346384","Spot":0.26,"SideOfStreet":"neither","StateId":"20403688","CountyId":"20411119","CityId":"20412709"}}},{"Relevance":1.0,"Distance":20.5,"MatchLevel":"houseNumber","MatchQuality":{"Country":1.0,"State":1.0,"County":1.0,"City":1.0,"District":1.0,"Street":[1.0],"HouseNumber":1.0,"PostalCode":1.0},"MatchType":"interpolated","Location":{"LocationId":"NT_QWblzXH2Xn2071am071k4D_0MDN","LocationType":"point","DisplayPosition":{"Latitude":54.6259,"Longitude":-5.93795},"MapView":{"TopLeft":{"Latitude":54.6270242,"Longitude":-5.9398918},"BottomRight":{"Latitude":54.6247758,"Longitude":-5.9360082}},"Address":{"Label":"434 Antrim Road, Belfast, BT15 3, United Kingdom","Country":"GBR","State":"Northern Ireland","County":"County Antrim","City":"Belfast","District":"Belfast","Street":"Antrim Road","HouseNumber":"434","PostalCode":"BT15 3","AdditionalData":[{"value":"United Kingdom","key":"CountryName"},{"value":"Northern Ireland","key":"StateName"},{"value":"County Antrim","key":"CountyName"}]},"MapReference":{"ReferenceId":"918014739","Spot":0.1,"SideOfStreet":"left","StateId":"20403688","CountyId":"20411119","CityId":"20412709","DistrictId":"20412710","AddressId":"342271008","RoadLinkId":"275631166"}}},{"Relevance":1.0,"Distance":23.6,"MatchLevel":"houseNumber","MatchQuality":{"Country":1.0,"State":1.0,"County":1.0,"City":1.0,"District":1.0,"Street":[1.0],"HouseNumber":1.0,"PostalCode":1.0},"MatchType":"interpolated","Location":{"LocationId":"NT_QWblzXH2Xn2071am071k4D_0MjM","LocationType":"point","DisplayPosition":{"Latitude":54.62582,"Longitude":-5.93797},"MapView":{"TopLeft":{"Latitude":54.6269442,"Longitude":-5.9399118},"BottomRight":{"Latitude":54.6246958,"Longitude":-5.9360282}},"Address":{"Label":"432 Antrim Road, Belfast, BT15 5GB, United Kingdom","Country":"GBR","State":"Northern Ireland","County":"County Antrim","City":"Belfast","District":"Belfast","Street":"Antrim Road","HouseNumber":"432","PostalCode":"BT15 5GB","AdditionalData":[{"value":"United Kingdom","key":"CountryName"},{"value":"Northern Ireland","key":"StateName"},{"value":"County Antrim","key":"CountyName"}]},"MapReference":{"ReferenceId":"918014738","Spot":0.79,"SideOfStreet":"left","StateId":"20403688","CountyId":"20411119","CityId":"20412709","DistrictId":"20412710","AddressId":"342022324","RoadLinkId":"275631165"}}},{"Relevance":1.0,"Distance":29.6,"MatchLevel":"houseNumber","MatchQuality":{"Country":1.0,"State":1.0,"County":1.0,"City":1.0,"District":1.0,"Street":[1.0],"HouseNumber":1.0,"PostalCode":1.0},"MatchType":"interpolated","Location":{"LocationId":"NT_7iS2I0vGL7Fl8kbZAtuKKD_xA","LocationType":"point","DisplayPosition":{"Latitude":54.62597,"Longitude":-5.93703},"MapView":{"TopLeft":{"Latitude":54.6270942,"Longitude":-5.9389718},"BottomRight":{"Latitude":54.6248458,"Longitude":-5.9350882}},"Address":{"Label":"1 Skegoneill Avenue, Belfast, BT15 3, United Kingdom","Country":"GBR","State":"Northern Ireland","County":"County Antrim","City":"Belfast","District":"Belfast","Street":"Skegoneill Avenue","HouseNumber":"1","PostalCode":"BT15 3","AdditionalData":[{"value":"United Kingdom","key":"CountryName"},{"value":"Northern Ireland","key":"StateName"},{"value":"County Antrim","key":"CountyName"}]},"MapReference":{"ReferenceId":"555946815","Spot":0.23,"SideOfStreet":"left","StateId":"20403688","CountyId":"20411119","CityId":"20412709","DistrictId":"20412710","AddressId":"341932069","RoadLinkId":"84860170"}}},{"Relevance":1.0,"Distance":34.2,"MatchLevel":"houseNumber","MatchQuality":{"Country":1.0,"State":1.0,"County":1.0,"City":1.0,"District":1.0,"Street":[1.0],"HouseNumber":1.0,"PostalCode":1.0},"MatchType":"interpolated","Location":{"LocationId":"NT_3soENNttGWzeXiV8k9-QZD_1QD","LocationType":"point","DisplayPosition":{"Latitude":54.62577,"Longitude":-5.93686},"MapView":{"TopLeft":{"Latitude":54.6268942,"Longitude":-5.9388018},"BottomRight":{"Latitude":54.6246458,"Longitude":-5.9349182}},"Address":{"Label":"54 Glantane Drive, Belfast, BT15 3, United Kingdom","Country":"GBR","State":"Northern Ireland","County":"County Antrim","City":"Belfast","District":"Belfast","Street":"Glantane Drive","HouseNumber":"54","PostalCode":"BT15 3","AdditionalData":[{"value":"United Kingdom","key":"CountryName"},{"value":"Northern Ireland","key":"StateName"},{"value":"County Antrim","key":"CountyName"}]},"MapReference":{"ReferenceId":"555944396","Spot":0.92,"SideOfStreet":"left","StateId":"20403688","CountyId":"20411119","CityId":"20412709","DistrictId":"20412710","AddressId":"342142717","RoadLinkId":"84869745"}}},{"Relevance":1.0,"Distance":36.2,"MatchLevel":"houseNumber","MatchQuality":{"Country":1.0,"State":1.0,"County":1.0,"City":1.0,"District":1.0,"Street":[1.0],"HouseNumber":1.0,"PostalCode":1.0},"MatchType":"interpolated","Location":{"LocationId":"NT_4FwNaRJoSgc6aYsBLTfi4A_l_554964536_R_1UzM","LocationType":"point","DisplayPosition":{"Latitude":54.6256467,"Longitude":-5.9380045},"MapView":{"TopLeft":{"Latitude":54.6267709,"Longitude":-5.9399464},"BottomRight":{"Latitude":54.6245225,"Longitude":-5.9360627}},"Address":{"Label":"553 Antrim Road, Belfast, BT15 3, United Kingdom","Country":"GBR","State":"Northern Ireland","County":"County Antrim","City":"Belfast","District":"Belfast","Street":"Antrim Road","HouseNumber":"553","PostalCode":"BT15 3","AdditionalData":[{"value":"United Kingdom","key":"CountryName"},{"value":"Northern Ireland","key":"StateName"},{"value":"County Antrim","key":"CountyName"}]},"MapReference":{"ReferenceId":"554964536","Spot":0.52,"SideOfStreet":"right","StateId":"20403688","CountyId":"20411119","CityId":"20412709","DistrictId":"20412710"}}},{"Relevance":1.0,"Distance":45.6,"MatchLevel":"street","MatchQuality":{"Country":1.0,"State":1.0,"County":1.0,"City":1.0,"District":1.0,"Street":[1.0],"PostalCode":1.0},"Location":{"LocationId":"NT_7iS2I0vGL7Fl8kbZAtuKKD_l_555946814_L","LocationType":"point","DisplayPosition":{"Latitude":54.62631,"Longitude":-5.93768},"MapView":{"TopLeft":{"Latitude":54.62635,"Longitude":-5.93794},"BottomRight":{"Latitude":54.62631,"Longitude":-5.93768}},"Address":{"Label":"Skegoneill Avenue, Belfast, BT15 3, United Kingdom","Country":"GBR","State":"Northern Ireland","County":"County Antrim","City":"Belfast","District":"Belfast","Street":"Skegoneill Avenue","PostalCode":"BT15 3","AdditionalData":[{"value":"United Kingdom","key":"CountryName"},{"value":"Northern Ireland","key":"StateName"},{"value":"County Antrim","key":"CountyName"}]},"MapReference":{"ReferenceId":"555946814","Spot":0.0,"SideOfStreet":"left","StateId":"20403688","CountyId":"20411119","CityId":"20412709","DistrictId":"20412710"}}},{"Relevance":1.0,"Distance":48.4,"MatchLevel":"houseNumber","MatchQuality":{"Country":1.0,"State":1.0,"County":1.0,"City":1.0,"District":1.0,"Street":[1.0],"HouseNumber":1.0,"PostalCode":1.0},"MatchType":"interpolated","Location":{"LocationId":"NT_yg7Wmeoei4xaIOp-shQTdA_xA","LocationType":"point","DisplayPosition":{"Latitude":54.62643,"Longitude":-5.93732},"MapView":{"TopLeft":{"Latitude":54.6275542,"Longitude":-5.9392619},"BottomRight":{"Latitude":54.6253058,"Longitude":-5.9353781}},"Address":{"Label":"1 Alexandra Gardens, Belfast, BT15 3LJ, United Kingdom","Country":"GBR","State":"Northern Ireland","County":"County Antrim","City":"Belfast","District":"Belfast","Street":"Alexandra Gardens","HouseNumber":"1","PostalCode":"BT15 3LJ","AdditionalData":[{"value":"United Kingdom","key":"CountryName"},{"value":"Northern Ireland","key":"StateName"},{"value":"County Antrim","key":"CountyName"}]},"MapReference":{"ReferenceId":"555944759","Spot":0.12,"SideOfStreet":"right","StateId":"20403688","CountyId":"20411119","CityId":"20412709","DistrictId":"20412710","AddressId":"341851007","RoadLinkId":"84969817"}}}]}]}}