{"Response":{"MetaInfo":{"Timestamp":"2020-03-28T11:27:44.465+0000","NextPageInformation":"2"},"View":[{"_type":"SearchResultsViewType","ViewId":0,"Result":[{"Relevance":1.0,"Distance":0.0,"Direction":0.0,"MatchLevel":"district","MatchQuality":{"Country":1.0,"State":1.0,"County":1.0,"City":1.0,"District":1.0,"PostalCode":1.0},"Location":{"LocationId":"NT_p-t-.NeDMC3rZMrYUhJiiB","LocationType":"point","DisplayPosition":{"Latitude":54.7670843,"Longitude":24.7082329},"MapView":{"TopLeft":{"Latitude":54.7858,"Longitude":24.70463},"BottomRight":{"Latitude":54.76646,"Longitude":24.72497}},"Address":{"Label":"Abromiškės, Elektrėnai, Vilniaus Apskritis, Lietuva","Country":"LTU","State":"Vilniaus Apskritis","County":"Elektrėnų savivaldybė","City":"Elektrėnai","District":"Abromiškės","PostalCode":"26130","AdditionalData":[{"value":"Lietuva","key":"CountryName"},{"value":"Vilniaus Apskritis","key":"StateName"},{"value":"Elektrėnų savivaldybė","key":"CountyName"}]},"MapReference":{"ReferenceId":"1124749276","SideOfStreet":"neither","CountryId":"20633740","StateId":"23290632","CountyId":"23292673","CityId":"23291974","DistrictId":"23291600"}}},{"Relevance":1.0,"Distance":17.6,"MatchLevel":"houseNumber","MatchQuality":{"Country":1.0,"State":1.0,"County":1.0,"City":1.0,"District":1.0,"Street":[1.0],"HouseNumber":1.0,"PostalCode":1.0},"MatchType":"interpolated","Location":{"LocationId":"NT_RleQZzQ0TDCk.VPC0HDdJA_3ID","LocationType":"point","DisplayPosition":{"Latitude":54.76712,"Longitude":24.70878},"MapView":{"TopLeft":{"Latitude":54.7682442,"Longitude":24.7068314},"BottomRight":{"Latitude":54.7659958,"Longitude":24.7107286}},"Address":{"Label":"Sanatorijos gatvė 72, LT-26130 Abromiškės, Elektrėnai, Lietuva","Country":"LTU","State":"Vilniaus Apskritis","County":"Elektrėnų savivaldybė","City":"Elektrėnai","District":"Abromiškės","Street":"Sanatorijos gatvė","HouseNumber":"72","PostalCode":"26130","AdditionalData":[{"value":"Lietuva","key":"CountryName"},{"value":"Vilniaus Apskritis","key":"StateName"},{"value":"Elektrėnų savivaldybė","key":"CountyName"}]},"MapReference":{"ReferenceId":"752551349","Spot":0.8,"SideOfStreet":"left","CountryId":"20633740","StateId":"23290632","CountyId":"23292673","CityId":"23291974","DistrictId":"23291600","AddressId":"667538719","RoadLinkId":"148397961"}}},{"Relevance":1.0,"Distance":30.0,"MatchLevel":"street","MatchQuality":{"Country":1.0,"State":1.0,"County":1.0,"City":1.0,"District":1.0,"PostalCode":1.0},"Location":{"LocationId":"NT_2TVJXIAfIIzTEqvPsj-vyB_l_752454594_R","LocationType":"point","DisplayPosition":{"Latitude":54.76728,"Longitude":24.70791},"MapView":{"TopLeft":{"Latitude":54.76728,"Longitude":24.70774},"BottomRight":{"Latitude":54.76715,"Longitude":24.70791}},"Address":{"Label":"LT-26130 Abromiškės, Elektrėnai, Lietuva","Country":"LTU","State":"Vilniaus Apskritis","County":"Elektrėnų savivaldybė","City":"Elektrėnai","District":"Abromiškės","PostalCode":"26130","AdditionalData":[{"value":"Lietuva","key":"CountryName"},{"value":"Vilniaus Apskritis","key":"StateName"},{"value":"Elektrėnų savivaldybė","key":"CountyName"}]},"MapReference":{"ReferenceId":"752454594","Spot":1.0,"SideOfStreet":"right","CountryId":"20633740","StateId":"23290632","CountyId":"23292673","CityId":"23291974","DistrictId":"23291600"}}},{"Relevance":1.0,"Distance":32.3,"MatchLevel":"street","MatchQuality":{"Country":1.0,"State":1.0,"County":1.0,"City":1.0,"District":1.0,"PostalCode":1.0},"Location":{"LocationId":"NT_2TVJXIAfIIzTEqvPsj-vyB_l_752496098_R","LocationType":"point","DisplayPosition":{"Latitude":54.76735,"Longitude":24.70803},"MapView":{"TopLeft":{"Latitude":54.76735,"Longitude":24.70791},"BottomRight":{"Latitude":54.76728,"Longitude":24.70803}},"Address":{"Label":"LT-26130 Abromiškės, Elektrėnai, Lietuva","Country":"LTU","State":"Vilniaus Apskritis","County":"Elektrėnų savivaldybė","City":"Elektrėnai","District":"Abromiškės","PostalCode":"26130","AdditionalData":[{"value":"Lietuva","key":"CountryName"},{"value":"Vilniaus Apskritis","key":"StateName"},{"value":"Elektrėnų savivaldybė","key":"CountyName"}]},"MapReference":{"ReferenceId":"752496098","Spot":1.0,"SideOfStreet":"right","CountryId":"20633740","StateId":"23290632","CountyId":"23292673","CityId":"23291974","DistrictId":"23291600"}}},{"Relevance":1.0,"Distance":32.5,"MatchLevel":"street","MatchQuality":{"Country":1.0,"State":1.0,"County":1.0,"City":1.0,"District":1.0,"PostalCode":1.0},"Location":{"LocationId":"NT_2TVJXIAfIIzTEqvPsj-vyB_l_1248151262_R","LocationType":"point","DisplayPosition":{"Latitude":54.76715,"Longitude":24.70774},"MapView":{"TopLeft":{"Latitude":54.76715,"Longitude":24.70678},"BottomRight":{"Latitude":54.76695,"Longitude":24.70774}},"Address":{"Label":"LT-26130 Abromiškės, Elektrėnai, Lietuva","Country":"LTU","State":"Vilniaus Apskritis","County":"Elektrėnų savivaldybė","City":"Elektrėnai","District":"Abromiškės","PostalCode":"26130","AdditionalData":[{"value":"Lietuva","key":"CountryName"},{"value":"Vilniaus Apskritis","key":"StateName"},{"value":"Elektrėnų savivaldybė","key":"CountyName"}]},"MapReference":{"ReferenceId":"1248151262","Spot":1.0,"SideOfStreet":"right","CountryId":"20633740","StateId":"23290632","CountyId":"23292673","CityId":"23291974","DistrictId":"23291600"}}},{"Relevance":1.0,"Distance":33.8,"MatchLevel":"street","MatchQuality":{"Country":1.0,"State":1.0,"County":1.0,"City":1.0,"District":1.0,"PostalCode":1.0},"Location":{"LocationId":"NT_2TVJXIAfIIzTEqvPsj-vyB_l_752251471_R","LocationType":"point","DisplayPosition":{"Latitude":54.7673744,"Longitude":24.7080747},"MapView":{"TopLeft":{"Latitude":54.76741,"Longitude":24.70803},"BottomRight":{"Latitude":54.76735,"Longitude":24.70814}},"Address":{"Label":"LT-26130 Abromiškės, Elektrėnai, Lietuva","Country":"LTU","State":"Vilniaus Apskritis","County":"Elektrėnų savivaldybė","City":"Elektrėnai","District":"Abromiškės","PostalCode":"26130","AdditionalData":[{"value":"Lietuva","key":"CountryName"},{"value":"Vilniaus Apskritis","key":"StateName"},{"value":"Elektrėnų savivaldybė","key":"CountyName"}]},"MapReference":{"ReferenceId":"752251471","Spot":0.41,"SideOfStreet":"right","CountryId":"20633740","StateId":"23290632","CountyId":"23292673","CityId":"23291974","DistrictId":"23291600"}}},{"Relevance":1.0,"Distance":36.7,"MatchLevel":"street","MatchQuality":{"Country":1.0,"State":1.0,"County":1.0,"City":1.0,"District":1.0,"PostalCode":1.0},"Location":{"LocationId":"NT_2TVJXIAfIIzTEqvPsj-vyB_l_752255800_R","LocationType":"point","DisplayPosition":{"Latitude":54.76741,"Longitude":24.70814},"MapView":{"TopLeft":{"Latitude":54.76755,"Longitude":24.70814},"BottomRight":{"Latitude":54.76741,"Longitude":24.70829}},"Address":{"Label":"LT-26130 Abromiškės, Elektrėnai, Lietuva","Country":"LTU","State":"Vilniaus Apskritis","County":"Elektrėnų savivaldybė","City":"Elektrėnai","District":"Abromiškės","PostalCode":"26130","AdditionalData":[{"value":"Lietuva","key":"CountryName"},{"value":"Vilniaus Apskritis","key":"StateName"},{"value":"Elektrėnų savivaldybė","key":"CountyName"}]},"MapReference":{"ReferenceId":"752255800","Spot":0.0,"SideOfStreet":"right","CountryId":"20633740","StateId":"23290632","CountyId":"23292673","CityId":"23291974","DistrictId":"23291600"}}},{"Relevance":1.0,"Distance":41.3,"MatchLevel":"street","MatchQuality":{"Country":1.0,"State":1.0,"County":1.0,"City":1.0,"District":1.0,"Street":[1.0],"PostalCode":1.0},"Location":{"LocationId":"NT_RleQZzQ0TDCk.VPC0HDdJA_l_752627718_L","LocationType":"point","DisplayPosition":{"Latitude":54.76726,"Longitude":24.7088},"MapView":{"TopLeft":{"Latitude":54.76742,"Longitude":24.7088},"BottomRight":{"Latitude":54.76726,"Longitude":24.70881}},"Address":{"Label":"Sanatorijos gatvė, LT-26130 Abromiškės, Elektrėnai, Lietuva","Country":"LTU","State":"Vilniaus Apskritis","County":"Elektrėnų savivaldybė","City":"Elektrėnai","District":"Abromiškės","Street":"Sanatorijos gatvė","PostalCode":"26130","AdditionalData":[{"value":"Lietuva","key":"CountryName"},{"value":"Vilniaus Apskritis","key":"StateName"},{"value":"Elektrėnų savivaldybė","key":"CountyName"}]},"MapReference":{"ReferenceId":"752627718","Spot":0.0,"SideOfStreet":"left","CountryId":"20633740","StateId":"23290632","CountyId":"23292673","CityId":"23291974","DistrictId":"23291600"}}},{"Relevance":1.0,"Distance":41.3,"MatchLevel":"street","MatchQuality":{"Country":1.0,"State":1.0,"County":1.0,"City":1.0,"District":1.0,"PostalCode":1.0},"Location":{"LocationId":"NT_2TVJXIAfIIzTEqvPsj-vyB_l_752289804_R","LocationType":"point","DisplayPosition":{"Latitude":54.76726,"Longitude":24.7088},"MapView":{"TopLeft":{"Latitude":54.76729,"Longitude":24.7088},"BottomRight":{"Latitude":54.76726,"Longitude":24.70903}},"Address":{"Label":"LT-26130 Abromiškės, Elektrėnai, Lietuva","Country":"LTU","State":"Vilniaus Apskritis","County":"Elektrėnų savivaldybė","City":"Elektrėnai","District":"Abromiškės","PostalCode":"26130","AdditionalData":[{"value":"Lietuva","key":"CountryName"},{"value":"Vilniaus Apskritis","key":"StateName"},{"value":"Elektrėnų savivaldybė","key":"CountyName"}]},"MapReference":{"ReferenceId":"752289804","Spot":0.0,"SideOfStreet":"right","CountryId":"20633740","StateId":"23290632","CountyId":"23292673","CityId":"23291974","DistrictId":"23291600"}}},{"Relevance":1.0,"Distance":51.9,"MatchLevel":"street","MatchQuality":{"Country":1.0,"State":1.0,"County":1.0,"City":1.0,"District":1.0,"PostalCode":1.0},"Location":{"LocationId":"NT_2TVJXIAfIIzTEqvPsj-vyB_l_752618062_R","LocationType":"point","DisplayPosition":{"Latitude":54.76755,"Longitude":24.70829},"MapView":{"TopLeft":{"Latitude":54.76774,"Longitude":24.70829},"BottomRight":{"Latitude":54.76754,"Longitude":24.70859}},"Address":{"Label":"LT-26130 Abromiškės, Elektrėnai, Lietuva","Country":"LTU","State":"Vilniaus Apskritis","County":"Elektrėnų savivaldybė","City":"Elektrėnai","District":"Abromiškės","PostalCode":"26130","AdditionalData":[{"value":"Lietuva","key":"CountryName"},{"value":"Vilniaus Apskritis","key":"StateName"},{"value":"Elektrėnų savivaldybė","key":"CountyName"}]},"MapReference":{"ReferenceId":"752618062","Spot":0.0,"SideOfStreet":"right","CountryId":"20633740","StateId":"23290632","CountyId":"23292673","CityId":"23291974","DistrictId":"23291600"}}}]}]}}