{"Response":{"MetaInfo":{"Timestamp":"2020-03-28T10:34:48.555+0000","NextPageInformation":"2"},"View":[{"_type":"SearchResultsViewType","ViewId":0,"Result":[{"Relevance":1.0,"Distance":0.0,"Direction":0.0,"MatchLevel":"district","MatchQuality":{"Country":1.0,"State":1.0,"County":1.0,"City":1.0,"District":1.0,"PostalCode":1.0},"Location":{"LocationId":"NT_x-NFlBiD-7wSV4BcXPSC5B","LocationType":"point","DisplayPosition":{"Latitude":54.7798359,"Longitude":-1.5511751},"MapView":{"TopLeft":{"Latitude":54.78623,"Longitude":-1.55968},"BottomRight":{"Latitude":54.77917,"Longitude":-1.5395}},"Address":{"Label":"Gilesgate, Durham, England, United Kingdom","Country":"GBR","State":"England","County":"County Durham","City":"Durham","District":"Gilesgate","PostalCode":"DH1 1","AdditionalData":[{"value":"United Kingdom","key":"CountryName"},{"value":"England","key":"StateName"},{"value":"County Durham","key":"CountyName"}]},"MapReference":{"ReferenceId":"26876418","SideOfStreet":"neither","StateId":"20248595","CountyId":"20345678","CityId":"20345882","DistrictId":"20345905"}}},{"Relevance":1.0,"Distance":20.5,"MatchLevel":"houseNumber","MatchQuality":{"Country":1.0,"State":1.0,"County":1.0,"City":1.0,"District":1.0,"Street":[1.0],"HouseNumber":1.0,"PostalCode":1.0},"MatchType":"interpolated","Location":{"LocationId":"NT_UXcSJWDFFc4OTQQz8-n4GC_l_78764675_R_2YD","LocationType":"point","DisplayPosition":{"Latitude":54.7799414,"Longitude":-1.5509122},"MapView":{"TopLeft":{"Latitude":54.7810656,"Longitude":-1.5528614},"BottomRight":{"Latitude":54.7788173,"Longitude":-1.548963}},"Address":{"Label":"66 Mackintosh Court, Durham, DH1 1PZ, United Kingdom","Country":"GBR","State":"England","County":"County Durham","City":"Durham","District":"Gilesgate","Street":"Mackintosh Court","HouseNumber":"66","PostalCode":"DH1 1PZ","AdditionalData":[{"value":"United Kingdom","key":"CountryName"},{"value":"England","key":"StateName"},{"value":"County Durham","key":"CountyName"}]},"MapReference":{"ReferenceId":"78764675","Spot":0.5,"SideOfStreet":"right","StateId":"20248595","CountyId":"20345678","CityId":"20345882","DistrictId":"20345905"}}},{"Relevance":1.0,"Distance":23.1,"MatchLevel":"postalCode","MatchQuality":{"PostalCode":1.0},"MatchType":"interpolated","Location":{"LocationId":"NT_qRWAbr.gEhqzi66oW-phZD_l_78764673_R_zAD","LocationType":"point","DisplayPosition":{"Latitude":54.77963,"Longitude":-1.55122},"MapView":{"TopLeft":{"Latitude":54.7886232,"Longitude":-1.5668137},"BottomRight":{"Latitude":54.7706368,"Longitude":-1.5356263}},"Address":{"Label":"DH1 2QQ, Durham, England, United Kingdom","Country":"GBR","State":"England","County":"County Durham","City":"Durham","PostalCode":"DH1 2QQ","AdditionalData":[{"value":"United Kingdom","key":"CountryName"},{"value":"England","key":"StateName"},{"value":"County Durham","key":"CountyName"}]},"MapReference":{"ReferenceId":"78764673","Spot":0.5,"SideOfStreet":"neither","StateId":"20248595","CountyId":"20345678","CityId":"20345882"}}},{"Relevance":1.0,"Distance":27.7,"MatchLevel":"houseNumber","MatchQuality":{"Country":1.0,"State":1.0,"County":1.0,"City":1.0,"District":1.0,"Street":[1.0],"HouseNumber":1.0,"PostalCode":1.0},"MatchType":"interpolated","Location":{"LocationId":"NT_qRWAbr.gEhqzi66oW-phZD_l_78764673_R_zAD","LocationType":"point","DisplayPosition":{"Latitude":54.7796,"Longitude":-1.551035},"MapView":{"TopLeft":{"Latitude":54.7807242,"Longitude":-1.5529842},"BottomRight":{"Latitude":54.7784759,"Longitude":-1.5490858}},"Address":{"Label":"30 Sunderland Road, Durham, DH1 2LE, United Kingdom","Country":"GBR","State":"England","County":"County Durham","City":"Durham","District":"Durham","Street":"Sunderland Road","HouseNumber":"30","PostalCode":"DH1 2LE","AdditionalData":[{"value":"United Kingdom","key":"CountryName"},{"value":"England","key":"StateName"},{"value":"County Durham","key":"CountyName"}]},"MapReference":{"ReferenceId":"78764673","Spot":0.5,"SideOfStreet":"right","StateId":"20248595","CountyId":"20345678","CityId":"20345882","DistrictId":"20345883"}}},{"Relevance":1.0,"Distance":29.2,"MatchLevel":"houseNumber","MatchQuality":{"Country":1.0,"State":1.0,"County":1.0,"City":1.0,"District":1.0,"Street":[1.0],"HouseNumber":1.0,"PostalCode":1.0},"MatchType":"interpolated","Location":{"LocationId":"NT_UXcSJWDFFc4OTQQz8-n4GC_l_78764676_L_xA","LocationType":"point","DisplayPosition":{"Latitude":54.78022,"Longitude":-1.5512201},"MapView":{"TopLeft":{"Latitude":54.7813442,"Longitude":-1.5531693},"BottomRight":{"Latitude":54.7790959,"Longitude":-1.5492708}},"Address":{"Label":"1 Mackintosh Court, Durham, DH1 1PY, United Kingdom","Country":"GBR","State":"England","County":"County Durham","City":"Durham","District":"Gilesgate","Street":"Mackintosh Court","HouseNumber":"1","PostalCode":"DH1 1PY","AdditionalData":[{"value":"United Kingdom","key":"CountryName"},{"value":"England","key":"StateName"},{"value":"County Durham","key":"CountyName"}]},"MapReference":{"ReferenceId":"78764676","Spot":0.0,"SideOfStreet":"left","StateId":"20248595","CountyId":"20345678","CityId":"20345882","DistrictId":"20345905"}}},{"Relevance":1.0,"Distance":32.9,"MatchLevel":"houseNumber","MatchQuality":{"Country":1.0,"State":1.0,"County":1.0,"City":1.0,"District":1.0,"Street":[1.0],"HouseNumber":1.0,"PostalCode":1.0},"MatchType":"interpolated","Location":{"LocationId":"NT_qRWAbr.gEhqzi66oW-phZD_l_744106624_L_1QD","LocationType":"point","DisplayPosition":{"Latitude":54.7795367,"Longitude":-1.5515833},"MapView":{"TopLeft":{"Latitude":54.7806608,"Longitude":-1.5535325},"BottomRight":{"Latitude":54.7784125,"Longitude":-1.5496341}},"Address":{"Label":"54 Sunderland Road, Durham, DH1 2QG, United Kingdom","Country":"GBR","State":"England","County":"County Durham","City":"Durham","District":"Durham","Street":"Sunderland Road","HouseNumber":"54","PostalCode":"DH1 2QG","AdditionalData":[{"value":"United Kingdom","key":"CountryName"},{"value":"England","key":"StateName"},{"value":"County Durham","key":"CountyName"}]},"MapReference":{"ReferenceId":"744106624","Spot":0.67,"SideOfStreet":"left","StateId":"20248595","CountyId":"20345678","CityId":"20345882","DistrictId":"20345883"}}},{"Relevance":1.0,"Distance":41.3,"MatchLevel":"houseNumber","MatchQuality":{"Country":1.0,"State":1.0,"County":1.0,"City":1.0,"District":1.0,"Street":[1.0],"HouseNumber":1.0,"PostalCode":1.0},"MatchType":"interpolated","Location":{"LocationId":"NT_IF4I7ecRjP02t8-2CpW85A_l_1204134942_R_xA","LocationType":"point","DisplayPosition":{"Latitude":54.77938,"Longitude":-1.551396},"MapView":{"TopLeft":{"Latitude":54.7805042,"Longitude":-1.5533452},"BottomRight":{"Latitude":54.7782559,"Longitude":-1.5494468}},"Address":{"Label":"1 Edge Court, Durham, DH1 2JY, United Kingdom","Country":"GBR","State":"England","County":"County Durham","City":"Durham","District":"Durham","Street":"Edge Court","HouseNumber":"1","PostalCode":"DH1 2JY","AdditionalData":[{"value":"United Kingdom","key":"CountryName"},{"value":"England","key":"StateName"},{"value":"County Durham","key":"CountyName"}]},"MapReference":{"ReferenceId":"1204134942","Spot":0.59,"SideOfStreet":"right","StateId":"20248595","CountyId":"20345678","CityId":"20345882","DistrictId":"20345883"}}},{"Relevance":1.0,"Distance":41.5,"MatchLevel":"houseNumber","MatchQuality":{"Country":1.0,"State":1.0,"County":1.0,"City":1.0,"District":1.0,"Street":[1.0],"HouseNumber":1.0,"PostalCode":1.0},"MatchType":"interpolated","Location":{"LocationId":"NT_YfnzmJ1.bRt9oJFpy8yYiA_l_78764679_R_2UD","LocationType":"point","DisplayPosition":{"Latitude":54.78032,"Longitude":-1.55106},"MapView":{"TopLeft":{"Latitude":54.7814442,"Longitude":-1.5530092},"BottomRight":{"Latitude":54.7791959,"Longitude":-1.5491107}},"Address":{"Label":"65 Mackintosh Court, Durham, DH1 1PZ, United Kingdom","Country":"GBR","State":"England","County":"County Durham","City":"Durham","District":"Gilesgate","Street":"Mackintosh Court","HouseNumber":"65","PostalCode":"DH1 1PZ","AdditionalData":[{"value":"United Kingdom","key":"CountryName"},{"value":"England","key":"StateName"},{"value":"County Durham","key":"CountyName"}]},"MapReference":{"ReferenceId":"78764679","Spot":0.31,"SideOfStreet":"right","StateId":"20248595","CountyId":"20345678","CityId":"20345882","DistrictId":"20345905"}}},{"Relevance":1.0,"Distance":49.1,"MatchLevel":"street","MatchQuality":{"Country":1.0,"State":1.0,"County":1.0,"City":1.0,"District":1.0,"Street":[1.0],"PostalCode":1.0},"Location":{"LocationId":"NT_b-ucrU9ns7.kUu.UBfG6lA_l_744106625_R","LocationType":"point","DisplayPosition":{"Latitude":54.7796004,"Longitude":-1.5518229},"MapView":{"TopLeft":{"Latitude":54.7799,"Longitude":-1.55201},"BottomRight":{"Latitude":54.77951,"Longitude":-1.55179}},"Address":{"Label":"Glue Garth, Durham, DH1 2, United Kingdom","Country":"GBR","State":"England","County":"County Durham","City":"Durham","District":"Durham","Street":"Glue Garth","PostalCode":"DH1 2","AdditionalData":[{"value":"United Kingdom","key":"CountryName"},{"value":"England","key":"StateName"},{"value":"County Durham","key":"CountyName"}]},"MapReference":{"ReferenceId":"744106625","Spot":0.21,"SideOfStreet":"right","StateId":"20248595","CountyId":"20345678","CityId":"20345882","DistrictId":"20345883"}}},{"Relevance":1.0,"Distance":50.6,"MatchLevel":"postalCode","MatchQuality":{"PostalCode":1.0},"MatchType":"interpolated","Location":{"LocationId":"NT_qRWAbr.gEhqzi66oW-phZD_l_744106623_L_1ED","LocationType":"point","DisplayPosition":{"Latitude":54.77962,"Longitude":-1.55187},"MapView":{"TopLeft":{"Latitude":54.7886132,"Longitude":-1.5674637},"BottomRight":{"Latitude":54.7706268,"Longitude":-1.5362763}},"Address":{"Label":"DH1 2QG, Durham, England, United Kingdom","Country":"GBR","State":"England","County":"County Durham","City":"Durham","PostalCode":"DH1 2QG","AdditionalData":[{"value":"United Kingdom","key":"CountryName"},{"value":"England","key":"StateName"},{"value":"County Durham","key":"CountyName"}]},"MapReference":{"ReferenceId":"744106623","Spot":0.75,"SideOfStreet":"neither","StateId":"20248595","CountyId":"20345678","CityId":"20345882"}}}]}]}}