{"Response":{"MetaInfo":{"Timestamp":"2020-03-28T11:28:09.098+0000","NextPageInformation":"2"},"View":[{"_type":"SearchResultsViewType","ViewId":0,"Result":[{"Relevance":1.0,"Distance":0.0,"Direction":0.0,"MatchLevel":"district","MatchQuality":{"Country":1.0,"State":1.0,"County":1.0,"City":1.0,"District":1.0,"PostalCode":1.0},"Location":{"LocationId":"NT_rYN.ll1G.jiGzMy-aYLD2D","LocationType":"point","DisplayPosition":{"Latitude":54.7364456,"Longitude":25.2938543},"MapView":{"TopLeft":{"Latitude":54.826,"Longitude":25.29038},"BottomRight":{"Latitude":54.68619,"Longitude":25.45655}},"Address":{"Label":"Antakalnis, Vilnius, Vilniaus Apskritis, Lietuva","Country":"LTU","State":"Vilniaus Apskritis","County":"Vilniaus Miesto savivaldybė","City":"Vilnius","District":"Antakalnis","PostalCode":"10102","AdditionalData":[{"value":"Lietuva","key":"CountryName"},{"value":"Vilniaus Apskritis","key":"StateName"},{"value":"Vilniaus Miesto savivaldybė","key":"CountyName"}]},"MapReference":{"ReferenceId":"752460862","SideOfStreet":"neither","CountryId":"20633740","StateId":"23290632","CountyId":"23292198","CityId":"23292354","DistrictId":"23292716"}}},{"Relevance":1.0,"Distance":16.2,"MatchLevel":"houseNumber","MatchQuality":{"Country":1.0,"State":1.0,"County":1.0,"City":1.0,"District":1.0,"Street":[1.0],"HouseNumber":1.0,"PostalCode":1.0},"MatchType":"interpolated","Location":{"LocationId":"NT_EiVWRkzwvd1DeHVj4nFKSB_2kD","LocationType":"point","DisplayPosition":{"Latitude":54.73644,"Longitude":25.29443},"MapView":{"TopLeft":{"Latitude":54.7375642,"Longitude":25.2924829},"BottomRight":{"Latitude":54.7353158,"Longitude":25.2963771}},"Address":{"Label":"Vaidilutės gatvė 69, LT-10100 Vilnius, Lietuva","Country":"LTU","State":"Vilniaus Apskritis","County":"Vilniaus Miesto savivaldybė","City":"Vilnius","District":"Antakalnis","Street":"Vaidilutės gatvė","HouseNumber":"69","PostalCode":"10100","AdditionalData":[{"value":"Lietuva","key":"CountryName"},{"value":"Vilniaus Apskritis","key":"StateName"},{"value":"Vilniaus Miesto savivaldybė","key":"CountyName"}]},"MapReference":{"ReferenceId":"1225666264","Spot":0.71,"SideOfStreet":"left","CountryId":"20633740","StateId":"23290632","CountyId":"23292198","CityId":"23292354","DistrictId":"23292716","AddressId":"339717260","RoadLinkId":"543922468"}}},{"Relevance":1.0,"Distance":38.7,"MatchLevel":"street","MatchQuality":{"Country":1.0,"State":1.0,"County":1.0,"City":1.0,"District":1.0,"Street":[1.0],"PostalCode":1.0},"Location":{"LocationId":"NT_EiVWRkzwvd1DeHVj4nFKSB_l_1225666265_L","LocationType":"point","DisplayPosition":{"Latitude":54.73666,"Longitude":25.29433},"MapView":{"TopLeft":{"Latitude":54.73799,"Longitude":25.29401},"BottomRight":{"Latitude":54.73666,"Longitude":25.29433}},"Address":{"Label":"Vaidilutės gatvė, LT-10100 Vilnius, Lietuva","Country":"LTU","State":"Vilniaus Apskritis","County":"Vilniaus Miesto savivaldybė","City":"Vilnius","District":"Antakalnis","Street":"Vaidilutės gatvė","PostalCode":"10100","AdditionalData":[{"value":"Lietuva","key":"CountryName"},{"value":"Vilniaus Apskritis","key":"StateName"},{"value":"Vilniaus Miesto savivaldybė","key":"CountyName"}]},"MapReference":{"ReferenceId":"1225666265","Spot":0.0,"SideOfStreet":"left","CountryId":"20633740","StateId":"23290632","CountyId":"23292198","CityId":"23292354","DistrictId":"23292716"}}},{"Relevance":1.0,"Distance":55.5,"MatchLevel":"street","MatchQuality":{"Country":1.0,"State":1.0,"County":1.0,"City":1.0,"District":1.0,"Street":[1.0],"PostalCode":1.0},"Location":{"LocationId":"NT_edOvzdycjUeYjCfFyDUoyD_l_752550274_R","LocationType":"point","DisplayPosition":{"Latitude":54.7359465,"Longitude":25.2938328},"MapView":{"TopLeft":{"Latitude":54.73601,"Longitude":25.29236},"BottomRight":{"Latitude":54.73591,"Longitude":25.29468}},"Address":{"Label":"Rato gatvė, LT-10100 Vilnius, Lietuva","Country":"LTU","State":"Vilniaus Apskritis","County":"Vilniaus Miesto savivaldybė","City":"Vilnius","District":"Antakalnis","Street":"Rato gatvė","PostalCode":"10100","AdditionalData":[{"value":"Lietuva","key":"CountryName"},{"value":"Vilniaus Apskritis","key":"StateName"},{"value":"Vilniaus Miesto savivaldybė","key":"CountyName"}]},"MapReference":{"ReferenceId":"752550274","Spot":0.37,"SideOfStreet":"right","CountryId":"20633740","StateId":"23290632","CountyId":"23292198","CityId":"23292354","DistrictId":"23292716"}}},{"Relevance":1.0,"Distance":95.8,"MatchLevel":"street","MatchQuality":{"Country":1.0,"State":1.0,"County":1.0,"City":1.0,"District":1.0,"Street":[1.0],"PostalCode":1.0},"Location":{"LocationId":"NT_edOvzdycjUeYjCfFyDUoyD_l_752580812_R","LocationType":"point","DisplayPosition":{"Latitude":54.7356,"Longitude":25.29357},"MapView":{"TopLeft":{"Latitude":54.7356,"Longitude":25.29357},"BottomRight":{"Latitude":54.73531,"Longitude":25.29502}},"Address":{"Label":"Rato gatvė, LT-10101 Vilnius, Lietuva","Country":"LTU","State":"Vilniaus Apskritis","County":"Vilniaus Miesto savivaldybė","City":"Vilnius","District":"Antakalnis","Street":"Rato gatvė","PostalCode":"10101","AdditionalData":[{"value":"Lietuva","key":"CountryName"},{"value":"Vilniaus Apskritis","key":"StateName"},{"value":"Vilniaus Miesto savivaldybė","key":"CountyName"}]},"MapReference":{"ReferenceId":"752580812","Spot":1.0,"SideOfStreet":"right","CountryId":"20633740","StateId":"23290632","CountyId":"23292198","CityId":"23292354","DistrictId":"23292716"}}},{"Relevance":1.0,"Distance":96.3,"MatchLevel":"houseNumber","MatchQuality":{"Country":1.0,"State":1.0,"County":1.0,"City":1.0,"District":1.0,"Street":[1.0],"HouseNumber":1.0,"PostalCode":1.0},"MatchType":"interpolated","Location":{"LocationId":"NT_EiVWRkzwvd1DeHVj4nFKSB_2UzY","LocationType":"point","DisplayPosition":{"Latitude":54.73578,"Longitude":25.29476},"MapView":{"TopLeft":{"Latitude":54.7369042,"Longitude":25.2928129},"BottomRight":{"Latitude":54.7346558,"Longitude":25.2967071}},"Address":{"Label":"Vaidilutės gatvė 65c, LT-10100 Vilnius, Lietuva","Country":"LTU","State":"Vilniaus Apskritis","County":"Vilniaus Miesto savivaldybė","City":"Vilnius","District":"Antakalnis","Street":"Vaidilutės gatvė","HouseNumber":"65c","PostalCode":"10100","AdditionalData":[{"value":"Lietuva","key":"CountryName"},{"value":"Vilniaus Apskritis","key":"StateName"},{"value":"Vilniaus Miesto savivaldybė","key":"CountyName"}]},"MapReference":{"ReferenceId":"752262573","Spot":0.75,"SideOfStreet":"left","CountryId":"20633740","StateId":"23290632","CountyId":"23292198","CityId":"23292354","DistrictId":"23292716","AddressId":"667387335","RoadLinkId":"148482396"}}},{"Relevance":1.0,"Distance":99.4,"MatchLevel":"street","MatchQuality":{"Country":1.0,"State":1.0,"County":1.0,"City":1.0,"District":1.0,"PostalCode":1.0},"Location":{"LocationId":"NT_Ad39I9ZKOoGyLdBMUEQeGD_l_1225666240_R","LocationType":"point","DisplayPosition":{"Latitude":54.7362853,"Longitude":25.292331},"MapView":{"TopLeft":{"Latitude":54.73879,"Longitude":25.292},"BottomRight":{"Latitude":54.73601,"Longitude":25.29242}},"Address":{"Label":"LT-10101 Vilnius, Lietuva","Country":"LTU","State":"Vilniaus Apskritis","County":"Vilniaus Miesto savivaldybė","City":"Vilnius","District":"Antakalnis","PostalCode":"10101","AdditionalData":[{"value":"Lietuva","key":"CountryName"},{"value":"Vilniaus Apskritis","key":"StateName"},{"value":"Vilniaus Miesto savivaldybė","key":"CountyName"}]},"MapReference":{"ReferenceId":"1225666240","Spot":0.09,"SideOfStreet":"right","CountryId":"20633740","StateId":"23290632","CountyId":"23292198","CityId":"23292354","DistrictId":"23292716"}}},{"Relevance":1.0,"Distance":104.4,"MatchLevel":"houseNumber","MatchQuality":{"Country":1.0,"State":1.0,"County":1.0,"City":1.0,"District":1.0,"Street":[1.0],"HouseNumber":1.0,"PostalCode":1.0},"MatchType":"interpolated","Location":{"LocationId":"NT_EiVWRkzwvd1DeHVj4nFKSB_2UjY","LocationType":"point","DisplayPosition":{"Latitude":54.73496,"Longitude":25.29323},"MapView":{"TopLeft":{"Latitude":54.7360842,"Longitude":25.2912829},"BottomRight":{"Latitude":54.7338358,"Longitude":25.2951771}},"Address":{"Label":"Vaidilutės gatvė 65b, LT-10100 Vilnius, Lietuva","Country":"LTU","State":"Vilniaus Apskritis","County":"Vilniaus Miesto savivaldybė","City":"Vilnius","District":"Antakalnis","Street":"Vaidilutės gatvė","HouseNumber":"65b","PostalCode":"10100","AdditionalData":[{"value":"Lietuva","key":"CountryName"},{"value":"Vilniaus Apskritis","key":"StateName"},{"value":"Vilniaus Miesto savivaldybė","key":"CountyName"}]},"MapReference":{"ReferenceId":"752402888","Spot":0.18,"SideOfStreet":"left","CountryId":"20633740","StateId":"23290632","CountyId":"23292198","CityId":"23292354","DistrictId":"23292716","AddressId":"726013053","RoadLinkId":"290484198"}}},{"Relevance":1.0,"Distance":107.5,"MatchLevel":"street","MatchQuality":{"Country":1.0,"State":1.0,"County":1.0,"City":1.0,"District":1.0,"Street":[1.0],"PostalCode":1.0},"Location":{"LocationId":"NT_cQ2tmpSvcUPDCzITXaNLeA_l_752365073_R","LocationType":"point","DisplayPosition":{"Latitude":54.73601,"Longitude":25.29236},"MapView":{"TopLeft":{"Latitude":54.73601,"Longitude":25.29236},"BottomRight":{"Latitude":54.73075,"Longitude":25.30204}},"Address":{"Label":"Verkių gatvė, LT-10101 Vilnius, Lietuva","Country":"LTU","State":"Vilniaus Apskritis","County":"Vilniaus Miesto savivaldybė","City":"Vilnius","District":"Antakalnis","Street":"Verkių gatvė","PostalCode":"10101","AdditionalData":[{"value":"Lietuva","key":"CountryName"},{"value":"Vilniaus Apskritis","key":"StateName"},{"value":"Vilniaus Miesto savivaldybė","key":"CountyName"}]},"MapReference":{"ReferenceId":"752365073","Spot":1.0,"SideOfStreet":"right","CountryId":"20633740","StateId":"23290632","CountyId":"23292198","CityId":"23292354","DistrictId":"23292716"}}},{"Relevance":1.0,"Distance":138.3,"MatchLevel":"houseNumber","MatchQuality":{"Country":1.0,"State":1.0,"County":1.0,"City":1.0,"District":1.0,"Street":[1.0],"HouseNumber":1.0,"PostalCode":1.0},"MatchType":"interpolated","Location":{"LocationId":"NT_EiVWRkzwvd1DeHVj4nFKSB_yAD","LocationType":"point","DisplayPosition":{"Latitude":54.7354,"Longitude":25.29502},"MapView":{"TopLeft":{"Latitude":54.7365242,"Longitude":25.2930729},"BottomRight":{"Latitude":54.7342758,"Longitude":25.2969671}},"Address":{"Label":"Vaidilutės gatvė 20, LT-10100 Vilnius, Lietuva","Country":"LTU","State":"Vilniaus Apskritis","County":"Vilniaus Miesto savivaldybė","City":"Vilnius","District":"Antakalnis","Street":"Vaidilutės gatvė","HouseNumber":"20","PostalCode":"10100","AdditionalData":[{"value":"Lietuva","key":"CountryName"},{"value":"Vilniaus Apskritis","key":"StateName"},{"value":"Vilniaus Miesto savivaldybė","key":"CountyName"}]},"MapReference":{"ReferenceId":"752483022","Spot":1.0,"SideOfStreet":"right","CountryId":"20633740","StateId":"23290632","CountyId":"23292198","CityId":"23292354","DistrictId":"23292716","AddressId":"667505657","RoadLinkId":"148380009"}}}]}]}}