{"Response":{"MetaInfo":{"Timestamp":"2020-03-28T11:15:09.310+0000","NextPageInformation":"2"},"View":[{"_type":"SearchResultsViewType","ViewId":0,"Result":[{"Relevance":1.0,"Distance":-11.5,"MatchLevel":"landmark","MatchQuality":{"Country":1.0,"State":1.0,"County":1.0,"City":1.0,"District":1.0,"PostalCode":1.0,"Name":1.0},"Location":{"LocationId":"NT_jVlnBKRWp7tKywibL0IZZB_p_dzN5b3B5xmIKNJflAM.DEC","LocationType":"hospital","Name":"Antrim Hospital","DisplayPosition":{"Latitude":54.73334,"Longitude":-6.18644},"MapView":{"TopLeft":{"Latitude":54.73587,"Longitude":-6.19757},"BottomRight":{"Latitude":54.72985,"Longitude":-6.18124}},"Address":{"Label":"Antrim, BT41 2, United Kingdom","Country":"GBR","State":"Northern Ireland","County":"County Antrim","City":"Antrim","District":"Antrim","PostalCode":"BT41 2","AdditionalData":[{"value":"United Kingdom","key":"CountryName"},{"value":"Northern Ireland","key":"StateName"},{"value":"County Antrim","key":"CountyName"}]},"MapReference":{"StateId":"20403688","CountyId":"20411119","CityId":"20419108","DistrictId":"20419109","PlaceId":"544866888"}}},{"Relevance":1.0,"Distance":0.0,"Direction":0.0,"MatchLevel":"district","MatchQuality":{"Country":1.0,"State":1.0,"County":1.0,"City":1.0,"District":1.0,"PostalCode":1.0},"Location":{"LocationId":"NT_BW1vIhm-wQyncjsAGM9lbA","LocationType":"point","DisplayPosition":{"Latitude":54.7356661,"Longitude":-6.1879101},"MapView":{"TopLeft":{"Latitude":54.73586,"Longitude":-6.22294},"BottomRight":{"Latitude":54.66711,"Longitude":-6.11186}},"Address":{"Label":"Muckamore, Antrim, Northern Ireland, United Kingdom","Country":"GBR","State":"Northern Ireland","County":"County Antrim","City":"Antrim","District":"Muckamore","PostalCode":"BT41 4","AdditionalData":[{"value":"United Kingdom","key":"CountryName"},{"value":"Northern Ireland","key":"StateName"},{"value":"County Antrim","key":"CountyName"}]},"MapReference":{"ReferenceId":"564877492","SideOfStreet":"neither","StateId":"20403688","CountyId":"20411119","CityId":"20419108","DistrictId":"20419111"}}},{"Relevance":1.0,"Distance":11.6,"MatchLevel":"street","MatchQuality":{"Country":1.0,"State":1.0,"County":1.0,"City":1.0,"District":1.0,"PostalCode":1.0},"Location":{"LocationId":"NT_jT7gm0y6ntJCDHEb7-FpnA_l_554966297_R","LocationType":"point","DisplayPosition":{"Latitude":54.73576,"Longitude":-6.18799},"MapView":{"TopLeft":{"Latitude":54.73579,"Longitude":-6.18816},"BottomRight":{"Latitude":54.73567,"Longitude":-6.18797}},"Address":{"Label":"Antrim, BT41 2, United Kingdom","Country":"GBR","State":"Northern Ireland","County":"County Antrim","City":"Antrim","District":"Antrim","PostalCode":"BT41 2","AdditionalData":[{"value":"United Kingdom","key":"CountryName"},{"value":"Northern Ireland","key":"StateName"},{"value":"County Antrim","key":"CountyName"}]},"MapReference":{"ReferenceId":"554966297","Spot":0.84,"SideOfStreet":"right","StateId":"20403688","CountyId":"20411119","CityId":"20419108","DistrictId":"20419109"}}},{"Relevance":1.0,"Distance":14.3,"MatchLevel":"street","MatchQuality":{"Country":1.0,"State":1.0,"County":1.0,"City":1.0,"District":1.0,"PostalCode":1.0},"Location":{"LocationId":"NT_41cNZHxEDf5IZ2rvH0roeC_l_554966298_R","LocationType":"point","DisplayPosition":{"Latitude":54.73579,"Longitude":-6.18797},"MapView":{"TopLeft":{"Latitude":54.73586,"Longitude":-6.18797},"BottomRight":{"Latitude":54.73579,"Longitude":-6.18794}},"Address":{"Label":"Antrim, BT41 2, United Kingdom","Country":"GBR","State":"Northern Ireland","County":"County Antrim","City":"Antrim","District":"Muckamore","PostalCode":"BT41 2","AdditionalData":[{"value":"United Kingdom","key":"CountryName"},{"value":"Northern Ireland","key":"StateName"},{"value":"County Antrim","key":"CountyName"}]},"MapReference":{"ReferenceId":"554966298","Spot":0.0,"SideOfStreet":"right","StateId":"20403688","CountyId":"20411119","CityId":"20419108","DistrictId":"20419111"}}},{"Relevance":1.0,"Distance":14.7,"MatchLevel":"street","MatchQuality":{"Country":1.0,"State":1.0,"County":1.0,"City":1.0,"District":1.0,"PostalCode":1.0},"Location":{"LocationId":"NT_jT7gm0y6ntJCDHEb7-FpnA_l_554966294_L","LocationType":"point","DisplayPosition":{"Latitude":54.7357969,"Longitude":-6.1879409},"MapView":{"TopLeft":{"Latitude":54.73587,"Longitude":-6.18797},"BottomRight":{"Latitude":54.73386,"Longitude":-6.18124}},"Address":{"Label":"Antrim, BT41 2, United Kingdom","Country":"GBR","State":"Northern Ireland","County":"County Antrim","City":"Antrim","District":"Antrim","PostalCode":"BT41 2","AdditionalData":[{"value":"United Kingdom","key":"CountryName"},{"value":"Northern Ireland","key":"StateName"},{"value":"County Antrim","key":"CountyName"}]},"MapReference":{"ReferenceId":"554966294","Spot":1.0,"SideOfStreet":"left","StateId":"20403688","CountyId":"20411119","CityId":"20419108","DistrictId":"20419109"}}},{"Relevance":1.0,"Distance":15.1,"MatchLevel":"street","MatchQuality":{"Country":1.0,"State":1.0,"County":1.0,"City":1.0,"District":1.0,"PostalCode":1.0},"Location":{"LocationId":"NT_jT7gm0y6ntJCDHEb7-FpnA_l_1218750106_R","LocationType":"point","DisplayPosition":{"Latitude":54.7355446,"Longitude":-6.1880158},"MapView":{"TopLeft":{"Latitude":54.73567,"Longitude":-6.18816},"BottomRight":{"Latitude":54.73547,"Longitude":-6.18793}},"Address":{"Label":"Antrim, BT41 2, United Kingdom","Country":"GBR","State":"Northern Ireland","County":"County Antrim","City":"Antrim","District":"Antrim","PostalCode":"BT41 2","AdditionalData":[{"value":"United Kingdom","key":"CountryName"},{"value":"Northern Ireland","key":"StateName"},{"value":"County Antrim","key":"CountyName"}]},"MapReference":{"ReferenceId":"1218750106","Spot":0.37,"SideOfStreet":"right","StateId":"20403688","CountyId":"20411119","CityId":"20419108","DistrictId":"20419109"}}},{"Relevance":1.0,"Distance":16.0,"MatchLevel":"street","MatchQuality":{"Country":1.0,"State":1.0,"County":1.0,"City":1.0,"District":1.0,"PostalCode":1.0},"Location":{"LocationId":"NT_jT7gm0y6ntJCDHEb7-FpnA_l_554966376_L","LocationType":"point","DisplayPosition":{"Latitude":54.73567,"Longitude":-6.18816},"MapView":{"TopLeft":{"Latitude":54.73568,"Longitude":-6.18862},"BottomRight":{"Latitude":54.73564,"Longitude":-6.18816}},"Address":{"Label":"Antrim, BT41 2, United Kingdom","Country":"GBR","State":"Northern Ireland","County":"County Antrim","City":"Antrim","District":"Antrim","PostalCode":"BT41 2","AdditionalData":[{"value":"United Kingdom","key":"CountryName"},{"value":"Northern Ireland","key":"StateName"},{"value":"County Antrim","key":"CountyName"}]},"MapReference":{"ReferenceId":"554966376","Spot":0.0,"SideOfStreet":"left","StateId":"20403688","CountyId":"20411119","CityId":"20419108","DistrictId":"20419109"}}},{"Relevance":1.0,"Distance":21.6,"MatchLevel":"street","MatchQuality":{"Country":1.0,"State":1.0,"County":1.0,"City":1.0,"District":1.0,"PostalCode":1.0},"Location":{"LocationId":"NT_jT7gm0y6ntJCDHEb7-FpnA_l_716292438_R","LocationType":"point","DisplayPosition":{"Latitude":54.73586,"Longitude":-6.18794},"MapView":{"TopLeft":{"Latitude":54.73612,"Longitude":-6.18821},"BottomRight":{"Latitude":54.73586,"Longitude":-6.18794}},"Address":{"Label":"Antrim, BT41 2, United Kingdom","Country":"GBR","State":"Northern Ireland","County":"County Antrim","City":"Antrim","District":"Antrim","PostalCode":"BT41 2","AdditionalData":[{"value":"United Kingdom","key":"CountryName"},{"value":"Northern Ireland","key":"StateName"},{"value":"County Antrim","key":"CountyName"}]},"MapReference":{"ReferenceId":"716292438","Spot":0.0,"SideOfStreet":"right","StateId":"20403688","CountyId":"20411119","CityId":"20419108","DistrictId":"20419109"}}},{"Relevance":1.0,"Distance":21.8,"MatchLevel":"street","MatchQuality":{"Country":1.0,"State":1.0,"County":1.0,"City":1.0,"District":1.0,"PostalCode":1.0},"Location":{"LocationId":"NT_jT7gm0y6ntJCDHEb7-FpnA_l_1218750105_R","LocationType":"point","DisplayPosition":{"Latitude":54.73547,"Longitude":-6.18793},"MapView":{"TopLeft":{"Latitude":54.73547,"Longitude":-6.18793},"BottomRight":{"Latitude":54.73513,"Longitude":-6.18754}},"Address":{"Label":"Antrim, BT41 2, United Kingdom","Country":"GBR","State":"Northern Ireland","County":"County Antrim","City":"Antrim","District":"Antrim","PostalCode":"BT41 2","AdditionalData":[{"value":"United Kingdom","key":"CountryName"},{"value":"Northern Ireland","key":"StateName"},{"value":"County Antrim","key":"CountyName"}]},"MapReference":{"ReferenceId":"1218750105","Spot":1.0,"SideOfStreet":"right","StateId":"20403688","CountyId":"20411119","CityId":"20419108","DistrictId":"20419109"}}},{"Relevance":1.0,"Distance":45.6,"MatchLevel":"street","MatchQuality":{"Country":1.0,"State":1.0,"County":1.0,"City":1.0,"District":1.0,"Street":[1.0],"PostalCode":1.0},"Location":{"LocationId":"NT_qsoOBy5Xhbh3GZYgWBATDD_l_783687133_R","LocationType":"point","DisplayPosition":{"Latitude":54.73568,"Longitude":-6.18862},"MapView":{"TopLeft":{"Latitude":54.73568,"Longitude":-6.1889},"BottomRight":{"Latitude":54.73552,"Longitude":-6.18862}},"Address":{"Label":"Bush Road, Antrim, BT41 2, United Kingdom","Country":"GBR","State":"Northern Ireland","County":"County Antrim","City":"Antrim","District":"Antrim","Street":"Bush Road","PostalCode":"BT41 2","AdditionalData":[{"value":"United Kingdom","key":"CountryName"},{"value":"Northern Ireland","key":"StateName"},{"value":"County Antrim","key":"CountyName"}]},"MapReference":{"ReferenceId":"783687133","Spot":1.0,"SideOfStreet":"right","StateId":"20403688","CountyId":"20411119","CityId":"20419108","DistrictId":"20419109"}}}]}]}}