{"Response":{"MetaInfo":{"Timestamp":"2020-03-28T10:10:18.372+0000","NextPageInformation":"2"},"View":[{"_type":"SearchResultsViewType","ViewId":0,"Result":[{"Relevance":1.0,"Distance":0.0,"Direction":0.0,"MatchLevel":"district","MatchQuality":{"Country":1.0,"State":1.0,"County":1.0,"City":1.0,"District":1.0,"PostalCode":1.0},"Location":{"LocationId":"NT_zpkb0W3EDftzsm8iG.mADD","LocationType":"point","DisplayPosition":{"Latitude":54.772601,"Longitude":-1.5715226},"MapView":{"TopLeft":{"Latitude":54.7962,"Longitude":-1.60226},"BottomRight":{"Latitude":54.75203,"Longitude":-1.51504}},"Address":{"Label":"Durham, England, United Kingdom","Country":"GBR","State":"England","County":"County Durham","City":"Durham","District":"Durham","PostalCode":"DH1 1","AdditionalData":[{"value":"United Kingdom","key":"CountryName"},{"value":"England","key":"StateName"},{"value":"County Durham","key":"CountyName"}]},"MapReference":{"ReferenceId":"1150121902","SideOfStreet":"neither","StateId":"20248595","CountyId":"20345678","CityId":"20345882","DistrictId":"20345883"}}},{"Relevance":1.0,"Distance":7.2,"MatchLevel":"houseNumber","MatchQuality":{"Country":1.0,"State":1.0,"County":1.0,"City":1.0,"District":1.0,"Street":[1.0],"HouseNumber":1.0,"PostalCode":1.0},"MatchType":"interpolated","Location":{"LocationId":"NT_NLSsFkGz5Kgcw2Hhlkg9LB_l_820627124_L_zED","LocationType":"point","DisplayPosition":{"Latitude":54.7726077,"Longitude":-1.5714116},"MapView":{"TopLeft":{"Latitude":54.7737319,"Longitude":-1.5733605},"BottomRight":{"Latitude":54.7714836,"Longitude":-1.5694627}},"Address":{"Label":"31 Church Street, Durham, DH1 3, United Kingdom","Country":"GBR","State":"England","County":"County Durham","City":"Durham","District":"Durham","Street":"Church Street","HouseNumber":"31","PostalCode":"DH1 3","AdditionalData":[{"value":"United Kingdom","key":"CountryName"},{"value":"England","key":"StateName"},{"value":"County Durham","key":"CountyName"}]},"MapReference":{"ReferenceId":"820627124","Spot":0.66,"SideOfStreet":"left","StateId":"20248595","CountyId":"20345678","CityId":"20345882","DistrictId":"20345883"}}},{"Relevance":1.0,"Distance":11.8,"MatchLevel":"postalCode","MatchQuality":{"PostalCode":1.0},"MatchType":"interpolated","Location":{"LocationId":"NT_NLSsFkGz5Kgcw2Hhlkg9LB_l_820627124_L_zED","LocationType":"point","DisplayPosition":{"Latitude":54.77259,"Longitude":-1.57134},"MapView":{"TopLeft":{"Latitude":54.7815832,"Longitude":-1.5869309},"BottomRight":{"Latitude":54.7635968,"Longitude":-1.5557491}},"Address":{"Label":"DH1 3DG, Durham, England, United Kingdom","Country":"GBR","State":"England","County":"County Durham","City":"Durham","PostalCode":"DH1 3DG","AdditionalData":[{"value":"United Kingdom","key":"CountryName"},{"value":"England","key":"StateName"},{"value":"County Durham","key":"CountyName"}]},"MapReference":{"ReferenceId":"820627124","Spot":0.66,"SideOfStreet":"neither","StateId":"20248595","CountyId":"20345678","CityId":"20345882"}}},{"Relevance":1.0,"Distance":30.7,"MatchLevel":"street","MatchQuality":{"Country":1.0,"State":1.0,"County":1.0,"City":1.0,"District":1.0,"Street":[1.0],"PostalCode":1.0},"Location":{"LocationId":"NT_omYkJLCjQyII8N7v2FJ4SB_l_819664080_L","LocationType":"point","DisplayPosition":{"Latitude":54.7728651,"Longitude":-1.5713843},"MapView":{"TopLeft":{"Latitude":54.77309,"Longitude":-1.5724},"BottomRight":{"Latitude":54.7728,"Longitude":-1.57126}},"Address":{"Label":"Kingsgate Bridge, Durham, DH1 3, United Kingdom","Country":"GBR","State":"England","County":"County Durham","City":"Durham","District":"Durham","Street":"Kingsgate Bridge","PostalCode":"DH1 3","AdditionalData":[{"value":"United Kingdom","key":"CountryName"},{"value":"England","key":"StateName"},{"value":"County Durham","key":"CountyName"}]},"MapReference":{"ReferenceId":"819664080","Spot":0.12,"SideOfStreet":"left","StateId":"20248595","CountyId":"20345678","CityId":"20345882","DistrictId":"20345883"}}},{"Relevance":1.0,"Distance":31.8,"MatchLevel":"houseNumber","MatchQuality":{"Country":1.0,"State":1.0,"County":1.0,"City":1.0,"District":1.0,"Street":[1.0],"HouseNumber":1.0,"PostalCode":1.0},"MatchType":"interpolated","Location":{"LocationId":"NT_--g8LZx0U64cGm.tTCrjKC_l_26877731_L_xADM","LocationType":"point","DisplayPosition":{"Latitude":54.7728265,"Longitude":-1.5709465},"MapView":{"TopLeft":{"Latitude":54.7739507,"Longitude":-1.5728954},"BottomRight":{"Latitude":54.7717024,"Longitude":-1.5689977}},"Address":{"Label":"100 Hallgarth Street, Durham, DH1 3, United Kingdom","Country":"GBR","State":"England","County":"County Durham","City":"Durham","District":"Durham","Street":"Hallgarth Street","HouseNumber":"100","PostalCode":"DH1 3","AdditionalData":[{"value":"United Kingdom","key":"CountryName"},{"value":"England","key":"StateName"},{"value":"County Durham","key":"CountyName"}]},"MapReference":{"ReferenceId":"26877731","Spot":0.8,"SideOfStreet":"left","StateId":"20248595","CountyId":"20345678","CityId":"20345882","DistrictId":"20345883"}}},{"Relevance":1.0,"Distance":38.2,"MatchLevel":"houseNumber","MatchQuality":{"Country":1.0,"State":1.0,"County":1.0,"City":1.0,"District":1.0,"Street":[1.0],"HouseNumber":1.0,"PostalCode":1.0},"MatchType":"interpolated","Location":{"LocationId":"NT_NLSsFkGz5Kgcw2Hhlkg9LB_l_820627125_L_zID","LocationType":"point","DisplayPosition":{"Latitude":54.7728899,"Longitude":-1.5712001},"MapView":{"TopLeft":{"Latitude":54.774014,"Longitude":-1.573149},"BottomRight":{"Latitude":54.7717657,"Longitude":-1.5692512}},"Address":{"Label":"32 Church Street, Durham, DH1 3, United Kingdom","Country":"GBR","State":"England","County":"County Durham","City":"Durham","District":"Durham","Street":"Church Street","HouseNumber":"32","PostalCode":"DH1 3","AdditionalData":[{"value":"United Kingdom","key":"CountryName"},{"value":"England","key":"StateName"},{"value":"County Durham","key":"CountyName"}]},"MapReference":{"ReferenceId":"820627125","Spot":0.57,"SideOfStreet":"left","StateId":"20248595","CountyId":"20345678","CityId":"20345882","DistrictId":"20345883"}}},{"Relevance":1.0,"Distance":46.5,"MatchLevel":"street","MatchQuality":{"Country":1.0,"State":1.0,"County":1.0,"City":1.0,"District":1.0,"Street":[1.0],"PostalCode":1.0},"Location":{"LocationId":"NT_lp4TS3tl0KRy5jYaf659YD_l_820627126_L","LocationType":"point","DisplayPosition":{"Latitude":54.77297,"Longitude":-1.57118},"MapView":{"TopLeft":{"Latitude":54.77315,"Longitude":-1.57118},"BottomRight":{"Latitude":54.77297,"Longitude":-1.57117}},"Address":{"Label":"New Elvet, Durham, DH1 3, United Kingdom","Country":"GBR","State":"England","County":"County Durham","City":"Durham","District":"Durham","Street":"New Elvet","PostalCode":"DH1 3","AdditionalData":[{"value":"United Kingdom","key":"CountryName"},{"value":"England","key":"StateName"},{"value":"County Durham","key":"CountyName"}]},"MapReference":{"ReferenceId":"820627126","Spot":0.0,"SideOfStreet":"left","StateId":"20248595","CountyId":"20345678","CityId":"20345882","DistrictId":"20345883"}}},{"Relevance":1.0,"Distance":51.0,"MatchLevel":"houseNumber","MatchQuality":{"Country":1.0,"State":1.0,"County":1.0,"City":1.0,"District":1.0,"Street":[1.0],"HouseNumber":1.0,"PostalCode":1.0},"MatchType":"interpolated","Location":{"LocationId":"NT_tYOD0PpG3BF2m43yW7qRxA_l_26877734_L_xA","LocationType":"point","DisplayPosition":{"Latitude":54.7721507,"Longitude":-1.571371},"MapView":{"TopLeft":{"Latitude":54.7732749,"Longitude":-1.5733199},"BottomRight":{"Latitude":54.7710266,"Longitude":-1.5694222}},"Address":{"Label":"1 Church Lane, Durham, DH1 3HF, United Kingdom","Country":"GBR","State":"England","County":"County Durham","City":"Durham","District":"Durham","Street":"Church Lane","HouseNumber":"1","PostalCode":"DH1 3HF","AdditionalData":[{"value":"United Kingdom","key":"CountryName"},{"value":"England","key":"StateName"},{"value":"County Durham","key":"CountyName"}]},"MapReference":{"ReferenceId":"26877734","Spot":0.8,"SideOfStreet":"left","StateId":"20248595","CountyId":"20345678","CityId":"20345882","DistrictId":"20345883"}}},{"Relevance":1.0,"Distance":61.3,"MatchLevel":"postalCode","MatchQuality":{"PostalCode":1.0},"Location":{"LocationId":"NT_omYkJLCjQyII8N7v2FJ4SB_l_819664080_L","LocationType":"point","DisplayPosition":{"Latitude":54.7731,"Longitude":-1.57193},"MapView":{"TopLeft":{"Latitude":54.7820932,"Longitude":-1.5875211},"BottomRight":{"Latitude":54.7641068,"Longitude":-1.5563389}},"Address":{"Label":"DH1 3AN, Durham, England, United Kingdom","Country":"GBR","State":"England","County":"County Durham","City":"Durham","PostalCode":"DH1 3AN","AdditionalData":[{"value":"United Kingdom","key":"CountryName"},{"value":"England","key":"StateName"},{"value":"County Durham","key":"CountyName"}]},"MapReference":{"ReferenceId":"819664080","Spot":0.12,"SideOfStreet":"neither","StateId":"20248595","CountyId":"20345678","CityId":"20345882"}}},{"Relevance":1.0,"Distance":64.7,"MatchLevel":"houseNumber","MatchQuality":{"Country":1.0,"State":1.0,"County":1.0,"City":1.0,"District":1.0,"Street":[1.0],"HouseNumber":1.0,"PostalCode":1.0},"MatchType":"interpolated","Location":{"LocationId":"NT_NLSsFkGz5Kgcw2Hhlkg9LB_l_26877788_R_xAD","LocationType":"point","DisplayPosition":{"Latitude":54.7720369,"Longitude":-1.5717678},"MapView":{"TopLeft":{"Latitude":54.773161,"Longitude":-1.5737167},"BottomRight":{"Latitude":54.7709127,"Longitude":-1.569819}},"Address":{"Label":"10 Church Street, Durham, DH1 3, United Kingdom","Country":"GBR","State":"England","County":"County Durham","City":"Durham","District":"Durham","Street":"Church Street","HouseNumber":"10","PostalCode":"DH1 3","AdditionalData":[{"value":"United Kingdom","key":"CountryName"},{"value":"England","key":"StateName"},{"value":"County Durham","key":"CountyName"}]},"MapReference":{"ReferenceId":"26877788","Spot":0.75,"SideOfStreet":"right","StateId":"20248595","CountyId":"20345678","CityId":"20345882","DistrictId":"20345883"}}}]}]}}