{"Response":{"MetaInfo":{"Timestamp":"2020-03-28T10:04:34.404+0000","NextPageInformation":"2"},"View":[{"_type":"SearchResultsViewType","ViewId":0,"Result":[{"Relevance":1.0,"Distance":0.0,"Direction":0.0,"MatchLevel":"district","MatchQuality":{"Country":1.0,"State":1.0,"County":1.0,"City":1.0,"District":1.0,"PostalCode":1.0},"Location":{"LocationId":"NT_o2Ec26.OxuUjJDQ0Xmx0fD","LocationType":"point","DisplayPosition":{"Latitude":54.7650278,"Longitude":9.3231225},"MapView":{"TopLeft":{"Latitude":54.78267,"Longitude":9.31419},"BottomRight":{"Latitude":54.75964,"Longitude":9.33896}},"Address":{"Label":"Handewitt, Schleswig-Holstein, Deutschland","Country":"DEU","State":"Schleswig-Holstein","County":"Schleswig-Flensburg","City":"Handewitt","District":"Handewitt","PostalCode":"24983","AdditionalData":[{"value":"Deutschland","key":"CountryName"},{"value":"Schleswig-Holstein","key":"StateName"},{"value":"Schleswig-Flensburg","key":"CountyName"}]},"MapReference":{"ReferenceId":"539215943","SideOfStreet":"neither","CountryId":"20147700","StateId":"20147701","CountyId":"20150184","CityId":"20150479","DistrictId":"20150483"}}},{"Relevance":1.0,"Distance":14.4,"MatchLevel":"houseNumber","MatchQuality":{"Country":1.0,"State":1.0,"County":1.0,"City":1.0,"District":1.0,"Street":[1.0],"HouseNumber":1.0,"PostalCode":1.0},"MatchType":"interpolated","Location":{"LocationId":"NT_xsyVaAB2RKEhUK4utfeDJA_4A","LocationType":"point","DisplayPosition":{"Latitude":54.7648,"Longitude":9.32315},"MapView":{"TopLeft":{"Latitude":54.7659242,"Longitude":9.3212015},"BottomRight":{"Latitude":54.7636758,"Longitude":9.3250985}},"Address":{"Label":"Petersilienstraße 8, 24983 Handewitt, Deutschland","Country":"DEU","State":"Schleswig-Holstein","County":"Schleswig-Flensburg","City":"Handewitt","District":"Handewitt","Street":"Petersilienstraße","HouseNumber":"8","PostalCode":"24983","AdditionalData":[{"value":"Deutschland","key":"CountryName"},{"value":"Schleswig-Holstein","key":"StateName"},{"value":"Schleswig-Flensburg","key":"CountyName"}]},"MapReference":{"ReferenceId":"539283533","Spot":0.47,"SideOfStreet":"right","CountryId":"20147700","StateId":"20147701","CountyId":"20150184","CityId":"20150479","DistrictId":"20150483","AddressId":"195128554","RoadLinkId":"37161892"}}},{"Relevance":1.0,"Distance":55.9,"MatchLevel":"houseNumber","MatchQuality":{"Country":1.0,"State":1.0,"County":1.0,"City":1.0,"District":1.0,"Street":[1.0],"HouseNumber":1.0,"PostalCode":1.0},"MatchType":"interpolated","Location":{"LocationId":"NT_jvWwdyBa6TzbYW-HuP05pD_4EE","LocationType":"point","DisplayPosition":{"Latitude":54.76561,"Longitude":9.32305},"MapView":{"TopLeft":{"Latitude":54.7667342,"Longitude":9.3211015},"BottomRight":{"Latitude":54.7644858,"Longitude":9.3249985}},"Address":{"Label":"Stiller Winkel 8A, 24983 Handewitt, Deutschland","Country":"DEU","State":"Schleswig-Holstein","County":"Schleswig-Flensburg","City":"Handewitt","District":"Handewitt","Street":"Stiller Winkel","HouseNumber":"8A","PostalCode":"24983","AdditionalData":[{"value":"Deutschland","key":"CountryName"},{"value":"Schleswig-Holstein","key":"StateName"},{"value":"Schleswig-Flensburg","key":"CountyName"}]},"MapReference":{"ReferenceId":"540650331","Spot":0.55,"SideOfStreet":"right","CountryId":"20147700","StateId":"20147701","CountyId":"20150184","CityId":"20150479","DistrictId":"20150483","AddressId":"195058830","RoadLinkId":"36792329"}}},{"Relevance":1.0,"Distance":83.4,"MatchLevel":"houseNumber","MatchQuality":{"Country":1.0,"State":1.0,"County":1.0,"City":1.0,"District":1.0,"Street":[1.0],"HouseNumber":1.0,"PostalCode":1.0},"MatchType":"interpolated","Location":{"LocationId":"NT_rAZ6r65xxUbyNrxfYkvyxC_3EE","LocationType":"point","DisplayPosition":{"Latitude":54.76464,"Longitude":9.325},"MapView":{"TopLeft":{"Latitude":54.7657642,"Longitude":9.3230515},"BottomRight":{"Latitude":54.7635158,"Longitude":9.3269485}},"Address":{"Label":"Hauptstraße 7A, 24983 Handewitt, Deutschland","Country":"DEU","State":"Schleswig-Holstein","County":"Schleswig-Flensburg","City":"Handewitt","District":"Handewitt","Street":"Hauptstraße","HouseNumber":"7A","PostalCode":"24983","AdditionalData":[{"value":"Deutschland","key":"CountryName"},{"value":"Schleswig-Holstein","key":"StateName"},{"value":"Schleswig-Flensburg","key":"CountyName"}]},"MapReference":{"ReferenceId":"539215939","Spot":0.71,"SideOfStreet":"left","CountryId":"20147700","StateId":"20147701","CountyId":"20150184","CityId":"20150479","DistrictId":"20150483","AddressId":"194169834","RoadLinkId":"36369798"}}},{"Relevance":1.0,"Distance":98.9,"MatchLevel":"houseNumber","MatchQuality":{"Country":1.0,"State":1.0,"County":1.0,"City":1.0,"District":1.0,"Street":[1.0],"HouseNumber":1.0,"PostalCode":1.0},"MatchType":"interpolated","Location":{"LocationId":"NT_rAZ6r65xxUbyNrxfYkvyxC_5A","LocationType":"point","DisplayPosition":{"Latitude":54.76546,"Longitude":9.32495},"MapView":{"TopLeft":{"Latitude":54.7665842,"Longitude":9.3230015},"BottomRight":{"Latitude":54.7643358,"Longitude":9.3268985}},"Address":{"Label":"Hauptstraße 9, 24983 Handewitt, Deutschland","Country":"DEU","State":"Schleswig-Holstein","County":"Schleswig-Flensburg","City":"Handewitt","District":"Handewitt","Street":"Hauptstraße","HouseNumber":"9","PostalCode":"24983","AdditionalData":[{"value":"Deutschland","key":"CountryName"},{"value":"Schleswig-Holstein","key":"StateName"},{"value":"Schleswig-Flensburg","key":"CountyName"}]},"MapReference":{"ReferenceId":"539215940","Spot":0.22,"SideOfStreet":"left","CountryId":"20147700","StateId":"20147701","CountyId":"20150184","CityId":"20150479","DistrictId":"20150483","AddressId":"195233578","RoadLinkId":"36373982"}}},{"Relevance":1.0,"Distance":100.8,"MatchLevel":"houseNumber","MatchQuality":{"Country":1.0,"State":1.0,"County":1.0,"City":1.0,"District":1.0,"Street":[1.0],"HouseNumber":1.0,"PostalCode":1.0},"MatchType":"interpolated","Location":{"LocationId":"NT_B517YASR1u8MwmuKLErA5B_4A","LocationType":"point","DisplayPosition":{"Latitude":54.76433,"Longitude":9.32212},"MapView":{"TopLeft":{"Latitude":54.7654542,"Longitude":9.3201715},"BottomRight":{"Latitude":54.7632058,"Longitude":9.3240685}},"Address":{"Label":"Westerstraße 8, 24983 Handewitt, Deutschland","Country":"DEU","State":"Schleswig-Holstein","County":"Schleswig-Flensburg","City":"Handewitt","District":"Handewitt","Street":"Westerstraße","HouseNumber":"8","PostalCode":"24983","AdditionalData":[{"value":"Deutschland","key":"CountryName"},{"value":"Schleswig-Holstein","key":"StateName"},{"value":"Schleswig-Flensburg","key":"CountyName"}]},"MapReference":{"ReferenceId":"1124456977","Spot":1.0,"SideOfStreet":"left","CountryId":"20147700","StateId":"20147701","CountyId":"20150184","CityId":"20150479","DistrictId":"20150483","AddressId":"195498711","RoadLinkId":"434643044"}}},{"Relevance":1.0,"Distance":142.1,"MatchLevel":"houseNumber","MatchQuality":{"Country":1.0,"State":1.0,"County":1.0,"City":1.0,"District":1.0,"Street":[1.0],"HouseNumber":1.0,"PostalCode":1.0},"MatchType":"interpolated","Location":{"LocationId":"NT_xGrFG-HQp22TgKN6ZLyUMA_3A","LocationType":"point","DisplayPosition":{"Latitude":54.76642,"Longitude":9.32264},"MapView":{"TopLeft":{"Latitude":54.7675442,"Longitude":9.3206914},"BottomRight":{"Latitude":54.7652958,"Longitude":9.3245886}},"Address":{"Label":"Alter Pferdemarkt 7, 24983 Handewitt, Deutschland","Country":"DEU","State":"Schleswig-Holstein","County":"Schleswig-Flensburg","City":"Handewitt","District":"Handewitt","Street":"Alter Pferdemarkt","HouseNumber":"7","PostalCode":"24983","AdditionalData":[{"value":"Deutschland","key":"CountryName"},{"value":"Schleswig-Holstein","key":"StateName"},{"value":"Schleswig-Flensburg","key":"CountyName"}]},"MapReference":{"ReferenceId":"540650332","Spot":0.64,"SideOfStreet":"right","CountryId":"20147700","StateId":"20147701","CountyId":"20150184","CityId":"20150479","DistrictId":"20150483","AddressId":"194504116","RoadLinkId":"36998063"}}},{"Relevance":1.0,"Distance":145.5,"MatchLevel":"houseNumber","MatchQuality":{"Country":1.0,"State":1.0,"County":1.0,"City":1.0,"District":1.0,"Street":[1.0],"HouseNumber":1.0,"PostalCode":1.0},"MatchType":"interpolated","Location":{"LocationId":"NT_B517YASR1u8MwmuKLErA5B_2A","LocationType":"point","DisplayPosition":{"Latitude":54.76356,"Longitude":9.32326},"MapView":{"TopLeft":{"Latitude":54.7646842,"Longitude":9.3213116},"BottomRight":{"Latitude":54.7624358,"Longitude":9.3252084}},"Address":{"Label":"Westerstraße 6, 24983 Handewitt, Deutschland","Country":"DEU","State":"Schleswig-Holstein","County":"Schleswig-Flensburg","City":"Handewitt","District":"Handewitt","Street":"Westerstraße","HouseNumber":"6","PostalCode":"24983","AdditionalData":[{"value":"Deutschland","key":"CountryName"},{"value":"Schleswig-Holstein","key":"StateName"},{"value":"Schleswig-Flensburg","key":"CountyName"}]},"MapReference":{"ReferenceId":"759926484","Spot":0.22,"SideOfStreet":"left","CountryId":"20147700","StateId":"20147701","CountyId":"20150184","CityId":"20150479","DistrictId":"20150483","AddressId":"194376159","RoadLinkId":"154414466"}}},{"Relevance":1.0,"Distance":151.6,"MatchLevel":"houseNumber","MatchQuality":{"Country":1.0,"State":1.0,"County":1.0,"City":1.0,"District":1.0,"Street":[1.0],"HouseNumber":1.0,"PostalCode":1.0},"MatchType":"interpolated","Location":{"LocationId":"NT_JlGs1XTciF-LzCUzunu0JA_xA","LocationType":"point","DisplayPosition":{"Latitude":54.76519,"Longitude":9.32551},"MapView":{"TopLeft":{"Latitude":54.7663142,"Longitude":9.3235615},"BottomRight":{"Latitude":54.7640658,"Longitude":9.3274585}},"Address":{"Label":"Siedlungsstraße 1, 24983 Handewitt, Deutschland","Country":"DEU","State":"Schleswig-Holstein","County":"Schleswig-Flensburg","City":"Handewitt","District":"Handewitt","Street":"Siedlungsstraße","HouseNumber":"1","PostalCode":"24983","AdditionalData":[{"value":"Deutschland","key":"CountryName"},{"value":"Schleswig-Holstein","key":"StateName"},{"value":"Schleswig-Flensburg","key":"CountyName"}]},"MapReference":{"ReferenceId":"539215890","Spot":0.16,"SideOfStreet":"left","CountryId":"20147700","StateId":"20147701","CountyId":"20150184","CityId":"20150479","DistrictId":"20150483","AddressId":"193704675","RoadLinkId":"36959636"}}},{"Relevance":1.0,"Distance":155.8,"MatchLevel":"houseNumber","MatchQuality":{"Country":1.0,"State":1.0,"County":1.0,"City":1.0,"District":1.0,"Street":[1.0],"HouseNumber":1.0,"PostalCode":1.0},"MatchType":"interpolated","Location":{"LocationId":"NT_xsyVaAB2RKEhUK4utfeDJA_xcD","LocationType":"point","DisplayPosition":{"Latitude":54.76495,"Longitude":9.32054},"MapView":{"TopLeft":{"Latitude":54.7660742,"Longitude":9.3185915},"BottomRight":{"Latitude":54.7638258,"Longitude":9.3224885}},"Address":{"Label":"Petersilienstraße 17, 24983 Handewitt, Deutschland","Country":"DEU","State":"Schleswig-Holstein","County":"Schleswig-Flensburg","City":"Handewitt","District":"Handewitt","Street":"Petersilienstraße","HouseNumber":"17","PostalCode":"24983","AdditionalData":[{"value":"Deutschland","key":"CountryName"},{"value":"Schleswig-Holstein","key":"StateName"},{"value":"Schleswig-Flensburg","key":"CountyName"}]},"MapReference":{"ReferenceId":"554714490","Spot":0.51,"SideOfStreet":"right","CountryId":"20147700","StateId":"20147701","CountyId":"20150184","CityId":"20150479","DistrictId":"20150483","AddressId":"194410504","RoadLinkId":"36865278"}}}]}]}}