{"Response":{"MetaInfo":{"Timestamp":"2020-03-28T10:44:41.907+0000","NextPageInformation":"2"},"View":[{"_type":"SearchResultsViewType","ViewId":0,"Result":[{"Relevance":1.0,"Distance":0.0,"Direction":0.0,"MatchLevel":"district","MatchQuality":{"Country":1.0,"State":1.0,"County":1.0,"City":1.0,"District":1.0,"PostalCode":1.0},"Location":{"LocationId":"NT_O7pB5h22qwzgY2sjirfDeA","LocationType":"point","DisplayPosition":{"Latitude":54.7162131,"Longitude":25.2493322},"MapView":{"TopLeft":{"Latitude":54.72976,"Longitude":25.23047},"BottomRight":{"Latitude":54.69934,"Longitude":25.2709}},"Address":{"Label":"Šeškinė, Vilnius, Vilniaus Apskritis, Lietuva","Country":"LTU","State":"Vilniaus Apskritis","County":"Vilniaus Miesto savivaldybė","City":"Vilnius","District":"Šeškinė","PostalCode":"07175","AdditionalData":[{"value":"Lietuva","key":"CountryName"},{"value":"Vilniaus Apskritis","key":"StateName"},{"value":"Vilniaus Miesto savivaldybė","key":"CountyName"}]},"MapReference":{"ReferenceId":"979715465","SideOfStreet":"neither","CountryId":"20633740","StateId":"23290632","CountyId":"23292198","CityId":"23292354","DistrictId":"23291263"}}},{"Relevance":1.0,"Distance":41.9,"MatchLevel":"houseNumber","MatchQuality":{"Country":1.0,"State":1.0,"County":1.0,"City":1.0,"District":1.0,"Street":[1.0],"HouseNumber":1.0,"PostalCode":1.0},"MatchType":"interpolated","Location":{"LocationId":"NT_sXQ5AMGSK8V15zoBtKFtFA_yQD","LocationType":"point","DisplayPosition":{"Latitude":54.7168,"Longitude":25.24868},"MapView":{"TopLeft":{"Latitude":54.7179242,"Longitude":25.2467338},"BottomRight":{"Latitude":54.7156758,"Longitude":25.2506262}},"Address":{"Label":"Šeškinės gatvė 24, LT-07156 Vilnius, Lietuva","Country":"LTU","State":"Vilniaus Apskritis","County":"Vilniaus Miesto savivaldybė","City":"Vilnius","District":"Šeškinė","Street":"Šeškinės gatvė","HouseNumber":"24","PostalCode":"07156","AdditionalData":[{"value":"Lietuva","key":"CountryName"},{"value":"Vilniaus Apskritis","key":"StateName"},{"value":"Vilniaus Miesto savivaldybė","key":"CountyName"}]},"MapReference":{"ReferenceId":"979785760","Spot":0.53,"SideOfStreet":"left","CountryId":"20633740","StateId":"23290632","CountyId":"23292198","CityId":"23292354","DistrictId":"23291263","AddressId":"667661226","RoadLinkId":"312734110"}}},{"Relevance":1.0,"Distance":59.1,"MatchLevel":"street","MatchQuality":{"Country":1.0,"State":1.0,"County":1.0,"City":1.0,"District":1.0,"Street":[1.0],"PostalCode":1.0},"Location":{"LocationId":"NT_sXQ5AMGSK8V15zoBtKFtFA_l_979685522_L","LocationType":"point","DisplayPosition":{"Latitude":54.71672,"Longitude":25.24961},"MapView":{"TopLeft":{"Latitude":54.71672,"Longitude":25.24961},"BottomRight":{"Latitude":54.71658,"Longitude":25.25015}},"Address":{"Label":"Šeškinės gatvė, LT-07156 Vilnius, Lietuva","Country":"LTU","State":"Vilniaus Apskritis","County":"Vilniaus Miesto savivaldybė","City":"Vilnius","District":"Šeškinė","Street":"Šeškinės gatvė","PostalCode":"07156","AdditionalData":[{"value":"Lietuva","key":"CountryName"},{"value":"Vilniaus Apskritis","key":"StateName"},{"value":"Vilniaus Miesto savivaldybė","key":"CountyName"}]},"MapReference":{"ReferenceId":"979685522","Spot":1.0,"SideOfStreet":"left","CountryId":"20633740","StateId":"23290632","CountyId":"23292198","CityId":"23292354","DistrictId":"23291263"}}},{"Relevance":1.0,"Distance":60.4,"MatchLevel":"street","MatchQuality":{"Country":1.0,"State":1.0,"County":1.0,"City":1.0,"District":1.0,"Street":[1.0],"PostalCode":1.0},"Location":{"LocationId":"NT_sXQ5AMGSK8V15zoBtKFtFA_l_979685523_L","LocationType":"point","DisplayPosition":{"Latitude":54.7167546,"Longitude":25.249406},"MapView":{"TopLeft":{"Latitude":54.71678,"Longitude":25.24922},"BottomRight":{"Latitude":54.71672,"Longitude":25.24961}},"Address":{"Label":"Šeškinės gatvė, LT-07156 Vilnius, Lietuva","Country":"LTU","State":"Vilniaus Apskritis","County":"Vilniaus Miesto savivaldybė","City":"Vilnius","District":"Šeškinė","Street":"Šeškinės gatvė","PostalCode":"07156","AdditionalData":[{"value":"Lietuva","key":"CountryName"},{"value":"Vilniaus Apskritis","key":"StateName"},{"value":"Vilniaus Miesto savivaldybė","key":"CountyName"}]},"MapReference":{"ReferenceId":"979685523","Spot":0.52,"SideOfStreet":"left","CountryId":"20633740","StateId":"23290632","CountyId":"23292198","CityId":"23292354","DistrictId":"23291263"}}},{"Relevance":1.0,"Distance":66.5,"MatchLevel":"street","MatchQuality":{"Country":1.0,"State":1.0,"County":1.0,"City":1.0,"District":1.0,"Street":[1.0],"PostalCode":1.0},"Location":{"LocationId":"NT_a355z9MPvgxjB2q0hJt6OD_l_923869388_L","LocationType":"point","DisplayPosition":{"Latitude":54.71658,"Longitude":25.25015},"MapView":{"TopLeft":{"Latitude":54.71696,"Longitude":25.25015},"BottomRight":{"Latitude":54.71658,"Longitude":25.25043}},"Address":{"Label":"Šeškinės gatvė, LT-07157 Vilnius, Lietuva","Country":"LTU","State":"Vilniaus Apskritis","County":"Vilniaus Miesto savivaldybė","City":"Vilnius","District":"Šeškinė","Street":"Šeškinės gatvė","PostalCode":"07157","AdditionalData":[{"value":"Lietuva","key":"CountryName"},{"value":"Vilniaus Apskritis","key":"StateName"},{"value":"Vilniaus Miesto savivaldybė","key":"CountyName"}]},"MapReference":{"ReferenceId":"923869388","Spot":0.0,"SideOfStreet":"left","CountryId":"20633740","StateId":"23290632","CountyId":"23292198","CityId":"23292354","DistrictId":"23291263"}}},{"Relevance":1.0,"Distance":66.5,"MatchLevel":"street","MatchQuality":{"Country":1.0,"State":1.0,"County":1.0,"City":1.0,"District":1.0,"Street":[1.0],"PostalCode":1.0},"Location":{"LocationId":"NT_sXQ5AMGSK8V15zoBtKFtFA_l_923866736_L","LocationType":"point","DisplayPosition":{"Latitude":54.71658,"Longitude":25.25015},"MapView":{"TopLeft":{"Latitude":54.71658,"Longitude":25.25015},"BottomRight":{"Latitude":54.71633,"Longitude":25.2507}},"Address":{"Label":"Šeškinės gatvė, LT-07156 Vilnius, Lietuva","Country":"LTU","State":"Vilniaus Apskritis","County":"Vilniaus Miesto savivaldybė","City":"Vilnius","District":"Šeškinė","Street":"Šeškinės gatvė","PostalCode":"07156","AdditionalData":[{"value":"Lietuva","key":"CountryName"},{"value":"Vilniaus Apskritis","key":"StateName"},{"value":"Vilniaus Miesto savivaldybė","key":"CountyName"}]},"MapReference":{"ReferenceId":"923866736","Spot":1.0,"SideOfStreet":"left","CountryId":"20633740","StateId":"23290632","CountyId":"23292198","CityId":"23292354","DistrictId":"23291263"}}},{"Relevance":1.0,"Distance":71.7,"MatchLevel":"houseNumber","MatchQuality":{"Country":1.0,"State":1.0,"County":1.0,"City":1.0,"District":1.0,"Street":[1.0],"HouseNumber":1.0,"PostalCode":1.0},"MatchType":"interpolated","Location":{"LocationId":"NT_sXQ5AMGSK8V15zoBtKFtFA_yITY","LocationType":"point","DisplayPosition":{"Latitude":54.71577,"Longitude":25.25024},"MapView":{"TopLeft":{"Latitude":54.7168942,"Longitude":25.2482939},"BottomRight":{"Latitude":54.7146458,"Longitude":25.2521861}},"Address":{"Label":"Šeškinės gatvė 22a, LT-07156 Vilnius, Lietuva","Country":"LTU","State":"Vilniaus Apskritis","County":"Vilniaus Miesto savivaldybė","City":"Vilnius","District":"Šeškinė","Street":"Šeškinės gatvė","HouseNumber":"22a","PostalCode":"07156","AdditionalData":[{"value":"Lietuva","key":"CountryName"},{"value":"Vilniaus Apskritis","key":"StateName"},{"value":"Vilniaus Miesto savivaldybė","key":"CountyName"}]},"MapReference":{"ReferenceId":"752584906","Spot":0.46,"SideOfStreet":"left","CountryId":"20633740","StateId":"23290632","CountyId":"23292198","CityId":"23292354","DistrictId":"23291263","AddressId":"667661227","RoadLinkId":"148503022"}}},{"Relevance":1.0,"Distance":71.9,"MatchLevel":"street","MatchQuality":{"Country":1.0,"State":1.0,"County":1.0,"City":1.0,"District":1.0,"Street":[1.0],"PostalCode":1.0},"Location":{"LocationId":"NT_2UvK3HX7Zf5ycf7e1wCzvC_l_752486519_L","LocationType":"point","DisplayPosition":{"Latitude":54.71597,"Longitude":25.25037},"MapView":{"TopLeft":{"Latitude":54.71597,"Longitude":25.25037},"BottomRight":{"Latitude":54.71557,"Longitude":25.25074}},"Address":{"Label":"Šeškinės gatvė, LT-07153 Vilnius, Lietuva","Country":"LTU","State":"Vilniaus Apskritis","County":"Vilniaus Miesto savivaldybė","City":"Vilnius","District":"Šeškinė","Street":"Šeškinės gatvė","PostalCode":"07153","AdditionalData":[{"value":"Lietuva","key":"CountryName"},{"value":"Vilniaus Apskritis","key":"StateName"},{"value":"Vilniaus Miesto savivaldybė","key":"CountyName"}]},"MapReference":{"ReferenceId":"752486519","Spot":1.0,"SideOfStreet":"left","CountryId":"20633740","StateId":"23290632","CountyId":"23292198","CityId":"23292354","DistrictId":"23291263"}}},{"Relevance":1.0,"Distance":88.8,"MatchLevel":"street","MatchQuality":{"Country":1.0,"State":1.0,"County":1.0,"City":1.0,"District":1.0,"PostalCode":1.0},"Location":{"LocationId":"NT_FcPLze5Fkr1zCJyLksoM7A_l_923869390_L","LocationType":"point","DisplayPosition":{"Latitude":54.71633,"Longitude":25.2507},"MapView":{"TopLeft":{"Latitude":54.71671,"Longitude":25.2507},"BottomRight":{"Latitude":54.71633,"Longitude":25.25124}},"Address":{"Label":"LT-07145 Vilnius, Lietuva","Country":"LTU","State":"Vilniaus Apskritis","County":"Vilniaus Miesto savivaldybė","City":"Vilnius","District":"Šeškinė","PostalCode":"07145","AdditionalData":[{"value":"Lietuva","key":"CountryName"},{"value":"Vilniaus Apskritis","key":"StateName"},{"value":"Vilniaus Miesto savivaldybė","key":"CountyName"}]},"MapReference":{"ReferenceId":"923869390","Spot":0.0,"SideOfStreet":"left","CountryId":"20633740","StateId":"23290632","CountyId":"23292198","CityId":"23292354","DistrictId":"23291263"}}},{"Relevance":1.0,"Distance":93.6,"MatchLevel":"street","MatchQuality":{"Country":1.0,"State":1.0,"County":1.0,"City":1.0,"District":1.0,"Street":[1.0],"PostalCode":1.0},"Location":{"LocationId":"NT_2UvK3HX7Zf5ycf7e1wCzvC_l_1249550769_L","LocationType":"point","DisplayPosition":{"Latitude":54.7153821,"Longitude":25.2495614},"MapView":{"TopLeft":{"Latitude":54.7155,"Longitude":25.2493},"BottomRight":{"Latitude":54.71531,"Longitude":25.25043}},"Address":{"Label":"Šeškinės gatvė, LT-07153 Vilnius, Lietuva","Country":"LTU","State":"Vilniaus Apskritis","County":"Vilniaus Miesto savivaldybė","City":"Vilnius","District":"Šeškinė","Street":"Šeškinės gatvė","PostalCode":"07153","AdditionalData":[{"value":"Lietuva","key":"CountryName"},{"value":"Vilniaus Apskritis","key":"StateName"},{"value":"Vilniaus Miesto savivaldybė","key":"CountyName"}]},"MapReference":{"ReferenceId":"1249550769","Spot":0.24,"SideOfStreet":"left","CountryId":"20633740","StateId":"23290632","CountyId":"23292198","CityId":"23292354","DistrictId":"23291263"}}}]}]}}