{"Response":{"MetaInfo":{"Timestamp":"2020-03-28T11:55:07.552+0000","NextPageInformation":"2"},"View":[{"_type":"SearchResultsViewType","ViewId":0,"Result":[{"Relevance":1.0,"Distance":0.0,"Direction":0.0,"MatchLevel":"district","MatchQuality":{"Country":1.0,"State":1.0,"County":1.0,"City":1.0,"District":1.0,"PostalCode":1.0},"Location":{"LocationId":"NT_7jDyjhdd4VqJmlRFlH8qFC","LocationType":"point","DisplayPosition":{"Latitude":54.8701579,"Longitude":-1.6989722},"MapView":{"TopLeft":{"Latitude":54.88281,"Longitude":-1.71408},"BottomRight":{"Latitude":54.85622,"Longitude":-1.67158}},"Address":{"Label":"Stanley, England, United Kingdom","Country":"GBR","State":"England","County":"County Durham","City":"Stanley","District":"Stanley","PostalCode":"DH9 0","AdditionalData":[{"value":"United Kingdom","key":"CountryName"},{"value":"England","key":"StateName"},{"value":"County Durham","key":"CountyName"}]},"MapReference":{"ReferenceId":"1197822803","SideOfStreet":"neither","StateId":"20248595","CountyId":"20345678","CityId":"20345998","DistrictId":"20345999"}}},{"Relevance":1.0,"Distance":5.8,"MatchLevel":"postalCode","MatchQuality":{"PostalCode":1.0},"Location":{"LocationId":"NT_s96fXEFwnABOHVuDHKSzTD_l_1216327485_L","LocationType":"point","DisplayPosition":{"Latitude":54.87012,"Longitude":-1.69891},"MapView":{"TopLeft":{"Latitude":54.8791132,"Longitude":-1.7145386},"BottomRight":{"Latitude":54.8611268,"Longitude":-1.6832814}},"Address":{"Label":"DH9 0SX, Stanley, England, United Kingdom","Country":"GBR","State":"England","County":"County Durham","City":"Stanley","PostalCode":"DH9 0SX","AdditionalData":[{"value":"United Kingdom","key":"CountryName"},{"value":"England","key":"StateName"},{"value":"County Durham","key":"CountyName"}]},"MapReference":{"ReferenceId":"1216327485","Spot":0.75,"SideOfStreet":"neither","StateId":"20248595","CountyId":"20345678","CityId":"20345998"}}},{"Relevance":1.0,"Distance":10.1,"MatchLevel":"street","MatchQuality":{"Country":1.0,"State":1.0,"County":1.0,"City":1.0,"District":1.0,"Street":[1.0],"PostalCode":1.0},"Location":{"LocationId":"NT_s96fXEFwnABOHVuDHKSzTD_l_1216327485_L","LocationType":"point","DisplayPosition":{"Latitude":54.8700805,"Longitude":-1.6988897},"MapView":{"TopLeft":{"Latitude":54.87024,"Longitude":-1.69935},"BottomRight":{"Latitude":54.86959,"Longitude":-1.69874}},"Address":{"Label":"Front Street, Stanley, DH9 0, United Kingdom","Country":"GBR","State":"England","County":"County Durham","City":"Stanley","District":"Stanley","Street":"Front Street","PostalCode":"DH9 0","AdditionalData":[{"value":"United Kingdom","key":"CountryName"},{"value":"England","key":"StateName"},{"value":"County Durham","key":"CountyName"}]},"MapReference":{"ReferenceId":"1216327485","Spot":0.75,"SideOfStreet":"left","StateId":"20248595","CountyId":"20345678","CityId":"20345998","DistrictId":"20345999"}}},{"Relevance":1.0,"Distance":17.3,"MatchLevel":"street","MatchQuality":{"Country":1.0,"State":1.0,"County":1.0,"City":1.0,"District":1.0,"PostalCode":1.0},"Location":{"LocationId":"NT_GRR9i2cMM8fsUmFmU8QFTA_l_1216014094_L","LocationType":"point","DisplayPosition":{"Latitude":54.8703089,"Longitude":-1.6989086},"MapView":{"TopLeft":{"Latitude":54.87055,"Longitude":-1.69935},"BottomRight":{"Latitude":54.87024,"Longitude":-1.69874}},"Address":{"Label":"Stanley, DH9 8, United Kingdom","Country":"GBR","State":"England","County":"County Durham","City":"Stanley","District":"Stanley","PostalCode":"DH9 8","AdditionalData":[{"value":"United Kingdom","key":"CountryName"},{"value":"England","key":"StateName"},{"value":"County Durham","key":"CountyName"}]},"MapReference":{"ReferenceId":"1216014094","Spot":0.27,"SideOfStreet":"left","StateId":"20248595","CountyId":"20345678","CityId":"20345998","DistrictId":"20345999"}}},{"Relevance":1.0,"Distance":17.4,"MatchLevel":"street","MatchQuality":{"Country":1.0,"State":1.0,"County":1.0,"City":1.0,"District":1.0,"Street":[1.0],"PostalCode":1.0},"Location":{"LocationId":"NT_s96fXEFwnABOHVuDHKSzTD_l_962019612_L","LocationType":"point","DisplayPosition":{"Latitude":54.87024,"Longitude":-1.69874},"MapView":{"TopLeft":{"Latitude":54.87103,"Longitude":-1.69874},"BottomRight":{"Latitude":54.87024,"Longitude":-1.698}},"Address":{"Label":"Front Street, Stanley, DH9 0, United Kingdom","Country":"GBR","State":"England","County":"County Durham","City":"Stanley","District":"Stanley","Street":"Front Street","PostalCode":"DH9 0","AdditionalData":[{"value":"United Kingdom","key":"CountryName"},{"value":"England","key":"StateName"},{"value":"County Durham","key":"CountyName"}]},"MapReference":{"ReferenceId":"962019612","Spot":0.0,"SideOfStreet":"left","StateId":"20248595","CountyId":"20345678","CityId":"20345998","DistrictId":"20345999"}}},{"Relevance":1.0,"Distance":17.4,"MatchLevel":"street","MatchQuality":{"Country":1.0,"State":1.0,"County":1.0,"City":1.0,"District":1.0,"PostalCode":1.0},"Location":{"LocationId":"NT_B-CYD8wTdv2AFT1eJS42TC_l_1214864924_L","LocationType":"point","DisplayPosition":{"Latitude":54.87024,"Longitude":-1.69874},"MapView":{"TopLeft":{"Latitude":54.87024,"Longitude":-1.69874},"BottomRight":{"Latitude":54.8701,"Longitude":-1.69849}},"Address":{"Label":"Stanley, DH9 0, United Kingdom","Country":"GBR","State":"England","County":"County Durham","City":"Stanley","District":"Stanley","PostalCode":"DH9 0","AdditionalData":[{"value":"United Kingdom","key":"CountryName"},{"value":"England","key":"StateName"},{"value":"County Durham","key":"CountyName"}]},"MapReference":{"ReferenceId":"1214864924","Spot":1.0,"SideOfStreet":"left","StateId":"20248595","CountyId":"20345678","CityId":"20345998","DistrictId":"20345999"}}},{"Relevance":1.0,"Distance":31.5,"MatchLevel":"street","MatchQuality":{"Country":1.0,"State":1.0,"County":1.0,"City":1.0,"District":1.0,"Street":[1.0],"PostalCode":1.0},"Location":{"LocationId":"NT_3OQBxOIXqmylgS3cZM0DxB_l_1214864923_L","LocationType":"point","DisplayPosition":{"Latitude":54.8701,"Longitude":-1.69849},"MapView":{"TopLeft":{"Latitude":54.8701,"Longitude":-1.69849},"BottomRight":{"Latitude":54.86947,"Longitude":-1.6973}},"Address":{"Label":"Clifford Road, Stanley, DH9 0, United Kingdom","Country":"GBR","State":"England","County":"County Durham","City":"Stanley","District":"Stanley","Street":"Clifford Road","PostalCode":"DH9 0","AdditionalData":[{"value":"United Kingdom","key":"CountryName"},{"value":"England","key":"StateName"},{"value":"County Durham","key":"CountyName"}]},"MapReference":{"ReferenceId":"1214864923","Spot":1.0,"SideOfStreet":"left","StateId":"20248595","CountyId":"20345678","CityId":"20345998","DistrictId":"20345999"}}},{"Relevance":1.0,"Distance":36.7,"MatchLevel":"street","MatchQuality":{"Country":1.0,"State":1.0,"County":1.0,"City":1.0,"District":1.0,"Street":[1.0],"PostalCode":1.0},"Location":{"LocationId":"NT_Hd8XYp07ONtYsolSOU6fPD_l_962019618_R","LocationType":"point","DisplayPosition":{"Latitude":54.87039,"Longitude":-1.69938},"MapView":{"TopLeft":{"Latitude":54.87039,"Longitude":-1.70008},"BottomRight":{"Latitude":54.86997,"Longitude":-1.69938}},"Address":{"Label":"Scott Street, Stanley, DH9 8, United Kingdom","Country":"GBR","State":"England","County":"County Durham","City":"Stanley","District":"Stanley","Street":"Scott Street","PostalCode":"DH9 8","AdditionalData":[{"value":"United Kingdom","key":"CountryName"},{"value":"England","key":"StateName"},{"value":"County Durham","key":"CountyName"}]},"MapReference":{"ReferenceId":"962019618","Spot":1.0,"SideOfStreet":"right","StateId":"20248595","CountyId":"20345678","CityId":"20345998","DistrictId":"20345999"}}},{"Relevance":1.0,"Distance":36.7,"MatchLevel":"street","MatchQuality":{"Country":1.0,"State":1.0,"County":1.0,"City":1.0,"District":1.0,"PostalCode":1.0},"Location":{"LocationId":"NT_GRR9i2cMM8fsUmFmU8QFTA_l_1214502892_L","LocationType":"point","DisplayPosition":{"Latitude":54.87039,"Longitude":-1.69938},"MapView":{"TopLeft":{"Latitude":54.87051,"Longitude":-1.69975},"BottomRight":{"Latitude":54.87039,"Longitude":-1.69938}},"Address":{"Label":"Stanley, DH9 8, United Kingdom","Country":"GBR","State":"England","County":"County Durham","City":"Stanley","District":"Stanley","PostalCode":"DH9 8","AdditionalData":[{"value":"United Kingdom","key":"CountryName"},{"value":"England","key":"StateName"},{"value":"County Durham","key":"CountyName"}]},"MapReference":{"ReferenceId":"1214502892","Spot":0.0,"SideOfStreet":"left","StateId":"20248595","CountyId":"20345678","CityId":"20345998","DistrictId":"20345999"}}},{"Relevance":1.0,"Distance":49.9,"MatchLevel":"street","MatchQuality":{"Country":1.0,"State":1.0,"County":1.0,"City":1.0,"District":1.0,"Street":[1.0],"PostalCode":1.0},"Location":{"LocationId":"NT_AVbdGflH2fKqKQBpPilMUB_l_27245711_L","LocationType":"point","DisplayPosition":{"Latitude":54.87055,"Longitude":-1.69935},"MapView":{"TopLeft":{"Latitude":54.87158,"Longitude":-1.69964},"BottomRight":{"Latitude":54.87055,"Longitude":-1.69893}},"Address":{"Label":"Blooms Avenue, Stanley, DH9 8, United Kingdom","Country":"GBR","State":"England","County":"County Durham","City":"Stanley","District":"Stanley","Street":"Blooms Avenue","PostalCode":"DH9 8","AdditionalData":[{"value":"United Kingdom","key":"CountryName"},{"value":"England","key":"StateName"},{"value":"County Durham","key":"CountyName"}]},"MapReference":{"ReferenceId":"27245711","Spot":0.0,"SideOfStreet":"left","StateId":"20248595","CountyId":"20345678","CityId":"20345998","DistrictId":"20345999"}}}]}]}}