{"Response":{"MetaInfo":{"Timestamp":"2020-03-28T10:41:42.436+0000","NextPageInformation":"2"},"View":[{"_type":"SearchResultsViewType","ViewId":0,"Result":[{"Relevance":1.0,"Distance":0.0,"Direction":0.0,"MatchLevel":"district","MatchQuality":{"Country":1.0,"State":1.0,"County":1.0,"City":1.0,"District":1.0,"PostalCode":1.0},"Location":{"LocationId":"NT_SWBEOV-mxkPOb9.RoY3BcA","LocationType":"point","DisplayPosition":{"Latitude":54.8679976,"Longitude":-4.4445052},"MapView":{"TopLeft":{"Latitude":54.87191,"Longitude":-4.44809},"BottomRight":{"Latitude":54.86386,"Longitude":-4.43848}},"Address":{"Label":"Wigtown, Newton Stewart, Scotland, United Kingdom","Country":"GBR","State":"Scotland","County":"Wigtownshire","City":"Newton Stewart","District":"Wigtown","PostalCode":"DG8 9","AdditionalData":[{"value":"United Kingdom","key":"CountryName"},{"value":"Scotland","key":"StateName"},{"value":"Wigtownshire","key":"CountyName"}]},"MapReference":{"ReferenceId":"19175665","SideOfStreet":"neither","StateId":"20252820","CountyId":"20292789","CityId":"20292790","DistrictId":"20340659"}}},{"Relevance":1.0,"Distance":9.8,"MatchLevel":"houseNumber","MatchQuality":{"Country":1.0,"State":1.0,"County":1.0,"City":1.0,"District":1.0,"Street":[1.0],"HouseNumber":1.0,"PostalCode":1.0},"MatchType":"interpolated","Location":{"LocationId":"NT_5v4LXi9BTC.4.Of6Fgq0bA_l_19175656_R_0A","LocationType":"point","DisplayPosition":{"Latitude":54.8680116,"Longitude":-4.4443539},"MapView":{"TopLeft":{"Latitude":54.8691358,"Longitude":-4.4463074},"BottomRight":{"Latitude":54.8668875,"Longitude":-4.4424005}},"Address":{"Label":"4 High Vennel, Newton Stewart, DG8 9JQ, United Kingdom","Country":"GBR","State":"Scotland","County":"Wigtownshire","City":"Newton Stewart","District":"Wigtown","Street":"High Vennel","HouseNumber":"4","PostalCode":"DG8 9JQ","AdditionalData":[{"value":"United Kingdom","key":"CountryName"},{"value":"Scotland","key":"StateName"},{"value":"Wigtownshire","key":"CountyName"}]},"MapReference":{"ReferenceId":"19175656","Spot":0.44,"SideOfStreet":"right","StateId":"20252820","CountyId":"20292789","CityId":"20292790","DistrictId":"20340659"}}},{"Relevance":1.0,"Distance":27.0,"MatchLevel":"postalCode","MatchQuality":{"PostalCode":1.0},"MatchType":"interpolated","Location":{"LocationId":"NT_5v4LXi9BTC.4.Of6Fgq0bA_l_19175656_R_0A","LocationType":"point","DisplayPosition":{"Latitude":54.86824,"Longitude":-4.44452},"MapView":{"TopLeft":{"Latitude":54.8772332,"Longitude":-4.4601479},"BottomRight":{"Latitude":54.8592468,"Longitude":-4.4288921}},"Address":{"Label":"DG8 9JQ, Newton Stewart, Scotland, United Kingdom","Country":"GBR","State":"Scotland","County":"Wigtownshire","City":"Newton Stewart","PostalCode":"DG8 9JQ","AdditionalData":[{"value":"United Kingdom","key":"CountryName"},{"value":"Scotland","key":"StateName"},{"value":"Wigtownshire","key":"CountyName"}]},"MapReference":{"ReferenceId":"19175656","Spot":0.44,"SideOfStreet":"neither","StateId":"20252820","CountyId":"20292789","CityId":"20292790"}}},{"Relevance":1.0,"Distance":36.9,"MatchLevel":"houseNumber","MatchQuality":{"Country":1.0,"State":1.0,"County":1.0,"City":1.0,"District":1.0,"Street":[1.0],"HouseNumber":1.0,"PostalCode":1.0},"MatchType":"interpolated","Location":{"LocationId":"NT_zyhuL3lrXl1qrXHi.RYP0A_l_19175665_L_ycD","LocationType":"point","DisplayPosition":{"Latitude":54.8675863,"Longitude":-4.4441262},"MapView":{"TopLeft":{"Latitude":54.8687104,"Longitude":-4.4460797},"BottomRight":{"Latitude":54.8664621,"Longitude":-4.4421728}},"Address":{"Label":"27 North Main Street, Newton Stewart, DG8 9, United Kingdom","Country":"GBR","State":"Scotland","County":"Wigtownshire","City":"Newton Stewart","District":"Wigtown","Street":"North Main Street","HouseNumber":"27","PostalCode":"DG8 9","AdditionalData":[{"value":"United Kingdom","key":"CountryName"},{"value":"Scotland","key":"StateName"},{"value":"Wigtownshire","key":"CountyName"}]},"MapReference":{"ReferenceId":"19175665","Spot":0.68,"SideOfStreet":"left","StateId":"20252820","CountyId":"20292789","CityId":"20292790","DistrictId":"20340659"}}},{"Relevance":1.0,"Distance":39.6,"MatchLevel":"houseNumber","MatchQuality":{"Country":1.0,"State":1.0,"County":1.0,"City":1.0,"District":1.0,"Street":[1.0],"HouseNumber":1.0,"PostalCode":1.0},"MatchType":"interpolated","Location":{"LocationId":"NT_zyhuL3lrXl1qrXHi.RYP0A_l_19175655_L_yQD","LocationType":"point","DisplayPosition":{"Latitude":54.8678201,"Longitude":-4.4437899},"MapView":{"TopLeft":{"Latitude":54.8689442,"Longitude":-4.4457434},"BottomRight":{"Latitude":54.8666959,"Longitude":-4.4418364}},"Address":{"Label":"24 North Main Street, Newton Stewart, DG8 9, United Kingdom","Country":"GBR","State":"Scotland","County":"Wigtownshire","City":"Newton Stewart","District":"Wigtown","Street":"North Main Street","HouseNumber":"24","PostalCode":"DG8 9","AdditionalData":[{"value":"United Kingdom","key":"CountryName"},{"value":"Scotland","key":"StateName"},{"value":"Wigtownshire","key":"CountyName"}]},"MapReference":{"ReferenceId":"19175655","Spot":0.12,"SideOfStreet":"left","StateId":"20252820","CountyId":"20292789","CityId":"20292790","DistrictId":"20340659"}}},{"Relevance":1.0,"Distance":44.7,"MatchLevel":"houseNumber","MatchQuality":{"Country":1.0,"State":1.0,"County":1.0,"City":1.0,"District":1.0,"Street":[1.0],"HouseNumber":1.0,"PostalCode":1.0},"MatchType":"interpolated","Location":{"LocationId":"NT_QamKdcgvxF8lbrT6yMEouB_l_1154914634_R_0A","LocationType":"point","DisplayPosition":{"Latitude":54.868283,"Longitude":-4.4452025},"MapView":{"TopLeft":{"Latitude":54.8694072,"Longitude":-4.447156},"BottomRight":{"Latitude":54.8671589,"Longitude":-4.443249}},"Address":{"Label":"4 Botany Street, Newton Stewart, DG8 9, United Kingdom","Country":"GBR","State":"Scotland","County":"Wigtownshire","City":"Newton Stewart","District":"Wigtown","Street":"Botany Street","HouseNumber":"4","PostalCode":"DG8 9","AdditionalData":[{"value":"United Kingdom","key":"CountryName"},{"value":"Scotland","key":"StateName"},{"value":"Wigtownshire","key":"CountyName"}]},"MapReference":{"ReferenceId":"1154914634","Spot":0.51,"SideOfStreet":"right","StateId":"20252820","CountyId":"20292789","CityId":"20292790","DistrictId":"20340659"}}},{"Relevance":1.0,"Distance":54.4,"MatchLevel":"houseNumber","MatchQuality":{"Country":1.0,"State":1.0,"County":1.0,"City":1.0,"District":1.0,"Street":[1.0],"HouseNumber":1.0,"PostalCode":1.0},"MatchType":"interpolated","Location":{"LocationId":"NT_5v4LXi9BTC.4.Of6Fgq0bA_l_19175634_R_xED","LocationType":"point","DisplayPosition":{"Latitude":54.86845,"Longitude":-4.44483},"MapView":{"TopLeft":{"Latitude":54.8695742,"Longitude":-4.4467835},"BottomRight":{"Latitude":54.8673259,"Longitude":-4.4428765}},"Address":{"Label":"11 High Vennel, Newton Stewart, DG8 9, United Kingdom","Country":"GBR","State":"Scotland","County":"Wigtownshire","City":"Newton Stewart","District":"Wigtown","Street":"High Vennel","HouseNumber":"11","PostalCode":"DG8 9","AdditionalData":[{"value":"United Kingdom","key":"CountryName"},{"value":"Scotland","key":"StateName"},{"value":"Wigtownshire","key":"CountyName"}]},"MapReference":{"ReferenceId":"19175634","Spot":0.0,"SideOfStreet":"right","StateId":"20252820","CountyId":"20292789","CityId":"20292790","DistrictId":"20340659"}}},{"Relevance":1.0,"Distance":55.2,"MatchLevel":"postalCode","MatchQuality":{"PostalCode":1.0},"MatchType":"interpolated","Location":{"LocationId":"NT_zyhuL3lrXl1qrXHi.RYP0A_l_19175665_L_ycD","LocationType":"point","DisplayPosition":{"Latitude":54.86751,"Longitude":-4.44434},"MapView":{"TopLeft":{"Latitude":54.8765032,"Longitude":-4.4599676},"BottomRight":{"Latitude":54.8585168,"Longitude":-4.4287124}},"Address":{"Label":"DG8 9HJ, Newton Stewart, Scotland, United Kingdom","Country":"GBR","State":"Scotland","County":"Wigtownshire","City":"Newton Stewart","PostalCode":"DG8 9HJ","AdditionalData":[{"value":"United Kingdom","key":"CountryName"},{"value":"Scotland","key":"StateName"},{"value":"Wigtownshire","key":"CountyName"}]},"MapReference":{"ReferenceId":"19175665","Spot":0.68,"SideOfStreet":"neither","StateId":"20252820","CountyId":"20292789","CityId":"20292790"}}},{"Relevance":1.0,"Distance":64.0,"MatchLevel":"postalCode","MatchQuality":{"PostalCode":1.0},"MatchType":"interpolated","Location":{"LocationId":"NT_nxfpZmVozxQvpHDGhn4vfC_l_994569997_R_zQD","LocationType":"point","DisplayPosition":{"Latitude":54.86744,"Longitude":-4.44426},"MapView":{"TopLeft":{"Latitude":54.8764332,"Longitude":-4.4598876},"BottomRight":{"Latitude":54.8584468,"Longitude":-4.4286324}},"Address":{"Label":"DG8 9HG, Newton Stewart, Scotland, United Kingdom","Country":"GBR","State":"Scotland","County":"Wigtownshire","City":"Newton Stewart","PostalCode":"DG8 9HG","AdditionalData":[{"value":"United Kingdom","key":"CountryName"},{"value":"Scotland","key":"StateName"},{"value":"Wigtownshire","key":"CountyName"}]},"MapReference":{"ReferenceId":"994569997","Spot":0.14,"SideOfStreet":"neither","StateId":"20252820","CountyId":"20292789","CityId":"20292790"}}},{"Relevance":1.0,"Distance":66.3,"MatchLevel":"houseNumber","MatchQuality":{"Country":1.0,"State":1.0,"County":1.0,"City":1.0,"District":1.0,"Street":[1.0],"HouseNumber":1.0,"PostalCode":1.0},"MatchType":"interpolated","Location":{"LocationId":"NT_vMOwDIBxiDZVl9LH4fJ1CC_l_19175630_R_zAD","LocationType":"point","DisplayPosition":{"Latitude":54.86871,"Longitude":-4.4447899},"MapView":{"TopLeft":{"Latitude":54.8698342,"Longitude":-4.4467434},"BottomRight":{"Latitude":54.8675859,"Longitude":-4.4428364}},"Address":{"Label":"30 Lochancroft Lane, Newton Stewart, DG8 9, United Kingdom","Country":"GBR","State":"Scotland","County":"Wigtownshire","City":"Newton Stewart","District":"Wigtown","Street":"Lochancroft Lane","HouseNumber":"30","PostalCode":"DG8 9","AdditionalData":[{"value":"United Kingdom","key":"CountryName"},{"value":"Scotland","key":"StateName"},{"value":"Wigtownshire","key":"CountyName"}]},"MapReference":{"ReferenceId":"19175630","Spot":0.14,"SideOfStreet":"right","StateId":"20252820","CountyId":"20292789","CityId":"20292790","DistrictId":"20340659"}}}]}]}}