{"Response":{"MetaInfo":{"Timestamp":"2020-03-28T09:56:33.225+0000","NextPageInformation":"2"},"View":[{"_type":"SearchResultsViewType","ViewId":0,"Result":[{"Relevance":1.0,"Distance":0.0,"Direction":0.0,"MatchLevel":"district","MatchQuality":{"Country":1.0,"State":1.0,"County":1.0,"City":1.0,"District":1.0,"PostalCode":1.0},"Location":{"LocationId":"NT_r-UWWYrqkuEeC9AsrMvxsB","LocationType":"point","DisplayPosition":{"Latitude":54.8730138,"Longitude":23.9364988},"MapView":{"TopLeft":{"Latitude":54.89823,"Longitude":23.92371},"BottomRight":{"Latitude":54.8605,"Longitude":23.96938}},"Address":{"Label":"Šančiai, Kaunas, Kauno Apskritis, Lietuva","Country":"LTU","State":"Kauno Apskritis","County":"Kauno savivaldybė","City":"Kaunas","District":"Šančiai","PostalCode":"45129","AdditionalData":[{"value":"Lietuva","key":"CountryName"},{"value":"Kauno Apskritis","key":"StateName"},{"value":"Kauno savivaldybė","key":"CountyName"}]},"MapReference":{"ReferenceId":"858952164","SideOfStreet":"neither","CountryId":"20633740","StateId":"23291102","CountyId":"23291645","CityId":"23290879","DistrictId":"23292397"}}},{"Relevance":1.0,"Distance":17.1,"MatchLevel":"houseNumber","MatchQuality":{"Country":1.0,"State":1.0,"County":1.0,"City":1.0,"District":1.0,"Street":[1.0],"HouseNumber":1.0,"PostalCode":1.0},"MatchType":"interpolated","Location":{"LocationId":"NT_nGZ.rzBS9W95zOPvtddWRA_2A","LocationType":"point","DisplayPosition":{"Latitude":54.87308,"Longitude":23.93701},"MapView":{"TopLeft":{"Latitude":54.8742042,"Longitude":23.9350563},"BottomRight":{"Latitude":54.8719558,"Longitude":23.9389637}},"Address":{"Label":"Vilnų gatvė 6, LT-45217 Kaunas, Lietuva","Country":"LTU","State":"Kauno Apskritis","County":"Kauno savivaldybė","City":"Kaunas","District":"Šančiai","Street":"Vilnų gatvė","HouseNumber":"6","PostalCode":"45217","AdditionalData":[{"value":"Lietuva","key":"CountryName"},{"value":"Kauno Apskritis","key":"StateName"},{"value":"Kauno savivaldybė","key":"CountyName"}]},"MapReference":{"ReferenceId":"752450705","Spot":0.46,"SideOfStreet":"left","CountryId":"20633740","StateId":"23291102","CountyId":"23291645","CityId":"23290879","DistrictId":"23292397","AddressId":"339567370","RoadLinkId":"148436672"}}},{"Relevance":1.0,"Distance":41.8,"MatchLevel":"street","MatchQuality":{"Country":1.0,"State":1.0,"County":1.0,"City":1.0,"District":1.0,"Street":[1.0],"PostalCode":1.0},"Location":{"LocationId":"NT_AWBP5Bg-YTy1lr3rp7oUxB_l_752604089_R","LocationType":"point","DisplayPosition":{"Latitude":54.8733895,"Longitude":23.9364938},"MapView":{"TopLeft":{"Latitude":54.87339,"Longitude":23.93578},"BottomRight":{"Latitude":54.87338,"Longitude":23.93653}},"Address":{"Label":"Siūlų gatvė, LT-45218 Kaunas, Lietuva","Country":"LTU","State":"Kauno Apskritis","County":"Kauno savivaldybė","City":"Kaunas","District":"Šančiai","Street":"Siūlų gatvė","PostalCode":"45218","AdditionalData":[{"value":"Lietuva","key":"CountryName"},{"value":"Kauno Apskritis","key":"StateName"},{"value":"Kauno savivaldybė","key":"CountyName"}]},"MapReference":{"ReferenceId":"752604089","Spot":0.95,"SideOfStreet":"right","CountryId":"20633740","StateId":"23291102","CountyId":"23291645","CityId":"23290879","DistrictId":"23292397"}}},{"Relevance":1.0,"Distance":42.7,"MatchLevel":"houseNumber","MatchQuality":{"Country":1.0,"State":1.0,"County":1.0,"City":1.0,"District":1.0,"Street":[1.0],"HouseNumber":1.0,"PostalCode":1.0},"MatchType":"interpolated","Location":{"LocationId":"NT_AWBP5Bg-YTy1lr3rp7oUxB_0A","LocationType":"point","DisplayPosition":{"Latitude":54.87345,"Longitude":23.93699},"MapView":{"TopLeft":{"Latitude":54.8745742,"Longitude":23.9350363},"BottomRight":{"Latitude":54.8723258,"Longitude":23.9389437}},"Address":{"Label":"Siūlų gatvė 4, LT-45218 Kaunas, Lietuva","Country":"LTU","State":"Kauno Apskritis","County":"Kauno savivaldybė","City":"Kaunas","District":"Šančiai","Street":"Siūlų gatvė","HouseNumber":"4","PostalCode":"45218","AdditionalData":[{"value":"Lietuva","key":"CountryName"},{"value":"Kauno Apskritis","key":"StateName"},{"value":"Kauno savivaldybė","key":"CountyName"}]},"MapReference":{"ReferenceId":"752380198","Spot":0.41,"SideOfStreet":"right","CountryId":"20633740","StateId":"23291102","CountyId":"23291645","CityId":"23290879","DistrictId":"23292397","AddressId":"667448876","RoadLinkId":"148468407"}}},{"Relevance":1.0,"Distance":44.8,"MatchLevel":"houseNumber","MatchQuality":{"Country":1.0,"State":1.0,"County":1.0,"City":1.0,"District":1.0,"Street":[1.0],"HouseNumber":1.0,"PostalCode":1.0},"MatchType":"interpolated","Location":{"LocationId":"NT_Pxv5zm-Pi11e6R451.ydjC_3ID","LocationType":"point","DisplayPosition":{"Latitude":54.87232,"Longitude":23.93629},"MapView":{"TopLeft":{"Latitude":54.8734442,"Longitude":23.9343363},"BottomRight":{"Latitude":54.8711958,"Longitude":23.9382437}},"Address":{"Label":"A. Juozapavičiaus prospektas 72, LT-45217 Kaunas, Lietuva","Country":"LTU","State":"Kauno Apskritis","County":"Kauno savivaldybė","City":"Kaunas","District":"Šančiai","Street":"A. Juozapavičiaus prospektas","HouseNumber":"72","PostalCode":"45217","AdditionalData":[{"value":"Lietuva","key":"CountryName"},{"value":"Kauno Apskritis","key":"StateName"},{"value":"Kauno savivaldybė","key":"CountyName"}]},"MapReference":{"ReferenceId":"906550947","Spot":0.41,"SideOfStreet":"right","CountryId":"20633740","StateId":"23291102","CountyId":"23291645","CityId":"23290879","DistrictId":"23292397","AddressId":"339590814","RoadLinkId":"267153404"}}},{"Relevance":1.0,"Distance":49.1,"MatchLevel":"houseNumber","MatchQuality":{"Country":1.0,"State":1.0,"County":1.0,"City":1.0,"District":1.0,"Street":[1.0],"HouseNumber":1.0,"PostalCode":1.0},"MatchType":"interpolated","Location":{"LocationId":"NT_5nr9NvIvqYmOtN6o4WlMWA_2cD","LocationType":"point","DisplayPosition":{"Latitude":54.87295,"Longitude":23.93574},"MapView":{"TopLeft":{"Latitude":54.8740742,"Longitude":23.9337863},"BottomRight":{"Latitude":54.8718258,"Longitude":23.9376937}},"Address":{"Label":"A. Juozapavičiaus prospektas 67, LT-45263 Kaunas, Lietuva","Country":"LTU","State":"Kauno Apskritis","County":"Kauno savivaldybė","City":"Kaunas","District":"Šančiai","Street":"A. Juozapavičiaus prospektas","HouseNumber":"67","PostalCode":"45263","AdditionalData":[{"value":"Lietuva","key":"CountryName"},{"value":"Kauno Apskritis","key":"StateName"},{"value":"Kauno savivaldybė","key":"CountyName"}]},"MapReference":{"ReferenceId":"979756752","Spot":0.0,"SideOfStreet":"left","CountryId":"20633740","StateId":"23291102","CountyId":"23291645","CityId":"23290879","DistrictId":"23292397","AddressId":"339460070","RoadLinkId":"312704970"}}},{"Relevance":1.0,"Distance":49.1,"MatchLevel":"street","MatchQuality":{"Country":1.0,"State":1.0,"County":1.0,"City":1.0,"District":1.0,"Street":[1.0],"PostalCode":1.0},"Location":{"LocationId":"NT_DTS3MRBItbHVqpI2UOK7cA_l_1165577318_R","LocationType":"point","DisplayPosition":{"Latitude":54.87295,"Longitude":23.93574},"MapView":{"TopLeft":{"Latitude":54.87295,"Longitude":23.93524},"BottomRight":{"Latitude":54.87275,"Longitude":23.93574}},"Address":{"Label":"Sodų gatvė, LT-45262 Kaunas, Lietuva","Country":"LTU","State":"Kauno Apskritis","County":"Kauno savivaldybė","City":"Kaunas","District":"Šančiai","Street":"Sodų gatvė","PostalCode":"45262","AdditionalData":[{"value":"Lietuva","key":"CountryName"},{"value":"Kauno Apskritis","key":"StateName"},{"value":"Kauno savivaldybė","key":"CountyName"}]},"MapReference":{"ReferenceId":"1165577318","Spot":1.0,"SideOfStreet":"right","CountryId":"20633740","StateId":"23291102","CountyId":"23291645","CityId":"23290879","DistrictId":"23292397"}}},{"Relevance":1.0,"Distance":50.6,"MatchLevel":"houseNumber","MatchQuality":{"Country":1.0,"State":1.0,"County":1.0,"City":1.0,"District":1.0,"Street":[1.0],"HouseNumber":1.0,"PostalCode":1.0},"MatchType":"interpolated","Location":{"LocationId":"NT_UUn2f2iZmDwpGMg-qgMzID_l_851462576_L_2UD","LocationType":"point","DisplayPosition":{"Latitude":54.8727944,"Longitude":23.9358056},"MapView":{"TopLeft":{"Latitude":54.8739186,"Longitude":23.9338519},"BottomRight":{"Latitude":54.8716703,"Longitude":23.9377593}},"Address":{"Label":"A. Juozapavičiaus prospektas 65, LT-45218 Kaunas, Lietuva","Country":"LTU","State":"Kauno Apskritis","County":"Kauno savivaldybė","City":"Kaunas","District":"Šančiai","Street":"A. Juozapavičiaus prospektas","HouseNumber":"65","PostalCode":"45218","AdditionalData":[{"value":"Lietuva","key":"CountryName"},{"value":"Kauno Apskritis","key":"StateName"},{"value":"Kauno savivaldybė","key":"CountyName"}]},"MapReference":{"ReferenceId":"851462576","Spot":0.51,"SideOfStreet":"left","CountryId":"20633740","StateId":"23291102","CountyId":"23291645","CityId":"23290879","DistrictId":"23292397"}}},{"Relevance":1.0,"Distance":52.5,"MatchLevel":"street","MatchQuality":{"Country":1.0,"State":1.0,"County":1.0,"City":1.0,"District":1.0,"Street":[1.0],"PostalCode":1.0},"Location":{"LocationId":"NT_UUn2f2iZmDwpGMg-qgMzID_l_979756753_R","LocationType":"point","DisplayPosition":{"Latitude":54.87322,"Longitude":23.93576},"MapView":{"TopLeft":{"Latitude":54.87338,"Longitude":23.93576},"BottomRight":{"Latitude":54.87322,"Longitude":23.93578}},"Address":{"Label":"A. Juozapavičiaus prospektas, LT-45218 Kaunas, Lietuva","Country":"LTU","State":"Kauno Apskritis","County":"Kauno savivaldybė","City":"Kaunas","District":"Šančiai","Street":"A. Juozapavičiaus prospektas","PostalCode":"45218","AdditionalData":[{"value":"Lietuva","key":"CountryName"},{"value":"Kauno Apskritis","key":"StateName"},{"value":"Kauno savivaldybė","key":"CountyName"}]},"MapReference":{"ReferenceId":"979756753","Spot":0.0,"SideOfStreet":"right","CountryId":"20633740","StateId":"23291102","CountyId":"23291645","CityId":"23290879","DistrictId":"23292397"}}},{"Relevance":1.0,"Distance":61.4,"MatchLevel":"street","MatchQuality":{"Country":1.0,"State":1.0,"County":1.0,"City":1.0,"District":1.0,"Street":[1.0],"PostalCode":1.0},"Location":{"LocationId":"NT_iDjFLKLYewy8KEArlo0SnD_l_752531542_R","LocationType":"point","DisplayPosition":{"Latitude":54.87338,"Longitude":23.93578},"MapView":{"TopLeft":{"Latitude":54.87338,"Longitude":23.93532},"BottomRight":{"Latitude":54.87336,"Longitude":23.93578}},"Address":{"Label":"Mažeikių gatvė, LT-45272 Kaunas, Lietuva","Country":"LTU","State":"Kauno Apskritis","County":"Kauno savivaldybė","City":"Kaunas","District":"Šančiai","Street":"Mažeikių gatvė","PostalCode":"45272","AdditionalData":[{"value":"Lietuva","key":"CountryName"},{"value":"Kauno Apskritis","key":"StateName"},{"value":"Kauno savivaldybė","key":"CountyName"}]},"MapReference":{"ReferenceId":"752531542","Spot":1.0,"SideOfStreet":"right","CountryId":"20633740","StateId":"23291102","CountyId":"23291645","CityId":"23290879","DistrictId":"23292397"}}}]}]}}