{"Response":{"MetaInfo":{"Timestamp":"2020-03-28T10:21:01.535+0000","NextPageInformation":"2"},"View":[{"_type":"SearchResultsViewType","ViewId":0,"Result":[{"Relevance":1.0,"Distance":0.0,"Direction":0.0,"MatchLevel":"district","MatchQuality":{"Country":1.0,"State":1.0,"County":1.0,"City":1.0,"District":1.0,"PostalCode":1.0},"Location":{"LocationId":"NT_hFzbrsPg8TIjjg5CZ8BFLD","LocationType":"point","DisplayPosition":{"Latitude":54.8337505,"Longitude":9.5484037},"MapView":{"TopLeft":{"Latitude":54.84177,"Longitude":9.54104},"BottomRight":{"Latitude":54.83054,"Longitude":9.56443}},"Address":{"Label":"Glücksburg (Ostsee), Schleswig-Holstein, Deutschland","Country":"DEU","State":"Schleswig-Holstein","County":"Schleswig-Flensburg","City":"Glücksburg (Ostsee)","District":"Glücksburg (Ostsee)","PostalCode":"24960","AdditionalData":[{"value":"Deutschland","key":"CountryName"},{"value":"Schleswig-Holstein","key":"StateName"},{"value":"Schleswig-Flensburg","key":"CountyName"}]},"MapReference":{"ReferenceId":"1267925278","SideOfStreet":"neither","CountryId":"20147700","StateId":"20147701","CountyId":"20150184","CityId":"20150462","DistrictId":"20150465"}}},{"Relevance":1.0,"Distance":12.0,"MatchLevel":"houseNumber","MatchQuality":{"Country":1.0,"State":1.0,"County":1.0,"City":1.0,"District":1.0,"Street":[1.0],"HouseNumber":1.0,"PostalCode":1.0},"MatchType":"interpolated","Location":{"LocationId":"NT_DsRuyBHB2cjVyv5CVMoACC_1A","LocationType":"point","DisplayPosition":{"Latitude":54.83395,"Longitude":9.54867},"MapView":{"TopLeft":{"Latitude":54.8350742,"Longitude":9.5467182},"BottomRight":{"Latitude":54.8328258,"Longitude":9.5506218}},"Address":{"Label":"Bahnhofstraße 5, 24960 Glücksburg (Ostsee), Deutschland","Country":"DEU","State":"Schleswig-Holstein","County":"Schleswig-Flensburg","City":"Glücksburg (Ostsee)","District":"Glücksburg (Ostsee)","Street":"Bahnhofstraße","HouseNumber":"5","PostalCode":"24960","AdditionalData":[{"value":"Deutschland","key":"CountryName"},{"value":"Schleswig-Holstein","key":"StateName"},{"value":"Schleswig-Flensburg","key":"CountyName"}]},"MapReference":{"ReferenceId":"539234370","Spot":0.38,"SideOfStreet":"left","CountryId":"20147700","StateId":"20147701","CountyId":"20150184","CityId":"20150462","DistrictId":"20150465","AddressId":"196036885","RoadLinkId":"36363086"}}},{"Relevance":1.0,"Distance":54.3,"MatchLevel":"houseNumber","MatchQuality":{"Country":1.0,"State":1.0,"County":1.0,"City":1.0,"District":1.0,"Street":[1.0],"HouseNumber":1.0,"PostalCode":1.0},"MatchType":"interpolated","Location":{"LocationId":"NT_DsRuyBHB2cjVyv5CVMoACC_5A","LocationType":"point","DisplayPosition":{"Latitude":54.83373,"Longitude":9.54934},"MapView":{"TopLeft":{"Latitude":54.8348542,"Longitude":9.5473882},"BottomRight":{"Latitude":54.8326058,"Longitude":9.5512918}},"Address":{"Label":"Bahnhofstraße 9, 24960 Glücksburg (Ostsee), Deutschland","Country":"DEU","State":"Schleswig-Holstein","County":"Schleswig-Flensburg","City":"Glücksburg (Ostsee)","District":"Glücksburg (Ostsee)","Street":"Bahnhofstraße","HouseNumber":"9","PostalCode":"24960","AdditionalData":[{"value":"Deutschland","key":"CountryName"},{"value":"Schleswig-Holstein","key":"StateName"},{"value":"Schleswig-Flensburg","key":"CountyName"}]},"MapReference":{"ReferenceId":"586507650","Spot":0.98,"SideOfStreet":"left","CountryId":"20147700","StateId":"20147701","CountyId":"20150184","CityId":"20150462","DistrictId":"20150465","AddressId":"196314128","RoadLinkId":"36553014"}}},{"Relevance":1.0,"Distance":62.8,"MatchLevel":"houseNumber","MatchQuality":{"Country":1.0,"State":1.0,"County":1.0,"City":1.0,"District":1.0,"Street":[1.0],"HouseNumber":1.0,"PostalCode":1.0},"MatchType":"interpolated","Location":{"LocationId":"NT_CKobNjSjq3cI8zSPt-2t2B_xA","LocationType":"point","DisplayPosition":{"Latitude":54.83431,"Longitude":9.54786},"MapView":{"TopLeft":{"Latitude":54.8354342,"Longitude":9.5459082},"BottomRight":{"Latitude":54.8331858,"Longitude":9.5498118}},"Address":{"Label":"Rathausstraße 1, 24960 Glücksburg (Ostsee), Deutschland","Country":"DEU","State":"Schleswig-Holstein","County":"Schleswig-Flensburg","City":"Glücksburg (Ostsee)","District":"Glücksburg (Ostsee)","Street":"Rathausstraße","HouseNumber":"1","PostalCode":"24960","AdditionalData":[{"value":"Deutschland","key":"CountryName"},{"value":"Schleswig-Holstein","key":"StateName"},{"value":"Schleswig-Flensburg","key":"CountyName"}]},"MapReference":{"ReferenceId":"572210115","Spot":0.49,"SideOfStreet":"right","CountryId":"20147700","StateId":"20147701","CountyId":"20150184","CityId":"20150462","DistrictId":"20150465","AddressId":"196707873","RoadLinkId":"37000248"}}},{"Relevance":1.0,"Distance":65.7,"MatchLevel":"landmark","MatchQuality":{"Country":1.0,"State":1.0,"County":1.0,"City":1.0,"District":1.0,"PostalCode":1.0,"Name":1.0},"Location":{"LocationId":"NT_be6PP1pm4vanjNEdY5dGuD","LocationType":"park","Name":"Schloßpark Schloß Glücksburg","DisplayPosition":{"Latitude":54.83424,"Longitude":9.54547},"MapView":{"TopLeft":{"Latitude":54.83612,"Longitude":9.54397},"BottomRight":{"Latitude":54.83236,"Longitude":9.54759}},"Address":{"Label":"24960 Glücksburg (Ostsee), Deutschland","Country":"DEU","State":"Schleswig-Holstein","County":"Schleswig-Flensburg","City":"Glücksburg (Ostsee)","District":"Glücksburg (Ostsee)","PostalCode":"24960","AdditionalData":[{"value":"Deutschland","key":"CountryName"},{"value":"Schleswig-Holstein","key":"StateName"},{"value":"Schleswig-Flensburg","key":"CountyName"}]},"MapReference":{"CountryId":"20147700","StateId":"20147701","CountyId":"20150184","CityId":"20150462","DistrictId":"20150465","PlaceId":"1524271089"}}},{"Relevance":1.0,"Distance":67.1,"MatchLevel":"houseNumber","MatchQuality":{"Country":1.0,"State":1.0,"County":1.0,"City":1.0,"District":1.0,"Street":[1.0],"HouseNumber":1.0,"PostalCode":1.0},"MatchType":"interpolated","Location":{"LocationId":"NT_IcOrCuxWZQjI3qufF.RBmA_yA","LocationType":"point","DisplayPosition":{"Latitude":54.83388,"Longitude":9.54727},"MapView":{"TopLeft":{"Latitude":54.8350042,"Longitude":9.5453182},"BottomRight":{"Latitude":54.8327558,"Longitude":9.5492218}},"Address":{"Label":"Schloßallee 2, 24960 Glücksburg (Ostsee), Deutschland","Country":"DEU","State":"Schleswig-Holstein","County":"Schleswig-Flensburg","City":"Glücksburg (Ostsee)","District":"Glücksburg (Ostsee)","Street":"Schloßallee","HouseNumber":"2","PostalCode":"24960","AdditionalData":[{"value":"Deutschland","key":"CountryName"},{"value":"Schleswig-Holstein","key":"StateName"},{"value":"Schleswig-Flensburg","key":"CountyName"}]},"MapReference":{"ReferenceId":"539252324","Spot":0.81,"SideOfStreet":"right","CountryId":"20147700","StateId":"20147701","CountyId":"20150184","CityId":"20150462","DistrictId":"20150465","AddressId":"193346914","RoadLinkId":"37078504"}}},{"Relevance":1.0,"Distance":83.9,"MatchLevel":"houseNumber","MatchQuality":{"Country":1.0,"State":1.0,"County":1.0,"City":1.0,"District":1.0,"Street":[1.0],"HouseNumber":1.0,"PostalCode":1.0},"MatchType":"interpolated","Location":{"LocationId":"NT_DsRuyBHB2cjVyv5CVMoACC_4EE","LocationType":"point","DisplayPosition":{"Latitude":54.83381,"Longitude":9.54971},"MapView":{"TopLeft":{"Latitude":54.8349342,"Longitude":9.5477582},"BottomRight":{"Latitude":54.8326858,"Longitude":9.5516618}},"Address":{"Label":"Bahnhofstraße 8A, 24960 Glücksburg (Ostsee), Deutschland","Country":"DEU","State":"Schleswig-Holstein","County":"Schleswig-Flensburg","City":"Glücksburg (Ostsee)","District":"Glücksburg (Ostsee)","Street":"Bahnhofstraße","HouseNumber":"8A","PostalCode":"24960","AdditionalData":[{"value":"Deutschland","key":"CountryName"},{"value":"Schleswig-Holstein","key":"StateName"},{"value":"Schleswig-Flensburg","key":"CountyName"}]},"MapReference":{"ReferenceId":"539234368","Spot":0.54,"SideOfStreet":"right","CountryId":"20147700","StateId":"20147701","CountyId":"20150184","CityId":"20150462","DistrictId":"20150465","AddressId":"194653363","RoadLinkId":"36970595"}}},{"Relevance":1.0,"Distance":94.5,"MatchLevel":"houseNumber","MatchQuality":{"Country":1.0,"State":1.0,"County":1.0,"City":1.0,"District":1.0,"Street":[1.0],"HouseNumber":1.0,"PostalCode":1.0},"MatchType":"interpolated","Location":{"LocationId":"NT_CKobNjSjq3cI8zSPt-2t2B_zEE","LocationType":"point","DisplayPosition":{"Latitude":54.83464,"Longitude":9.5483},"MapView":{"TopLeft":{"Latitude":54.8357642,"Longitude":9.5463481},"BottomRight":{"Latitude":54.8335158,"Longitude":9.5502519}},"Address":{"Label":"Rathausstraße 3A, 24960 Glücksburg (Ostsee), Deutschland","Country":"DEU","State":"Schleswig-Holstein","County":"Schleswig-Flensburg","City":"Glücksburg (Ostsee)","District":"Glücksburg (Ostsee)","Street":"Rathausstraße","HouseNumber":"3A","PostalCode":"24960","AdditionalData":[{"value":"Deutschland","key":"CountryName"},{"value":"Schleswig-Holstein","key":"StateName"},{"value":"Schleswig-Flensburg","key":"CountyName"}]},"MapReference":{"ReferenceId":"1267925277","Spot":0.8,"SideOfStreet":"right","CountryId":"20147700","StateId":"20147701","CountyId":"20150184","CityId":"20150462","DistrictId":"20150465","AddressId":"193083756","RoadLinkId":"594847528"}}},{"Relevance":1.0,"Distance":103.0,"MatchLevel":"houseNumber","MatchQuality":{"Country":1.0,"State":1.0,"County":1.0,"City":1.0,"District":1.0,"Street":[1.0],"HouseNumber":1.0,"PostalCode":1.0},"MatchType":"interpolated","Location":{"LocationId":"NT_DsRuyBHB2cjVyv5CVMoACC_xATQ","LocationType":"point","DisplayPosition":{"Latitude":54.83389,"Longitude":9.5503},"MapView":{"TopLeft":{"Latitude":54.8350142,"Longitude":9.5483482},"BottomRight":{"Latitude":54.8327658,"Longitude":9.5522518}},"Address":{"Label":"Bahnhofstraße 10A, 24960 Glücksburg (Ostsee), Deutschland","Country":"DEU","State":"Schleswig-Holstein","County":"Schleswig-Flensburg","City":"Glücksburg (Ostsee)","District":"Glücksburg (Ostsee)","Street":"Bahnhofstraße","HouseNumber":"10A","PostalCode":"24960","AdditionalData":[{"value":"Deutschland","key":"CountryName"},{"value":"Schleswig-Holstein","key":"StateName"},{"value":"Schleswig-Flensburg","key":"CountyName"}]},"MapReference":{"ReferenceId":"539234367","Spot":0.11,"SideOfStreet":"left","CountryId":"20147700","StateId":"20147701","CountyId":"20150184","CityId":"20150462","DistrictId":"20150465","AddressId":"195609827","RoadLinkId":"36584384"}}},{"Relevance":1.0,"Distance":109.4,"MatchLevel":"houseNumber","MatchQuality":{"Country":1.0,"State":1.0,"County":1.0,"City":1.0,"District":1.0,"Street":[1.0],"HouseNumber":1.0,"PostalCode":1.0},"MatchType":"interpolated","Location":{"LocationId":"NT_CKobNjSjq3cI8zSPt-2t2B_1A","LocationType":"point","DisplayPosition":{"Latitude":54.83477,"Longitude":9.54847},"MapView":{"TopLeft":{"Latitude":54.8358942,"Longitude":9.5465181},"BottomRight":{"Latitude":54.8336458,"Longitude":9.5504219}},"Address":{"Label":"Rathausstraße 5, 24960 Glücksburg (Ostsee), Deutschland","Country":"DEU","State":"Schleswig-Holstein","County":"Schleswig-Flensburg","City":"Glücksburg (Ostsee)","District":"Glücksburg (Ostsee)","Street":"Rathausstraße","HouseNumber":"5","PostalCode":"24960","AdditionalData":[{"value":"Deutschland","key":"CountryName"},{"value":"Schleswig-Holstein","key":"StateName"},{"value":"Schleswig-Flensburg","key":"CountyName"}]},"MapReference":{"ReferenceId":"1267925278","Spot":0.17,"SideOfStreet":"right","CountryId":"20147700","StateId":"20147701","CountyId":"20150184","CityId":"20150462","DistrictId":"20150465","AddressId":"194429990","RoadLinkId":"594847529"}}}]}]}}