{"Response":{"MetaInfo":{"Timestamp":"2020-03-28T11:59:26.102+0000","NextPageInformation":"2"},"View":[{"_type":"SearchResultsViewType","ViewId":0,"Result":[{"Relevance":1.0,"Distance":0.0,"Direction":0.0,"MatchLevel":"district","MatchQuality":{"Country":1.0,"State":1.0,"County":1.0,"City":1.0,"District":1.0,"PostalCode":1.0},"Location":{"LocationId":"NT_k5nU73PZQ5MSrnJzFw5F9C","LocationType":"point","DisplayPosition":{"Latitude":54.8257912,"Longitude":-7.4640342},"MapView":{"TopLeft":{"Latitude":54.84511,"Longitude":-7.48888},"BottomRight":{"Latitude":54.80413,"Longitude":-7.44362}},"Address":{"Label":"Strabane, Northern Ireland, United Kingdom","Country":"GBR","State":"Northern Ireland","County":"County Tyrone","City":"Strabane","District":"Strabane","PostalCode":"BT82 8","AdditionalData":[{"value":"United Kingdom","key":"CountryName"},{"value":"Northern Ireland","key":"StateName"},{"value":"County Tyrone","key":"CountyName"}]},"MapReference":{"ReferenceId":"554967009","SideOfStreet":"neither","StateId":"20403688","CountyId":"20411124","CityId":"20419900","DistrictId":"20419908"}}},{"Relevance":1.0,"Distance":2.7,"MatchLevel":"houseNumber","MatchQuality":{"Country":1.0,"State":1.0,"County":1.0,"City":1.0,"District":1.0,"Street":[1.0],"HouseNumber":1.0,"PostalCode":1.0},"MatchType":"interpolated","Location":{"LocationId":"NT_lqn3f-HeVyLgvLECMtqe4C_2kzY","LocationType":"point","DisplayPosition":{"Latitude":54.82575,"Longitude":-7.46416},"MapView":{"TopLeft":{"Latitude":54.8268742,"Longitude":-7.4661114},"BottomRight":{"Latitude":54.8246258,"Longitude":-7.4622086}},"Address":{"Label":"69c Main Street, Strabane, BT82 8, United Kingdom","Country":"GBR","State":"Northern Ireland","County":"County Tyrone","City":"Strabane","District":"Strabane","Street":"Main Street","HouseNumber":"69c","PostalCode":"BT82 8","AdditionalData":[{"value":"United Kingdom","key":"CountryName"},{"value":"Northern Ireland","key":"StateName"},{"value":"County Tyrone","key":"CountyName"}]},"MapReference":{"ReferenceId":"584095746","Spot":0.72,"SideOfStreet":"right","StateId":"20403688","CountyId":"20411124","CityId":"20419900","DistrictId":"20419908","AddressId":"589986638","RoadLinkId":"84955164"}}},{"Relevance":1.0,"Distance":18.8,"MatchLevel":"postalCode","MatchQuality":{"PostalCode":1.0},"MatchType":"interpolated","Location":{"LocationId":"NT_lqn3f-HeVyLgvLECMtqe4C_2kzY","LocationType":"point","DisplayPosition":{"Latitude":54.82569,"Longitude":-7.4638},"MapView":{"TopLeft":{"Latitude":54.8346832,"Longitude":-7.4794114},"BottomRight":{"Latitude":54.8166968,"Longitude":-7.4481886}},"Address":{"Label":"BT82 8AU, Strabane, Northern Ireland, United Kingdom","Country":"GBR","State":"Northern Ireland","County":"County Tyrone","City":"Strabane","PostalCode":"BT82 8AU","AdditionalData":[{"value":"United Kingdom","key":"CountryName"},{"value":"Northern Ireland","key":"StateName"},{"value":"County Tyrone","key":"CountyName"}]},"MapReference":{"ReferenceId":"584095746","Spot":0.72,"SideOfStreet":"neither","StateId":"20403688","CountyId":"20411124","CityId":"20419900"}}},{"Relevance":1.0,"Distance":34.0,"MatchLevel":"houseNumber","MatchQuality":{"Country":1.0,"State":1.0,"County":1.0,"City":1.0,"District":1.0,"Street":[1.0],"HouseNumber":1.0,"PostalCode":1.0},"MatchType":"interpolated","Location":{"LocationId":"NT_DuyoC0BF8ZFcjCG11momzC_1A","LocationType":"point","DisplayPosition":{"Latitude":54.82616,"Longitude":-7.46421},"MapView":{"TopLeft":{"Latitude":54.8272842,"Longitude":-7.4661615},"BottomRight":{"Latitude":54.8250358,"Longitude":-7.4622585}},"Address":{"Label":"5 Castle Street, Strabane, BT82 8, United Kingdom","Country":"GBR","State":"Northern Ireland","County":"County Tyrone","City":"Strabane","District":"Strabane","Street":"Castle Street","HouseNumber":"5","PostalCode":"BT82 8","AdditionalData":[{"value":"United Kingdom","key":"CountryName"},{"value":"Northern Ireland","key":"StateName"},{"value":"County Tyrone","key":"CountyName"}]},"MapReference":{"ReferenceId":"584095745","Spot":0.85,"SideOfStreet":"right","StateId":"20403688","CountyId":"20411124","CityId":"20419900","DistrictId":"20419908","AddressId":"811461309","RoadLinkId":"84882531"}}},{"Relevance":1.0,"Distance":37.0,"MatchLevel":"houseNumber","MatchQuality":{"Country":1.0,"State":1.0,"County":1.0,"City":1.0,"District":1.0,"Street":[1.0],"HouseNumber":1.0,"PostalCode":1.0},"MatchType":"interpolated","Location":{"LocationId":"NT_WETHxMaZ53HFKDLt0xOI-D_yID","LocationType":"point","DisplayPosition":{"Latitude":54.8262,"Longitude":-7.46398},"MapView":{"TopLeft":{"Latitude":54.8273242,"Longitude":-7.4659315},"BottomRight":{"Latitude":54.8250758,"Longitude":-7.4620285}},"Address":{"Label":"22 Castle Place, Strabane, BT82 8AW, United Kingdom","Country":"GBR","State":"Northern Ireland","County":"County Tyrone","City":"Strabane","District":"Strabane","Street":"Castle Place","HouseNumber":"22","PostalCode":"BT82 8AW","AdditionalData":[{"value":"United Kingdom","key":"CountryName"},{"value":"Northern Ireland","key":"StateName"},{"value":"County Tyrone","key":"CountyName"}]},"MapReference":{"ReferenceId":"584095747","Spot":0.14,"SideOfStreet":"right","StateId":"20403688","CountyId":"20411124","CityId":"20419900","DistrictId":"20419908","AddressId":"341936426","RoadLinkId":"84866740"}}},{"Relevance":1.0,"Distance":57.8,"MatchLevel":"houseNumber","MatchQuality":{"Country":1.0,"State":1.0,"County":1.0,"City":1.0,"District":1.0,"Street":[1.0],"HouseNumber":1.0,"PostalCode":1.0},"MatchType":"interpolated","Location":{"LocationId":"NT_DuyoC0BF8ZFcjCG11momzC_3A","LocationType":"point","DisplayPosition":{"Latitude":54.82636,"Longitude":-7.46403},"MapView":{"TopLeft":{"Latitude":54.8274842,"Longitude":-7.4659815},"BottomRight":{"Latitude":54.8252358,"Longitude":-7.4620785}},"Address":{"Label":"7 Castle Street, Strabane, BT82 8, United Kingdom","Country":"GBR","State":"Northern Ireland","County":"County Tyrone","City":"Strabane","District":"Strabane","Street":"Castle Street","HouseNumber":"7","PostalCode":"BT82 8","AdditionalData":[{"value":"United Kingdom","key":"CountryName"},{"value":"Northern Ireland","key":"StateName"},{"value":"County Tyrone","key":"CountyName"}]},"MapReference":{"ReferenceId":"554967011","Spot":0.16,"SideOfStreet":"right","StateId":"20403688","CountyId":"20411124","CityId":"20419900","DistrictId":"20419908","AddressId":"341983946","RoadLinkId":"84895031"}}},{"Relevance":1.0,"Distance":60.3,"MatchLevel":"postalCode","MatchQuality":{"PostalCode":1.0},"MatchType":"interpolated","Location":{"LocationId":"NT_WETHxMaZ53HFKDLt0xOI-D_yID","LocationType":"point","DisplayPosition":{"Latitude":54.82626,"Longitude":-7.46356},"MapView":{"TopLeft":{"Latitude":54.8352532,"Longitude":-7.4791717},"BottomRight":{"Latitude":54.8172668,"Longitude":-7.4479483}},"Address":{"Label":"BT82 8AW, Strabane, Northern Ireland, United Kingdom","Country":"GBR","State":"Northern Ireland","County":"County Tyrone","City":"Strabane","PostalCode":"BT82 8AW","AdditionalData":[{"value":"United Kingdom","key":"CountryName"},{"value":"Northern Ireland","key":"StateName"},{"value":"County Tyrone","key":"CountyName"}]},"MapReference":{"ReferenceId":"584095747","Spot":0.14,"SideOfStreet":"neither","StateId":"20403688","CountyId":"20411124","CityId":"20419900"}}},{"Relevance":1.0,"Distance":62.6,"MatchLevel":"houseNumber","MatchQuality":{"Country":1.0,"State":1.0,"County":1.0,"City":1.0,"District":1.0,"Street":[1.0],"HouseNumber":1.0,"PostalCode":1.0},"MatchType":"interpolated","Location":{"LocationId":"NT_lqn3f-HeVyLgvLECMtqe4C_3kD","LocationType":"point","DisplayPosition":{"Latitude":54.82608,"Longitude":-7.46485},"MapView":{"TopLeft":{"Latitude":54.8272042,"Longitude":-7.4668014},"BottomRight":{"Latitude":54.8249558,"Longitude":-7.4628986}},"Address":{"Label":"79 Main Street, Strabane, BT82 8AZ, United Kingdom","Country":"GBR","State":"Northern Ireland","County":"County Tyrone","City":"Strabane","District":"Strabane","Street":"Main Street","HouseNumber":"79","PostalCode":"BT82 8AZ","AdditionalData":[{"value":"United Kingdom","key":"CountryName"},{"value":"Northern Ireland","key":"StateName"},{"value":"County Tyrone","key":"CountyName"}]},"MapReference":{"ReferenceId":"584095748","Spot":0.24,"SideOfStreet":"right","StateId":"20403688","CountyId":"20411124","CityId":"20419900","DistrictId":"20419908","AddressId":"341762219","RoadLinkId":"84913367"}}},{"Relevance":1.0,"Distance":66.7,"MatchLevel":"houseNumber","MatchQuality":{"Country":1.0,"State":1.0,"County":1.0,"City":1.0,"District":1.0,"Street":[1.0],"HouseNumber":1.0,"PostalCode":1.0},"MatchType":"interpolated","Location":{"LocationId":"NT_cyBdJQ2ni4h8ThrRaukJVB_0AD","LocationType":"point","DisplayPosition":{"Latitude":54.8261,"Longitude":-7.46286},"MapView":{"TopLeft":{"Latitude":54.8272242,"Longitude":-7.4648114},"BottomRight":{"Latitude":54.8249758,"Longitude":-7.4609086}},"Address":{"Label":"40 Market Street, Strabane, BT82 8, United Kingdom","Country":"GBR","State":"Northern Ireland","County":"County Tyrone","City":"Strabane","District":"Strabane","Street":"Market Street","HouseNumber":"40","PostalCode":"BT82 8","AdditionalData":[{"value":"United Kingdom","key":"CountryName"},{"value":"Northern Ireland","key":"StateName"},{"value":"County Tyrone","key":"CountyName"}]},"MapReference":{"ReferenceId":"791151403","Spot":0.93,"SideOfStreet":"left","StateId":"20403688","CountyId":"20411124","CityId":"20419900","DistrictId":"20419908","AddressId":"589974040","RoadLinkId":"183322323"}}},{"Relevance":1.0,"Distance":71.8,"MatchLevel":"houseNumber","MatchQuality":{"Country":1.0,"State":1.0,"County":1.0,"City":1.0,"District":1.0,"Street":[1.0],"HouseNumber":1.0,"PostalCode":1.0},"MatchType":"interpolated","Location":{"LocationId":"NT_P-NYyThnhS9RJjCroDfwUA_l_554967006_L_0AD","LocationType":"point","DisplayPosition":{"Latitude":54.8262449,"Longitude":-7.4629325},"MapView":{"TopLeft":{"Latitude":54.8273691,"Longitude":-7.4648839},"BottomRight":{"Latitude":54.8251208,"Longitude":-7.460981}},"Address":{"Label":"40 Market Square, Strabane, BT82 8, United Kingdom","Country":"GBR","State":"Northern Ireland","County":"County Tyrone","City":"Strabane","District":"Strabane","Street":"Market Square","HouseNumber":"40","PostalCode":"BT82 8","AdditionalData":[{"value":"United Kingdom","key":"CountryName"},{"value":"Northern Ireland","key":"StateName"},{"value":"County Tyrone","key":"CountyName"}]},"MapReference":{"ReferenceId":"554967006","Spot":0.52,"SideOfStreet":"left","StateId":"20403688","CountyId":"20411124","CityId":"20419900","DistrictId":"20419908"}}}]}]}}