{"Response":{"MetaInfo":{"Timestamp":"2020-03-28T09:51:57.212+0000","NextPageInformation":"2"},"View":[{"_type":"SearchResultsViewType","ViewId":0,"Result":[{"Relevance":1.0,"Distance":0.0,"Direction":0.0,"MatchLevel":"district","MatchQuality":{"Country":1.0,"State":1.0,"County":1.0,"City":1.0,"District":1.0,"PostalCode":1.0},"Location":{"LocationId":"NT_BGwEdYVFvKpa8HIYfaXhYD","LocationType":"point","DisplayPosition":{"Latitude":54.9974413,"Longitude":-1.610922},"MapView":{"TopLeft":{"Latitude":55.00215,"Longitude":-1.61756},"BottomRight":{"Latitude":54.99077,"Longitude":-1.59958}},"Address":{"Label":"West Jesmond, Newcastle upon Tyne, England, United Kingdom","Country":"GBR","State":"England","County":"Tyne and Wear","City":"Newcastle upon Tyne","District":"West Jesmond","PostalCode":"NE2 3","AdditionalData":[{"value":"United Kingdom","key":"CountryName"},{"value":"England","key":"StateName"},{"value":"Tyne and Wear","key":"CountyName"}]},"MapReference":{"ReferenceId":"1227762951","SideOfStreet":"neither","StateId":"20248595","CountyId":"20347950","CityId":"20348020","DistrictId":"20348134"}}},{"Relevance":1.0,"Distance":13.3,"MatchLevel":"houseNumber","MatchQuality":{"Country":1.0,"State":1.0,"County":1.0,"City":1.0,"District":1.0,"Street":[1.0],"HouseNumber":1.0,"PostalCode":1.0},"MatchType":"interpolated","Location":{"LocationId":"NT_3rTIjZONOA98ATPHTqhHdA_l_1183238543_L_yUTN","LocationType":"point","DisplayPosition":{"Latitude":54.9973549,"Longitude":-1.6110662},"MapView":{"TopLeft":{"Latitude":54.9984791,"Longitude":-1.613026},"BottomRight":{"Latitude":54.9962307,"Longitude":-1.6091065}},"Address":{"Label":"255 Osborne Road, Newcastle upon Tyne, NE2 3LB, United Kingdom","Country":"GBR","State":"England","County":"Tyne and Wear","City":"Newcastle upon Tyne","District":"West Jesmond","Street":"Osborne Road","HouseNumber":"255","PostalCode":"NE2 3LB","AdditionalData":[{"value":"United Kingdom","key":"CountryName"},{"value":"England","key":"StateName"},{"value":"Tyne and Wear","key":"CountyName"}]},"MapReference":{"ReferenceId":"1183238543","Spot":0.6,"SideOfStreet":"left","StateId":"20248595","CountyId":"20347950","CityId":"20348020","DistrictId":"20348134"}}},{"Relevance":1.0,"Distance":30.9,"MatchLevel":"houseNumber","MatchQuality":{"Country":1.0,"State":1.0,"County":1.0,"City":1.0,"District":1.0,"Street":[1.0],"HouseNumber":1.0,"PostalCode":1.0},"MatchType":"interpolated","Location":{"LocationId":"NT_3rTIjZONOA98ATPHTqhHdA_l_1183238544_L_yUzN","LocationType":"point","DisplayPosition":{"Latitude":54.99768,"Longitude":-1.61117},"MapView":{"TopLeft":{"Latitude":54.9988042,"Longitude":-1.6131298},"BottomRight":{"Latitude":54.9965559,"Longitude":-1.6092102}},"Address":{"Label":"257 Osborne Road, Newcastle upon Tyne, NE2 3LB, United Kingdom","Country":"GBR","State":"England","County":"Tyne and Wear","City":"Newcastle upon Tyne","District":"West Jesmond","Street":"Osborne Road","HouseNumber":"257","PostalCode":"NE2 3LB","AdditionalData":[{"value":"United Kingdom","key":"CountryName"},{"value":"England","key":"StateName"},{"value":"Tyne and Wear","key":"CountyName"}]},"MapReference":{"ReferenceId":"1183238544","Spot":0.3,"SideOfStreet":"left","StateId":"20248595","CountyId":"20347950","CityId":"20348020","DistrictId":"20348134"}}},{"Relevance":1.0,"Distance":41.6,"MatchLevel":"houseNumber","MatchQuality":{"Country":1.0,"State":1.0,"County":1.0,"City":1.0,"District":1.0,"Street":[1.0],"HouseNumber":1.0,"PostalCode":1.0},"MatchType":"interpolated","Location":{"LocationId":"NT_qyeCyKZq7mDBacrClvh0HB_l_27206003_L_4A","LocationType":"point","DisplayPosition":{"Latitude":54.9978925,"Longitude":-1.6105291},"MapView":{"TopLeft":{"Latitude":54.9990166,"Longitude":-1.6124888},"BottomRight":{"Latitude":54.9967683,"Longitude":-1.6085693}},"Address":{"Label":"8 Towers Avenue, Newcastle upon Tyne, NE2 3QE, United Kingdom","Country":"GBR","State":"England","County":"Tyne and Wear","City":"Newcastle upon Tyne","District":"West Jesmond","Street":"Towers Avenue","HouseNumber":"8","PostalCode":"NE2 3QE","AdditionalData":[{"value":"United Kingdom","key":"CountryName"},{"value":"England","key":"StateName"},{"value":"Tyne and Wear","key":"CountyName"}]},"MapReference":{"ReferenceId":"27206003","Spot":0.88,"SideOfStreet":"left","StateId":"20248595","CountyId":"20347950","CityId":"20348020","DistrictId":"20348134"}}},{"Relevance":1.0,"Distance":48.0,"MatchLevel":"houseNumber","MatchQuality":{"Country":1.0,"State":1.0,"County":1.0,"City":1.0,"District":1.0,"Street":[1.0],"HouseNumber":1.0,"PostalCode":1.0},"MatchType":"interpolated","Location":{"LocationId":"NT_G64kJtPgaB4ZP2QP0T-vAD_l_30085323_R_1ID","LocationType":"point","DisplayPosition":{"Latitude":54.9970184,"Longitude":-1.6103688},"MapView":{"TopLeft":{"Latitude":54.9981426,"Longitude":-1.6123286},"BottomRight":{"Latitude":54.9958942,"Longitude":-1.6084091}},"Address":{"Label":"52 Mitchell Avenue, Newcastle upon Tyne, NE2 3LA, United Kingdom","Country":"GBR","State":"England","County":"Tyne and Wear","City":"Newcastle upon Tyne","District":"West Jesmond","Street":"Mitchell Avenue","HouseNumber":"52","PostalCode":"NE2 3LA","AdditionalData":[{"value":"United Kingdom","key":"CountryName"},{"value":"England","key":"StateName"},{"value":"Tyne and Wear","key":"CountyName"}]},"MapReference":{"ReferenceId":"30085323","Spot":0.92,"SideOfStreet":"right","StateId":"20248595","CountyId":"20347950","CityId":"20348020","DistrictId":"20348134"}}},{"Relevance":1.0,"Distance":61.4,"MatchLevel":"street","MatchQuality":{"Country":1.0,"State":1.0,"County":1.0,"City":1.0,"District":1.0,"Street":[1.0],"PostalCode":1.0},"Location":{"LocationId":"NT_R73E5t6fSlkGJTCzAo2GlA_l_936046066_R","LocationType":"point","DisplayPosition":{"Latitude":54.99785,"Longitude":-1.61157},"MapView":{"TopLeft":{"Latitude":54.99785,"Longitude":-1.6119},"BottomRight":{"Latitude":54.9977,"Longitude":-1.61157}},"Address":{"Label":"Jesmond Dene Road, Newcastle upon Tyne, NE2 3, United Kingdom","Country":"GBR","State":"England","County":"Tyne and Wear","City":"Newcastle upon Tyne","District":"West Jesmond","Street":"Jesmond Dene Road","PostalCode":"NE2 3","AdditionalData":[{"value":"United Kingdom","key":"CountryName"},{"value":"England","key":"StateName"},{"value":"Tyne and Wear","key":"CountyName"}]},"MapReference":{"ReferenceId":"936046066","Spot":1.0,"SideOfStreet":"right","StateId":"20248595","CountyId":"20347950","CityId":"20348020","DistrictId":"20348134"}}},{"Relevance":1.0,"Distance":64.3,"MatchLevel":"houseNumber","MatchQuality":{"Country":1.0,"State":1.0,"County":1.0,"City":1.0,"District":1.0,"Street":[1.0],"HouseNumber":1.0,"PostalCode":1.0},"MatchType":"interpolated","Location":{"LocationId":"NT_SKt0PdCApzY67itN56nM5C_l_1227762949_R_xQD","LocationType":"point","DisplayPosition":{"Latitude":54.9981499,"Longitude":-1.6108984},"MapView":{"TopLeft":{"Latitude":54.999274,"Longitude":-1.6128582},"BottomRight":{"Latitude":54.9970257,"Longitude":-1.6089385}},"Address":{"Label":"14 Jesmond Dene Road, Newcastle upon Tyne, NE2 3QL, United Kingdom","Country":"GBR","State":"England","County":"Tyne and Wear","City":"Newcastle upon Tyne","District":"West Jesmond","Street":"Jesmond Dene Road","HouseNumber":"14","PostalCode":"NE2 3QL","AdditionalData":[{"value":"United Kingdom","key":"CountryName"},{"value":"England","key":"StateName"},{"value":"Tyne and Wear","key":"CountyName"}]},"MapReference":{"ReferenceId":"1227762949","Spot":0.5,"SideOfStreet":"right","StateId":"20248595","CountyId":"20347950","CityId":"20348020","DistrictId":"20348134"}}},{"Relevance":1.0,"Distance":64.3,"MatchLevel":"street","MatchQuality":{"Country":1.0,"State":1.0,"County":1.0,"City":1.0,"District":1.0,"Street":[1.0],"PostalCode":1.0},"Location":{"LocationId":"NT_SKt0PdCApzY67itN56nM5C_l_936046067_R","LocationType":"point","DisplayPosition":{"Latitude":54.99798,"Longitude":-1.61129},"MapView":{"TopLeft":{"Latitude":54.99798,"Longitude":-1.61157},"BottomRight":{"Latitude":54.99785,"Longitude":-1.61129}},"Address":{"Label":"Jesmond Dene Road, Newcastle upon Tyne, NE2 3, United Kingdom","Country":"GBR","State":"England","County":"Tyne and Wear","City":"Newcastle upon Tyne","District":"West Jesmond","Street":"Jesmond Dene Road","PostalCode":"NE2 3","AdditionalData":[{"value":"United Kingdom","key":"CountryName"},{"value":"England","key":"StateName"},{"value":"Tyne and Wear","key":"CountyName"}]},"MapReference":{"ReferenceId":"936046067","Spot":1.0,"SideOfStreet":"right","StateId":"20248595","CountyId":"20347950","CityId":"20348020","DistrictId":"20348134"}}},{"Relevance":1.0,"Distance":68.7,"MatchLevel":"street","MatchQuality":{"Country":1.0,"State":1.0,"County":1.0,"City":1.0,"District":1.0,"Street":[1.0],"PostalCode":1.0},"Location":{"LocationId":"NT_SKt0PdCApzY67itN56nM5C_l_763907789_R","LocationType":"point","DisplayPosition":{"Latitude":54.9977,"Longitude":-1.6119},"MapView":{"TopLeft":{"Latitude":54.9977,"Longitude":-1.61228},"BottomRight":{"Latitude":54.99752,"Longitude":-1.6119}},"Address":{"Label":"Jesmond Dene Road, Newcastle upon Tyne, NE2 3, United Kingdom","Country":"GBR","State":"England","County":"Tyne and Wear","City":"Newcastle upon Tyne","District":"West Jesmond","Street":"Jesmond Dene Road","PostalCode":"NE2 3","AdditionalData":[{"value":"United Kingdom","key":"CountryName"},{"value":"England","key":"StateName"},{"value":"Tyne and Wear","key":"CountyName"}]},"MapReference":{"ReferenceId":"763907789","Spot":1.0,"SideOfStreet":"right","StateId":"20248595","CountyId":"20347950","CityId":"20348020","DistrictId":"20348134"}}},{"Relevance":1.0,"Distance":68.7,"MatchLevel":"street","MatchQuality":{"Country":1.0,"State":1.0,"County":1.0,"City":1.0,"District":1.0,"PostalCode":1.0},"Location":{"LocationId":"NT_X8Om6EAPdZsTPjkh1qDMaB_l_1075842922_L","LocationType":"point","DisplayPosition":{"Latitude":54.9977,"Longitude":-1.6119},"MapView":{"TopLeft":{"Latitude":54.99773,"Longitude":-1.61225},"BottomRight":{"Latitude":54.9977,"Longitude":-1.6119}},"Address":{"Label":"Newcastle upon Tyne, NE2 3, United Kingdom","Country":"GBR","State":"England","County":"Tyne and Wear","City":"Newcastle upon Tyne","District":"West Jesmond","PostalCode":"NE2 3","AdditionalData":[{"value":"United Kingdom","key":"CountryName"},{"value":"England","key":"StateName"},{"value":"Tyne and Wear","key":"CountyName"}]},"MapReference":{"ReferenceId":"1075842922","Spot":0.0,"SideOfStreet":"left","StateId":"20248595","CountyId":"20347950","CityId":"20348020","DistrictId":"20348134"}}}]}]}}