{"Response":{"MetaInfo":{"Timestamp":"2020-03-28T10:35:34.719+0000","NextPageInformation":"2"},"View":[{"_type":"SearchResultsViewType","ViewId":0,"Result":[{"Relevance":1.0,"Distance":0.0,"Direction":0.0,"MatchLevel":"district","MatchQuality":{"Country":1.0,"State":1.0,"County":1.0,"City":1.0,"District":1.0,"PostalCode":1.0},"Location":{"LocationId":"NT_TJaIOUXHl5LjI6g.I3JTvD","LocationType":"point","DisplayPosition":{"Latitude":54.9887714,"Longitude":-1.6055579},"MapView":{"TopLeft":{"Latitude":54.99895,"Longitude":-1.61184},"BottomRight":{"Latitude":54.98255,"Longitude":-1.58637}},"Address":{"Label":"Jesmond, Newcastle upon Tyne, England, United Kingdom","Country":"GBR","State":"England","County":"Tyne and Wear","City":"Newcastle upon Tyne","District":"Jesmond","PostalCode":"NE2 2","AdditionalData":[{"value":"United Kingdom","key":"CountryName"},{"value":"England","key":"StateName"},{"value":"Tyne and Wear","key":"CountyName"}]},"MapReference":{"ReferenceId":"78710105","SideOfStreet":"neither","StateId":"20248595","CountyId":"20347950","CityId":"20348020","DistrictId":"20348082"}}},{"Relevance":1.0,"Distance":3.9,"MatchLevel":"houseNumber","MatchQuality":{"Country":1.0,"State":1.0,"County":1.0,"City":1.0,"District":1.0,"Street":[1.0],"HouseNumber":1.0,"PostalCode":1.0},"MatchType":"interpolated","Location":{"LocationId":"NT_AUskXfE9jb6dZu3XIIW5bD_l_763921727_L_xcD","LocationType":"point","DisplayPosition":{"Latitude":54.9887001,"Longitude":-1.60532},"MapView":{"TopLeft":{"Latitude":54.9898242,"Longitude":-1.6072793},"BottomRight":{"Latitude":54.9875759,"Longitude":-1.6033606}},"Address":{"Label":"17 Osborne Road, Newcastle upon Tyne, NE2 2AG, United Kingdom","Country":"GBR","State":"England","County":"Tyne and Wear","City":"Newcastle upon Tyne","District":"Jesmond","Street":"Osborne Road","HouseNumber":"17","PostalCode":"NE2 2AG","AdditionalData":[{"value":"United Kingdom","key":"CountryName"},{"value":"England","key":"StateName"},{"value":"Tyne and Wear","key":"CountyName"}]},"MapReference":{"ReferenceId":"763921727","Spot":0.22,"SideOfStreet":"left","StateId":"20248595","CountyId":"20347950","CityId":"20348020","DistrictId":"20348082"}}},{"Relevance":1.0,"Distance":21.6,"MatchLevel":"houseNumber","MatchQuality":{"Country":1.0,"State":1.0,"County":1.0,"City":1.0,"District":1.0,"Street":[1.0],"HouseNumber":1.0,"PostalCode":1.0},"MatchType":"interpolated","Location":{"LocationId":"NT_SQD1946kZ7n5xe9EhwNc4C_l_708315627_L_xA","LocationType":"point","DisplayPosition":{"Latitude":54.98858,"Longitude":-1.6056201},"MapView":{"TopLeft":{"Latitude":54.9897042,"Longitude":-1.6075794},"BottomRight":{"Latitude":54.9874559,"Longitude":-1.6036607}},"Address":{"Label":"1 Holly Avenue West, Newcastle upon Tyne, NE2 2AR, United Kingdom","Country":"GBR","State":"England","County":"Tyne and Wear","City":"Newcastle upon Tyne","District":"Jesmond","Street":"Holly Avenue West","HouseNumber":"1","PostalCode":"NE2 2AR","AdditionalData":[{"value":"United Kingdom","key":"CountryName"},{"value":"England","key":"StateName"},{"value":"Tyne and Wear","key":"CountyName"}]},"MapReference":{"ReferenceId":"708315627","Spot":0.41,"SideOfStreet":"left","StateId":"20248595","CountyId":"20347950","CityId":"20348020","DistrictId":"20348082"}}},{"Relevance":1.0,"Distance":24.0,"MatchLevel":"street","MatchQuality":{"Country":1.0,"State":1.0,"County":1.0,"City":1.0,"District":1.0,"PostalCode":1.0},"Location":{"LocationId":"NT_147xg7xuaRkVu1LwN34YFC_l_1268797363_R","LocationType":"point","DisplayPosition":{"Latitude":54.9888125,"Longitude":-1.6059275},"MapView":{"TopLeft":{"Latitude":54.98999,"Longitude":-1.60595},"BottomRight":{"Latitude":54.98861,"Longitude":-1.60555}},"Address":{"Label":"Newcastle upon Tyne, NE2 2, United Kingdom","Country":"GBR","State":"England","County":"Tyne and Wear","City":"Newcastle upon Tyne","District":"Jesmond","PostalCode":"NE2 2","AdditionalData":[{"value":"United Kingdom","key":"CountryName"},{"value":"England","key":"StateName"},{"value":"Tyne and Wear","key":"CountyName"}]},"MapReference":{"ReferenceId":"1268797363","Spot":0.14,"SideOfStreet":"right","StateId":"20248595","CountyId":"20347950","CityId":"20348020","DistrictId":"20348082"}}},{"Relevance":1.0,"Distance":26.5,"MatchLevel":"houseNumber","MatchQuality":{"Country":1.0,"State":1.0,"County":1.0,"City":1.0,"District":1.0,"Street":[1.0],"HouseNumber":1.0,"PostalCode":1.0},"MatchType":"interpolated","Location":{"LocationId":"NT_CUexZEv3hpxETXAvzcKsSA_l_708315551_L_xUD","LocationType":"point","DisplayPosition":{"Latitude":54.988455,"Longitude":-1.60544},"MapView":{"TopLeft":{"Latitude":54.9895792,"Longitude":-1.6073993},"BottomRight":{"Latitude":54.9873309,"Longitude":-1.6034807}},"Address":{"Label":"15 Osborne Road, Newcastle upon Tyne, NE2 2AG, United Kingdom","Country":"GBR","State":"England","County":"Tyne and Wear","City":"Newcastle upon Tyne","District":"Jesmond","Street":"Osborne Road","HouseNumber":"15","PostalCode":"NE2 2AG","AdditionalData":[{"value":"United Kingdom","key":"CountryName"},{"value":"England","key":"StateName"},{"value":"Tyne and Wear","key":"CountyName"}]},"MapReference":{"ReferenceId":"708315551","Spot":0.5,"SideOfStreet":"left","StateId":"20248595","CountyId":"20347950","CityId":"20348020","DistrictId":"20348082"}}},{"Relevance":1.0,"Distance":30.8,"MatchLevel":"street","MatchQuality":{"Country":1.0,"State":1.0,"County":1.0,"City":1.0,"District":1.0,"PostalCode":1.0},"Location":{"LocationId":"NT_147xg7xuaRkVu1LwN34YFC_l_708315629_R","LocationType":"point","DisplayPosition":{"Latitude":54.98861,"Longitude":-1.60595},"MapView":{"TopLeft":{"Latitude":54.98861,"Longitude":-1.60602},"BottomRight":{"Latitude":54.98828,"Longitude":-1.60595}},"Address":{"Label":"Newcastle upon Tyne, NE2 2, United Kingdom","Country":"GBR","State":"England","County":"Tyne and Wear","City":"Newcastle upon Tyne","District":"Jesmond","PostalCode":"NE2 2","AdditionalData":[{"value":"United Kingdom","key":"CountryName"},{"value":"England","key":"StateName"},{"value":"Tyne and Wear","key":"CountyName"}]},"MapReference":{"ReferenceId":"708315629","Spot":1.0,"SideOfStreet":"right","StateId":"20248595","CountyId":"20347950","CityId":"20348020","DistrictId":"20348082"}}},{"Relevance":1.0,"Distance":30.8,"MatchLevel":"houseNumber","MatchQuality":{"Country":1.0,"State":1.0,"County":1.0,"City":1.0,"District":1.0,"Street":[1.0],"HouseNumber":1.0,"PostalCode":1.0},"MatchType":"interpolated","Location":{"LocationId":"NT_SQD1946kZ7n5xe9EhwNc4C_l_708315628_L_2A","LocationType":"point","DisplayPosition":{"Latitude":54.98861,"Longitude":-1.60595},"MapView":{"TopLeft":{"Latitude":54.9897342,"Longitude":-1.6079094},"BottomRight":{"Latitude":54.9874858,"Longitude":-1.6039907}},"Address":{"Label":"6 Holly Avenue West, Newcastle upon Tyne, NE2 2AR, United Kingdom","Country":"GBR","State":"England","County":"Tyne and Wear","City":"Newcastle upon Tyne","District":"Jesmond","Street":"Holly Avenue West","HouseNumber":"6","PostalCode":"NE2 2AR","AdditionalData":[{"value":"United Kingdom","key":"CountryName"},{"value":"England","key":"StateName"},{"value":"Tyne and Wear","key":"CountyName"}]},"MapReference":{"ReferenceId":"708315628","Spot":0.0,"SideOfStreet":"left","StateId":"20248595","CountyId":"20347950","CityId":"20348020","DistrictId":"20348082"}}},{"Relevance":1.0,"Distance":37.0,"MatchLevel":"postalCode","MatchQuality":{"PostalCode":1.0},"MatchType":"interpolated","Location":{"LocationId":"NT_AUskXfE9jb6dZu3XIIW5bD_l_763921727_L_xcD","LocationType":"point","DisplayPosition":{"Latitude":54.98899,"Longitude":-1.60512},"MapView":{"TopLeft":{"Latitude":54.9979832,"Longitude":-1.6207949},"BottomRight":{"Latitude":54.9799968,"Longitude":-1.5894451}},"Address":{"Label":"NE2 2AJ, Newcastle upon Tyne, England, United Kingdom","Country":"GBR","State":"England","County":"Tyne and Wear","City":"Newcastle upon Tyne","PostalCode":"NE2 2AJ","AdditionalData":[{"value":"United Kingdom","key":"CountryName"},{"value":"England","key":"StateName"},{"value":"Tyne and Wear","key":"CountyName"}]},"MapReference":{"ReferenceId":"763921727","Spot":0.22,"SideOfStreet":"neither","StateId":"20248595","CountyId":"20347950","CityId":"20348020"}}},{"Relevance":1.0,"Distance":41.4,"MatchLevel":"houseNumber","MatchQuality":{"Country":1.0,"State":1.0,"County":1.0,"City":1.0,"District":1.0,"Street":[1.0],"HouseNumber":1.0,"PostalCode":1.0},"MatchType":"interpolated","Location":{"LocationId":"NT_aVdZuE0nFVzppUdhAPgB-A_l_27209470_R_xA","LocationType":"point","DisplayPosition":{"Latitude":54.9885768,"Longitude":-1.604921},"MapView":{"TopLeft":{"Latitude":54.9897009,"Longitude":-1.6068804},"BottomRight":{"Latitude":54.9874526,"Longitude":-1.6029617}},"Address":{"Label":"1 Holly Avenue, Newcastle upon Tyne, NE2 2PU, United Kingdom","Country":"GBR","State":"England","County":"Tyne and Wear","City":"Newcastle upon Tyne","District":"Jesmond","Street":"Holly Avenue","HouseNumber":"1","PostalCode":"NE2 2PU","AdditionalData":[{"value":"United Kingdom","key":"CountryName"},{"value":"England","key":"StateName"},{"value":"Tyne and Wear","key":"CountyName"}]},"MapReference":{"ReferenceId":"27209470","Spot":0.92,"SideOfStreet":"right","StateId":"20248595","CountyId":"20347950","CityId":"20348020","DistrictId":"20348082"}}},{"Relevance":1.0,"Distance":48.2,"MatchLevel":"street","MatchQuality":{"Country":1.0,"State":1.0,"County":1.0,"City":1.0,"District":1.0,"Street":[1.0],"PostalCode":1.0},"Location":{"LocationId":"NT_MlmBwr.Q.D89mHkwJXk5qA_l_708315552_R","LocationType":"point","DisplayPosition":{"Latitude":54.98834,"Longitude":-1.60549},"MapView":{"TopLeft":{"Latitude":54.98834,"Longitude":-1.60549},"BottomRight":{"Latitude":54.98815,"Longitude":-1.60112}},"Address":{"Label":"Haldane Court, Newcastle upon Tyne, NE2 2, United Kingdom","Country":"GBR","State":"England","County":"Tyne and Wear","City":"Newcastle upon Tyne","District":"Jesmond","Street":"Haldane Court","PostalCode":"NE2 2","AdditionalData":[{"value":"United Kingdom","key":"CountryName"},{"value":"England","key":"StateName"},{"value":"Tyne and Wear","key":"CountyName"}]},"MapReference":{"ReferenceId":"708315552","Spot":1.0,"SideOfStreet":"right","StateId":"20248595","CountyId":"20347950","CityId":"20348020","DistrictId":"20348082"}}}]}]}}