{"Response":{"MetaInfo":{"Timestamp":"2020-03-28T10:33:55.210+0000","NextPageInformation":"2"},"View":[{"_type":"SearchResultsViewType","ViewId":0,"Result":[{"Relevance":1.0,"Distance":0.0,"Direction":0.0,"MatchLevel":"district","MatchQuality":{"Country":1.0,"State":1.0,"County":1.0,"City":1.0,"District":1.0,"PostalCode":1.0},"Location":{"LocationId":"NT_SNiZjCiOpWWf1sFGpn-wCC","LocationType":"point","DisplayPosition":{"Latitude":54.900245,"Longitude":-1.3728763},"MapView":{"TopLeft":{"Latitude":54.90358,"Longitude":-1.37998},"BottomRight":{"Latitude":54.88879,"Longitude":-1.36275}},"Address":{"Label":"Hendon, Sunderland, England, United Kingdom","Country":"GBR","State":"England","County":"Tyne and Wear","City":"Sunderland","District":"Hendon","PostalCode":"SR2 8","AdditionalData":[{"value":"United Kingdom","key":"CountryName"},{"value":"England","key":"StateName"},{"value":"Tyne and Wear","key":"CountyName"}]},"MapReference":{"ReferenceId":"766729821","SideOfStreet":"neither","StateId":"20248595","CountyId":"20347950","CityId":"20348167","DistrictId":"20348174"}}},{"Relevance":1.0,"Distance":15.9,"MatchLevel":"street","MatchQuality":{"Country":1.0,"State":1.0,"County":1.0,"City":1.0,"District":1.0,"Street":[1.0],"PostalCode":1.0},"Location":{"LocationId":"NT_IN2V9WmbBTCNKENbJH6VhD_l_27238438_L","LocationType":"point","DisplayPosition":{"Latitude":54.900357,"Longitude":-1.3727221},"MapView":{"TopLeft":{"Latitude":54.90096,"Longitude":-1.37316},"BottomRight":{"Latitude":54.90012,"Longitude":-1.37255}},"Address":{"Label":"Suffolk Street, Sunderland, SR2 8, United Kingdom","Country":"GBR","State":"England","County":"Tyne and Wear","City":"Sunderland","District":"Hendon","Street":"Suffolk Street","PostalCode":"SR2 8","AdditionalData":[{"value":"United Kingdom","key":"CountryName"},{"value":"England","key":"StateName"},{"value":"Tyne and Wear","key":"CountyName"}]},"MapReference":{"ReferenceId":"27238438","Spot":0.28,"SideOfStreet":"left","StateId":"20248595","CountyId":"20347950","CityId":"20348167","DistrictId":"20348174"}}},{"Relevance":1.0,"Distance":25.1,"MatchLevel":"street","MatchQuality":{"Country":1.0,"State":1.0,"County":1.0,"City":1.0,"District":1.0,"Street":[1.0],"PostalCode":1.0},"Location":{"LocationId":"NT_ZDBBAnCd6PwBq2n-HMk7QC_l_27238437_L","LocationType":"point","DisplayPosition":{"Latitude":54.90012,"Longitude":-1.37255},"MapView":{"TopLeft":{"Latitude":54.90027,"Longitude":-1.37255},"BottomRight":{"Latitude":54.90012,"Longitude":-1.37207}},"Address":{"Label":"Clementina Close, Sunderland, SR2 8, United Kingdom","Country":"GBR","State":"England","County":"Tyne and Wear","City":"Sunderland","District":"Hendon","Street":"Clementina Close","PostalCode":"SR2 8","AdditionalData":[{"value":"United Kingdom","key":"CountryName"},{"value":"England","key":"StateName"},{"value":"Tyne and Wear","key":"CountyName"}]},"MapReference":{"ReferenceId":"27238437","Spot":0.0,"SideOfStreet":"left","StateId":"20248595","CountyId":"20347950","CityId":"20348167","DistrictId":"20348174"}}},{"Relevance":1.0,"Distance":25.1,"MatchLevel":"street","MatchQuality":{"Country":1.0,"State":1.0,"County":1.0,"City":1.0,"District":1.0,"Street":[1.0],"PostalCode":1.0},"Location":{"LocationId":"NT_IN2V9WmbBTCNKENbJH6VhD_l_27238556_L","LocationType":"point","DisplayPosition":{"Latitude":54.90012,"Longitude":-1.37255},"MapView":{"TopLeft":{"Latitude":54.90012,"Longitude":-1.37255},"BottomRight":{"Latitude":54.89967,"Longitude":-1.37222}},"Address":{"Label":"Suffolk Street, Sunderland, SR2 8, United Kingdom","Country":"GBR","State":"England","County":"Tyne and Wear","City":"Sunderland","District":"Hendon","Street":"Suffolk Street","PostalCode":"SR2 8","AdditionalData":[{"value":"United Kingdom","key":"CountryName"},{"value":"England","key":"StateName"},{"value":"Tyne and Wear","key":"CountyName"}]},"MapReference":{"ReferenceId":"27238556","Spot":1.0,"SideOfStreet":"left","StateId":"20248595","CountyId":"20347950","CityId":"20348167","DistrictId":"20348174"}}},{"Relevance":1.0,"Distance":36.8,"MatchLevel":"postalCode","MatchQuality":{"PostalCode":1.0},"Location":{"LocationId":"NT_IN2V9WmbBTCNKENbJH6VhD_l_27238556_L","LocationType":"point","DisplayPosition":{"Latitude":54.89999,"Longitude":-1.37251},"MapView":{"TopLeft":{"Latitude":54.9089832,"Longitude":-1.3881502},"BottomRight":{"Latitude":54.8909968,"Longitude":-1.3568698}},"Address":{"Label":"SR2 8AD, Sunderland, England, United Kingdom","Country":"GBR","State":"England","County":"Tyne and Wear","City":"Sunderland","PostalCode":"SR2 8AD","AdditionalData":[{"value":"United Kingdom","key":"CountryName"},{"value":"England","key":"StateName"},{"value":"Tyne and Wear","key":"CountyName"}]},"MapReference":{"ReferenceId":"27238556","Spot":1.0,"SideOfStreet":"neither","StateId":"20248595","CountyId":"20347950","CityId":"20348167"}}},{"Relevance":1.0,"Distance":37.2,"MatchLevel":"houseNumber","MatchQuality":{"Country":1.0,"State":1.0,"County":1.0,"City":1.0,"District":1.0,"Street":[1.0],"HouseNumber":1.0,"PostalCode":1.0},"MatchType":"interpolated","Location":{"LocationId":"NT_ZDBBAnCd6PwBq2n-HMk7QC_l_27238340_L_xA","LocationType":"point","DisplayPosition":{"Latitude":54.9005701,"Longitude":-1.3722901},"MapView":{"TopLeft":{"Latitude":54.9016942,"Longitude":-1.3742451},"BottomRight":{"Latitude":54.8994459,"Longitude":-1.370335}},"Address":{"Label":"1 Clementina Close, Sunderland, SR2 8AG, United Kingdom","Country":"GBR","State":"England","County":"Tyne and Wear","City":"Sunderland","District":"Hendon","Street":"Clementina Close","HouseNumber":"1","PostalCode":"SR2 8AG","AdditionalData":[{"value":"United Kingdom","key":"CountryName"},{"value":"England","key":"StateName"},{"value":"Tyne and Wear","key":"CountyName"}]},"MapReference":{"ReferenceId":"27238340","Spot":0.12,"SideOfStreet":"left","StateId":"20248595","CountyId":"20347950","CityId":"20348167","DistrictId":"20348174"}}},{"Relevance":1.0,"Distance":48.3,"MatchLevel":"street","MatchQuality":{"Country":1.0,"State":1.0,"County":1.0,"City":1.0,"District":1.0,"Street":[1.0],"PostalCode":1.0},"Location":{"LocationId":"NT_ZDBBAnCd6PwBq2n-HMk7QC_l_27238402_L","LocationType":"point","DisplayPosition":{"Latitude":54.90045,"Longitude":-1.37221},"MapView":{"TopLeft":{"Latitude":54.90045,"Longitude":-1.37221},"BottomRight":{"Latitude":54.90027,"Longitude":-1.37207}},"Address":{"Label":"Clementina Close, Sunderland, SR2 8, United Kingdom","Country":"GBR","State":"England","County":"Tyne and Wear","City":"Sunderland","District":"Hendon","Street":"Clementina Close","PostalCode":"SR2 8","AdditionalData":[{"value":"United Kingdom","key":"CountryName"},{"value":"England","key":"StateName"},{"value":"Tyne and Wear","key":"CountyName"}]},"MapReference":{"ReferenceId":"27238402","Spot":1.0,"SideOfStreet":"left","StateId":"20248595","CountyId":"20347950","CityId":"20348167","DistrictId":"20348174"}}},{"Relevance":1.0,"Distance":51.6,"MatchLevel":"street","MatchQuality":{"Country":1.0,"State":1.0,"County":1.0,"City":1.0,"District":1.0,"Street":[1.0],"PostalCode":1.0},"Location":{"LocationId":"NT_L7qsCFcROOpcWYtj2aGaCB_l_27238616_R","LocationType":"point","DisplayPosition":{"Latitude":54.8999405,"Longitude":-1.3734853},"MapView":{"TopLeft":{"Latitude":54.90088,"Longitude":-1.37387},"BottomRight":{"Latitude":54.89943,"Longitude":-1.37323}},"Address":{"Label":"Harrogate Street, Sunderland, SR2 8, United Kingdom","Country":"GBR","State":"England","County":"Tyne and Wear","City":"Sunderland","District":"Hendon","Street":"Harrogate Street","PostalCode":"SR2 8","AdditionalData":[{"value":"United Kingdom","key":"CountryName"},{"value":"England","key":"StateName"},{"value":"Tyne and Wear","key":"CountyName"}]},"MapReference":{"ReferenceId":"27238616","Spot":0.32,"SideOfStreet":"right","StateId":"20248595","CountyId":"20347950","CityId":"20348167","DistrictId":"20348174"}}},{"Relevance":1.0,"Distance":51.6,"MatchLevel":"street","MatchQuality":{"Country":1.0,"State":1.0,"County":1.0,"City":1.0,"District":1.0,"Street":[1.0],"PostalCode":1.0},"Location":{"LocationId":"NT_ZDBBAnCd6PwBq2n-HMk7QC_l_27238473_L","LocationType":"point","DisplayPosition":{"Latitude":54.90027,"Longitude":-1.37207},"MapView":{"TopLeft":{"Latitude":54.90027,"Longitude":-1.37207},"BottomRight":{"Latitude":54.90001,"Longitude":-1.37176}},"Address":{"Label":"Clementina Close, Sunderland, SR2 8, United Kingdom","Country":"GBR","State":"England","County":"Tyne and Wear","City":"Sunderland","District":"Hendon","Street":"Clementina Close","PostalCode":"SR2 8","AdditionalData":[{"value":"United Kingdom","key":"CountryName"},{"value":"England","key":"StateName"},{"value":"Tyne and Wear","key":"CountyName"}]},"MapReference":{"ReferenceId":"27238473","Spot":1.0,"SideOfStreet":"left","StateId":"20248595","CountyId":"20347950","CityId":"20348167","DistrictId":"20348174"}}},{"Relevance":1.0,"Distance":63.3,"MatchLevel":"houseNumber","MatchQuality":{"Country":1.0,"State":1.0,"County":1.0,"City":1.0,"District":1.0,"Street":[1.0],"HouseNumber":1.0,"PostalCode":1.0},"MatchType":"interpolated","Location":{"LocationId":"NT_5yR1-nfFwnN-Qd.mdUNxgD_l_27238339_L_ycD","LocationType":"point","DisplayPosition":{"Latitude":54.9005201,"Longitude":-1.3720097},"MapView":{"TopLeft":{"Latitude":54.9016443,"Longitude":-1.3739648},"BottomRight":{"Latitude":54.899396,"Longitude":-1.3700547}},"Address":{"Label":"27 Deerness Road, Sunderland, SR2 8AP, United Kingdom","Country":"GBR","State":"England","County":"Tyne and Wear","City":"Sunderland","District":"Hendon","Street":"Deerness Road","HouseNumber":"27","PostalCode":"SR2 8AP","AdditionalData":[{"value":"United Kingdom","key":"CountryName"},{"value":"England","key":"StateName"},{"value":"Tyne and Wear","key":"CountyName"}]},"MapReference":{"ReferenceId":"27238339","Spot":0.22,"SideOfStreet":"left","StateId":"20248595","CountyId":"20347950","CityId":"20348167","DistrictId":"20348174"}}}]}]}}