{"Response":{"MetaInfo":{"Timestamp":"2020-03-28T11:45:55.816+0000","NextPageInformation":"2"},"View":[{"_type":"SearchResultsViewType","ViewId":0,"Result":[{"Relevance":1.0,"Distance":0.0,"Direction":0.0,"MatchLevel":"city","MatchQuality":{"Country":1.0,"State":1.0,"County":1.0,"City":1.0,"PostalCode":1.0},"Location":{"LocationId":"NT_mtmWTAUsu9FvQHWNgK62BB","LocationType":"point","DisplayPosition":{"Latitude":54.9640084,"Longitude":8.694191},"MapView":{"TopLeft":{"Latitude":54.97055,"Longitude":8.68599},"BottomRight":{"Latitude":54.95908,"Longitude":8.70978}},"Address":{"Label":"Højer, Syddanmark, Danmark","Country":"DNK","State":"Syddanmark","County":"Tønder","City":"Højer","PostalCode":"6280","AdditionalData":[{"value":"Danmark","key":"CountryName"},{"value":"Syddanmark","key":"StateName"},{"value":"Tønder","key":"CountyName"}]},"MapReference":{"ReferenceId":"34487986","SideOfStreet":"neither","CountryId":"20298369","StateId":"20367950","CountyId":"20367929","CityId":"20367863"}}},{"Relevance":1.0,"Distance":2.4,"MatchLevel":"houseNumber","MatchQuality":{"Country":1.0,"State":1.0,"County":1.0,"City":1.0,"Street":[1.0],"HouseNumber":1.0,"PostalCode":1.0},"MatchType":"interpolated","Location":{"LocationId":"NT_YDorzKluT5Rxkv3UiilZlA_4QE","LocationType":"point","DisplayPosition":{"Latitude":54.96403,"Longitude":8.69405},"MapView":{"TopLeft":{"Latitude":54.9651542,"Longitude":8.6920919},"BottomRight":{"Latitude":54.9629058,"Longitude":8.6960081}},"Address":{"Label":"Skolegade 8D, 6280 Højer, Danmark","Country":"DNK","State":"Syddanmark","County":"Tønder","City":"Højer","Street":"Skolegade","HouseNumber":"8D","PostalCode":"6280","AdditionalData":[{"value":"Danmark","key":"CountryName"},{"value":"Syddanmark","key":"StateName"},{"value":"Tønder","key":"CountyName"}]},"MapReference":{"ReferenceId":"34488066","Spot":0.56,"SideOfStreet":"right","CountryId":"20298369","StateId":"20367950","CountyId":"20367929","CityId":"20367863","AddressId":"199364971","RoadLinkId":"100190308"}}},{"Relevance":1.0,"Distance":8.5,"MatchLevel":"houseNumber","MatchQuality":{"Country":1.0,"State":1.0,"County":1.0,"City":1.0,"Street":[1.0],"HouseNumber":1.0,"PostalCode":1.0},"MatchType":"interpolated","Location":{"LocationId":"NT_my1bDGFiPinwOCEjrgUPAB_0EjQ","LocationType":"point","DisplayPosition":{"Latitude":54.9642,"Longitude":8.69437},"MapView":{"TopLeft":{"Latitude":54.9653242,"Longitude":8.6924118},"BottomRight":{"Latitude":54.9630758,"Longitude":8.6963282}},"Address":{"Label":"Nørregade 41B, 6280 Højer, Danmark","Country":"DNK","State":"Syddanmark","County":"Tønder","City":"Højer","Street":"Nørregade","HouseNumber":"41B","PostalCode":"6280","AdditionalData":[{"value":"Danmark","key":"CountryName"},{"value":"Syddanmark","key":"StateName"},{"value":"Tønder","key":"CountyName"}]},"MapReference":{"ReferenceId":"34488058","Spot":0.95,"SideOfStreet":"left","CountryId":"20298369","StateId":"20367950","CountyId":"20367929","CityId":"20367863","AddressId":"199699840","RoadLinkId":"100343966"}}},{"Relevance":1.0,"Distance":38.1,"MatchLevel":"houseNumber","MatchQuality":{"Country":1.0,"State":1.0,"County":1.0,"City":1.0,"Street":[1.0],"HouseNumber":1.0,"PostalCode":1.0},"MatchType":"interpolated","Location":{"LocationId":"NT_YDorzKluT5Rxkv3UiilZlA_xATQ","LocationType":"point","DisplayPosition":{"Latitude":54.96434,"Longitude":8.69434},"MapView":{"TopLeft":{"Latitude":54.9654642,"Longitude":8.6923818},"BottomRight":{"Latitude":54.9632158,"Longitude":8.6962982}},"Address":{"Label":"Skolegade 10A, 6280 Højer, Danmark","Country":"DNK","State":"Syddanmark","County":"Tønder","City":"Højer","Street":"Skolegade","HouseNumber":"10A","PostalCode":"6280","AdditionalData":[{"value":"Danmark","key":"CountryName"},{"value":"Syddanmark","key":"StateName"},{"value":"Tønder","key":"CountyName"}]},"MapReference":{"ReferenceId":"917126626","Spot":0.46,"SideOfStreet":"right","CountryId":"20298369","StateId":"20367950","CountyId":"20367929","CityId":"20367863","AddressId":"198778500","RoadLinkId":"274639181"}}},{"Relevance":1.0,"Distance":44.4,"MatchLevel":"houseNumber","MatchQuality":{"Country":1.0,"State":1.0,"County":1.0,"City":1.0,"Street":[1.0],"HouseNumber":1.0,"PostalCode":1.0},"MatchType":"interpolated","Location":{"LocationId":"NT_C4oc8HD8RMxB8jPkpQYAFD_xQD","LocationType":"point","DisplayPosition":{"Latitude":54.96362,"Longitude":8.69445},"MapView":{"TopLeft":{"Latitude":54.9647442,"Longitude":8.6924919},"BottomRight":{"Latitude":54.9624958,"Longitude":8.6964081}},"Address":{"Label":"Postgade 14, 6280 Højer, Danmark","Country":"DNK","State":"Syddanmark","County":"Tønder","City":"Højer","Street":"Postgade","HouseNumber":"14","PostalCode":"6280","AdditionalData":[{"value":"Danmark","key":"CountryName"},{"value":"Syddanmark","key":"StateName"},{"value":"Tønder","key":"CountyName"}]},"MapReference":{"ReferenceId":"34488089","Spot":0.79,"SideOfStreet":"right","CountryId":"20298369","StateId":"20367950","CountyId":"20367929","CityId":"20367863","AddressId":"199271752","RoadLinkId":"100205345"}}},{"Relevance":1.0,"Distance":52.2,"MatchLevel":"houseNumber","MatchQuality":{"Country":1.0,"State":1.0,"County":1.0,"City":1.0,"Street":[1.0],"HouseNumber":1.0,"PostalCode":1.0},"MatchType":"interpolated","Location":{"LocationId":"NT_YDorzKluT5Rxkv3UiilZlA_2A","LocationType":"point","DisplayPosition":{"Latitude":54.96353,"Longitude":8.69406},"MapView":{"TopLeft":{"Latitude":54.9646542,"Longitude":8.6921019},"BottomRight":{"Latitude":54.9624058,"Longitude":8.6960181}},"Address":{"Label":"Skolegade 6, 6280 Højer, Danmark","Country":"DNK","State":"Syddanmark","County":"Tønder","City":"Højer","Street":"Skolegade","HouseNumber":"6","PostalCode":"6280","AdditionalData":[{"value":"Danmark","key":"CountryName"},{"value":"Syddanmark","key":"StateName"},{"value":"Tønder","key":"CountyName"}]},"MapReference":{"ReferenceId":"34488115","Spot":0.78,"SideOfStreet":"right","CountryId":"20298369","StateId":"20367950","CountyId":"20367929","CityId":"20367863","AddressId":"199256218","RoadLinkId":"99973384"}}},{"Relevance":1.0,"Distance":54.3,"MatchLevel":"street","MatchQuality":{"Country":1.0,"State":1.0,"County":1.0,"City":1.0,"Street":[1.0],"PostalCode":1.0},"Location":{"LocationId":"NT_YDorzKluT5Rxkv3UiilZlA_l_917126627_R","LocationType":"point","DisplayPosition":{"Latitude":54.96448,"Longitude":8.69441},"MapView":{"TopLeft":{"Latitude":54.96459,"Longitude":8.69441},"BottomRight":{"Latitude":54.96448,"Longitude":8.69447}},"Address":{"Label":"Skolegade, 6280 Højer, Danmark","Country":"DNK","State":"Syddanmark","County":"Tønder","City":"Højer","Street":"Skolegade","PostalCode":"6280","AdditionalData":[{"value":"Danmark","key":"CountryName"},{"value":"Syddanmark","key":"StateName"},{"value":"Tønder","key":"CountyName"}]},"MapReference":{"ReferenceId":"917126627","Spot":0.0,"SideOfStreet":"right","CountryId":"20298369","StateId":"20367950","CountyId":"20367929","CityId":"20367863"}}},{"Relevance":1.0,"Distance":57.8,"MatchLevel":"houseNumber","MatchQuality":{"Country":1.0,"State":1.0,"County":1.0,"City":1.0,"Street":[1.0],"HouseNumber":1.0,"PostalCode":1.0},"MatchType":"interpolated","Location":{"LocationId":"NT_A4sN1KBuBppyJFxJjIG0hC_xMD","LocationType":"point","DisplayPosition":{"Latitude":54.96456,"Longitude":8.69461},"MapView":{"TopLeft":{"Latitude":54.9656842,"Longitude":8.6926518},"BottomRight":{"Latitude":54.9634358,"Longitude":8.6965682}},"Address":{"Label":"Nørrevej 13, 6280 Højer, Danmark","Country":"DNK","State":"Syddanmark","County":"Tønder","City":"Højer","Street":"Nørrevej","HouseNumber":"13","PostalCode":"6280","AdditionalData":[{"value":"Danmark","key":"CountryName"},{"value":"Syddanmark","key":"StateName"},{"value":"Tønder","key":"CountyName"}]},"MapReference":{"ReferenceId":"34488015","Spot":0.83,"SideOfStreet":"left","CountryId":"20298369","StateId":"20367950","CountyId":"20367929","CityId":"20367863","AddressId":"198787105","RoadLinkId":"100397425"}}},{"Relevance":1.0,"Distance":67.5,"MatchLevel":"houseNumber","MatchQuality":{"Country":1.0,"State":1.0,"County":1.0,"City":1.0,"Street":[1.0],"HouseNumber":1.0,"PostalCode":1.0},"MatchType":"interpolated","Location":{"LocationId":"NT_A4sN1KBuBppyJFxJjIG0hC_xUD","LocationType":"point","DisplayPosition":{"Latitude":54.96467,"Longitude":8.69393},"MapView":{"TopLeft":{"Latitude":54.9657942,"Longitude":8.6919718},"BottomRight":{"Latitude":54.9635458,"Longitude":8.6958882}},"Address":{"Label":"Nørrevej 15, 6280 Højer, Danmark","Country":"DNK","State":"Syddanmark","County":"Tønder","City":"Højer","Street":"Nørrevej","HouseNumber":"15","PostalCode":"6280","AdditionalData":[{"value":"Danmark","key":"CountryName"},{"value":"Syddanmark","key":"StateName"},{"value":"Tønder","key":"CountyName"}]},"MapReference":{"ReferenceId":"34488010","Spot":0.47,"SideOfStreet":"left","CountryId":"20298369","StateId":"20367950","CountyId":"20367929","CityId":"20367863","AddressId":"198694887","RoadLinkId":"100246148"}}},{"Relevance":1.0,"Distance":72.6,"MatchLevel":"houseNumber","MatchQuality":{"Country":1.0,"State":1.0,"County":1.0,"City":1.0,"Street":[1.0],"HouseNumber":1.0,"PostalCode":1.0},"MatchType":"interpolated","Location":{"LocationId":"NT_cbdy6jXOuPhz0RenVygJuB_xAD","LocationType":"point","DisplayPosition":{"Latitude":54.96375,"Longitude":8.69297},"MapView":{"TopLeft":{"Latitude":54.9648742,"Longitude":8.6910119},"BottomRight":{"Latitude":54.9626258,"Longitude":8.6949281}},"Address":{"Label":"Møllegade 10, 6280 Højer, Danmark","Country":"DNK","State":"Syddanmark","County":"Tønder","City":"Højer","Street":"Møllegade","HouseNumber":"10","PostalCode":"6280","AdditionalData":[{"value":"Danmark","key":"CountryName"},{"value":"Syddanmark","key":"StateName"},{"value":"Tønder","key":"CountyName"}]},"MapReference":{"ReferenceId":"871704766","Spot":0.67,"SideOfStreet":"right","CountryId":"20298369","StateId":"20367950","CountyId":"20367929","CityId":"20367863","AddressId":"200852781","RoadLinkId":"243956885"}}}]}]}}