{"Response":{"MetaInfo":{"Timestamp":"2020-03-28T11:54:51.268+0000","NextPageInformation":"2"},"View":[{"_type":"SearchResultsViewType","ViewId":0,"Result":[{"Relevance":1.0,"Distance":0.0,"Direction":0.0,"MatchLevel":"district","MatchQuality":{"Country":1.0,"State":1.0,"County":1.0,"City":1.0,"District":1.0,"PostalCode":1.0},"Location":{"LocationId":"NT_QFvIero028r93PyhdypaUA","LocationType":"point","DisplayPosition":{"Latitude":54.9700504,"Longitude":-2.460695},"MapView":{"TopLeft":{"Latitude":54.97527,"Longitude":-2.47795},"BottomRight":{"Latitude":54.96298,"Longitude":-2.44444}},"Address":{"Label":"Haltwhistle, England, United Kingdom","Country":"GBR","State":"England","County":"Northumberland","City":"Haltwhistle","District":"Haltwhistle","PostalCode":"NE49 9","AdditionalData":[{"value":"United Kingdom","key":"CountryName"},{"value":"England","key":"StateName"},{"value":"Northumberland","key":"CountyName"}]},"MapReference":{"ReferenceId":"1001425291","SideOfStreet":"neither","StateId":"20248595","CountyId":"20339029","CityId":"20347747","DistrictId":"20347748"}}},{"Relevance":1.0,"Distance":13.8,"MatchLevel":"postalCode","MatchQuality":{"PostalCode":1.0},"MatchType":"interpolated","Location":{"LocationId":"NT_s69-59bLxILV5KBbmEncqC_l_27493694_L_yA","LocationType":"point","DisplayPosition":{"Latitude":54.97017,"Longitude":-2.46075},"MapView":{"TopLeft":{"Latitude":54.9791632,"Longitude":-2.4764175},"BottomRight":{"Latitude":54.9611768,"Longitude":-2.4450825}},"Address":{"Label":"NE49 0AX, Haltwhistle, England, United Kingdom","Country":"GBR","State":"England","County":"Northumberland","City":"Haltwhistle","PostalCode":"NE49 0AX","AdditionalData":[{"value":"United Kingdom","key":"CountryName"},{"value":"England","key":"StateName"},{"value":"Northumberland","key":"CountyName"}]},"MapReference":{"ReferenceId":"27493694","Spot":0.5,"SideOfStreet":"neither","StateId":"20248595","CountyId":"20339029","CityId":"20347747"}}},{"Relevance":1.0,"Distance":14.6,"MatchLevel":"houseNumber","MatchQuality":{"Country":1.0,"State":1.0,"County":1.0,"City":1.0,"District":1.0,"Street":[1.0],"HouseNumber":1.0,"PostalCode":1.0},"MatchType":"interpolated","Location":{"LocationId":"NT_s69-59bLxILV5KBbmEncqC_l_27493694_L_yA","LocationType":"point","DisplayPosition":{"Latitude":54.9701695,"Longitude":-2.4605994},"MapView":{"TopLeft":{"Latitude":54.9712937,"Longitude":-2.4625579},"BottomRight":{"Latitude":54.9690454,"Longitude":-2.458641}},"Address":{"Label":"2 Westgate, Haltwhistle, NE49 0AX, United Kingdom","Country":"GBR","State":"England","County":"Northumberland","City":"Haltwhistle","District":"Haltwhistle","Street":"Westgate","HouseNumber":"2","PostalCode":"NE49 0AX","AdditionalData":[{"value":"United Kingdom","key":"CountryName"},{"value":"England","key":"StateName"},{"value":"Northumberland","key":"CountyName"}]},"MapReference":{"ReferenceId":"27493694","Spot":0.5,"SideOfStreet":"left","StateId":"20248595","CountyId":"20339029","CityId":"20347747","DistrictId":"20347748"}}},{"Relevance":1.0,"Distance":21.6,"MatchLevel":"houseNumber","MatchQuality":{"Country":1.0,"State":1.0,"County":1.0,"City":1.0,"District":1.0,"Street":[1.0],"HouseNumber":1.0,"PostalCode":1.0},"MatchType":"interpolated","Location":{"LocationId":"NT_bJQtAgj4JRinerk2u-Gk5C_l_27493713_R_xA","LocationType":"point","DisplayPosition":{"Latitude":54.96978,"Longitude":-2.4610175},"MapView":{"TopLeft":{"Latitude":54.9709042,"Longitude":-2.4629759},"BottomRight":{"Latitude":54.9686559,"Longitude":-2.4590591}},"Address":{"Label":"1 Woodbine Terrace, Haltwhistle, NE49 0AD, United Kingdom","Country":"GBR","State":"England","County":"Northumberland","City":"Haltwhistle","District":"Haltwhistle","Street":"Woodbine Terrace","HouseNumber":"1","PostalCode":"NE49 0AD","AdditionalData":[{"value":"United Kingdom","key":"CountryName"},{"value":"England","key":"StateName"},{"value":"Northumberland","key":"CountyName"}]},"MapReference":{"ReferenceId":"27493713","Spot":0.59,"SideOfStreet":"right","StateId":"20248595","CountyId":"20339029","CityId":"20347747","DistrictId":"20347748"}}},{"Relevance":1.0,"Distance":29.6,"MatchLevel":"postalCode","MatchQuality":{"PostalCode":1.0},"MatchType":"interpolated","Location":{"LocationId":"NT_bJQtAgj4JRinerk2u-Gk5C_l_27493713_R_xA","LocationType":"point","DisplayPosition":{"Latitude":54.96986,"Longitude":-2.46102},"MapView":{"TopLeft":{"Latitude":54.9788532,"Longitude":-2.4766874},"BottomRight":{"Latitude":54.9608668,"Longitude":-2.4453526}},"Address":{"Label":"NE49 9AG, Haltwhistle, England, United Kingdom","Country":"GBR","State":"England","County":"Northumberland","City":"Haltwhistle","PostalCode":"NE49 9AG","AdditionalData":[{"value":"United Kingdom","key":"CountryName"},{"value":"England","key":"StateName"},{"value":"Northumberland","key":"CountyName"}]},"MapReference":{"ReferenceId":"27493713","Spot":0.59,"SideOfStreet":"neither","StateId":"20248595","CountyId":"20339029","CityId":"20347747"}}},{"Relevance":1.0,"Distance":33.9,"MatchLevel":"street","MatchQuality":{"Country":1.0,"State":1.0,"County":1.0,"City":1.0,"District":1.0,"Street":[1.0],"PostalCode":1.0},"Location":{"LocationId":"NT_zBlBrSd8eOZenqqP0k3mKC_l_27493703_R","LocationType":"point","DisplayPosition":{"Latitude":54.96994,"Longitude":-2.46119},"MapView":{"TopLeft":{"Latitude":54.96994,"Longitude":-2.46184},"BottomRight":{"Latitude":54.96967,"Longitude":-2.46119}},"Address":{"Label":"Westgate, Haltwhistle, NE49 9, United Kingdom","Country":"GBR","State":"England","County":"Northumberland","City":"Haltwhistle","District":"Haltwhistle","Street":"Westgate","PostalCode":"NE49 9","AdditionalData":[{"value":"United Kingdom","key":"CountryName"},{"value":"England","key":"StateName"},{"value":"Northumberland","key":"CountyName"}]},"MapReference":{"ReferenceId":"27493703","Spot":1.0,"SideOfStreet":"right","StateId":"20248595","CountyId":"20339029","CityId":"20347747","DistrictId":"20347748"}}},{"Relevance":1.0,"Distance":42.5,"MatchLevel":"postalCode","MatchQuality":{"PostalCode":1.0},"Location":{"LocationId":"NT_DsG-K9iPyT7uQj3XxejWCD_l_27493712_L","LocationType":"point","DisplayPosition":{"Latitude":54.96989,"Longitude":-2.46009},"MapView":{"TopLeft":{"Latitude":54.9788832,"Longitude":-2.4757574},"BottomRight":{"Latitude":54.9608968,"Longitude":-2.4444226}},"Address":{"Label":"NE49 0AT, Haltwhistle, England, United Kingdom","Country":"GBR","State":"England","County":"Northumberland","City":"Haltwhistle","PostalCode":"NE49 0AT","AdditionalData":[{"value":"United Kingdom","key":"CountryName"},{"value":"England","key":"StateName"},{"value":"Northumberland","key":"CountyName"}]},"MapReference":{"ReferenceId":"27493712","Spot":0.26,"SideOfStreet":"neither","StateId":"20248595","CountyId":"20339029","CityId":"20347747"}}},{"Relevance":1.0,"Distance":44.4,"MatchLevel":"houseNumber","MatchQuality":{"Country":1.0,"State":1.0,"County":1.0,"City":1.0,"District":1.0,"Street":[1.0],"HouseNumber":1.0,"PostalCode":1.0},"MatchType":"interpolated","Location":{"LocationId":"NT_36Y0iAVItzhiJqdO9EkrpB_l_27493682_L_xA","LocationType":"point","DisplayPosition":{"Latitude":54.97048,"Longitude":-2.4601601},"MapView":{"TopLeft":{"Latitude":54.9716042,"Longitude":-2.4621185},"BottomRight":{"Latitude":54.9693559,"Longitude":-2.4582016}},"Address":{"Label":"1 Aesica Road, Haltwhistle, NE49 9, United Kingdom","Country":"GBR","State":"England","County":"Northumberland","City":"Haltwhistle","District":"Haltwhistle","Street":"Aesica Road","HouseNumber":"1","PostalCode":"NE49 9","AdditionalData":[{"value":"United Kingdom","key":"CountryName"},{"value":"England","key":"StateName"},{"value":"Northumberland","key":"CountyName"}]},"MapReference":{"ReferenceId":"27493682","Spot":0.15,"SideOfStreet":"left","StateId":"20248595","CountyId":"20339029","CityId":"20347747","DistrictId":"20347748"}}},{"Relevance":1.0,"Distance":44.7,"MatchLevel":"street","MatchQuality":{"Country":1.0,"State":1.0,"County":1.0,"City":1.0,"District":1.0,"Street":[1.0],"PostalCode":1.0},"Location":{"LocationId":"NT_DsG-K9iPyT7uQj3XxejWCD_l_27493712_L","LocationType":"point","DisplayPosition":{"Latitude":54.9696587,"Longitude":-2.4605383},"MapView":{"TopLeft":{"Latitude":54.96993,"Longitude":-2.46077},"BottomRight":{"Latitude":54.96955,"Longitude":-2.45986}},"Address":{"Label":"Grange Road, Haltwhistle, NE49 0, United Kingdom","Country":"GBR","State":"England","County":"Northumberland","City":"Haltwhistle","District":"Haltwhistle","Street":"Grange Road","PostalCode":"NE49 0","AdditionalData":[{"value":"United Kingdom","key":"CountryName"},{"value":"England","key":"StateName"},{"value":"Northumberland","key":"CountyName"}]},"MapReference":{"ReferenceId":"27493712","Spot":0.26,"SideOfStreet":"left","StateId":"20248595","CountyId":"20339029","CityId":"20347747","DistrictId":"20347748"}}},{"Relevance":1.0,"Distance":47.3,"MatchLevel":"postalCode","MatchQuality":{"PostalCode":1.0},"MatchType":"interpolated","Location":{"LocationId":"NT_WGK1Pjb3ZqVT1JnGj95WFC_l_936214607_R_zA","LocationType":"point","DisplayPosition":{"Latitude":54.96969,"Longitude":-2.4603},"MapView":{"TopLeft":{"Latitude":54.9786832,"Longitude":-2.4759674},"BottomRight":{"Latitude":54.9606968,"Longitude":-2.4446326}},"Address":{"Label":"NE49 0AB, Haltwhistle, England, United Kingdom","Country":"GBR","State":"England","County":"Northumberland","City":"Haltwhistle","PostalCode":"NE49 0AB","AdditionalData":[{"value":"United Kingdom","key":"CountryName"},{"value":"England","key":"StateName"},{"value":"Northumberland","key":"CountyName"}]},"MapReference":{"ReferenceId":"936214607","Spot":0.67,"SideOfStreet":"neither","StateId":"20248595","CountyId":"20339029","CityId":"20347747"}}}]}]}}