{"Response":{"MetaInfo":{"Timestamp":"2020-03-28T10:39:12.918+0000","NextPageInformation":"2"},"View":[{"_type":"SearchResultsViewType","ViewId":0,"Result":[{"Relevance":1.0,"Distance":0.0,"Direction":0.0,"MatchLevel":"district","MatchQuality":{"Country":1.0,"State":1.0,"County":1.0,"City":1.0,"District":1.0,"PostalCode":1.0},"Location":{"LocationId":"NT_hkd2R4viYmCY9wVlIYNs0A","LocationType":"point","DisplayPosition":{"Latitude":54.9044085,"Longitude":-1.4498396},"MapView":{"TopLeft":{"Latitude":54.91031,"Longitude":-1.45948},"BottomRight":{"Latitude":54.89434,"Longitude":-1.44032}},"Address":{"Label":"South Hylton, Sunderland, England, United Kingdom","Country":"GBR","State":"England","County":"Tyne and Wear","City":"Sunderland","District":"South Hylton","PostalCode":"SR4 0","AdditionalData":[{"value":"United Kingdom","key":"CountryName"},{"value":"England","key":"StateName"},{"value":"Tyne and Wear","key":"CountyName"}]},"MapReference":{"ReferenceId":"27236762","SideOfStreet":"neither","StateId":"20248595","CountyId":"20347950","CityId":"20348167","DistrictId":"20348181"}}},{"Relevance":1.0,"Distance":10.4,"MatchLevel":"houseNumber","MatchQuality":{"Country":1.0,"State":1.0,"County":1.0,"City":1.0,"District":1.0,"Street":[1.0],"HouseNumber":1.0,"PostalCode":1.0},"MatchType":"interpolated","Location":{"LocationId":"NT_y5BdTiZ1l0-Ygyk6naGmoB_l_78752857_L_4A","LocationType":"point","DisplayPosition":{"Latitude":54.9044917,"Longitude":-1.4499154},"MapView":{"TopLeft":{"Latitude":54.9056159,"Longitude":-1.4518706},"BottomRight":{"Latitude":54.9033676,"Longitude":-1.4479601}},"Address":{"Label":"8 Cambria Street, Sunderland, SR4 0LT, United Kingdom","Country":"GBR","State":"England","County":"Tyne and Wear","City":"Sunderland","District":"South Hylton","Street":"Cambria Street","HouseNumber":"8","PostalCode":"SR4 0LT","AdditionalData":[{"value":"United Kingdom","key":"CountryName"},{"value":"England","key":"StateName"},{"value":"Tyne and Wear","key":"CountyName"}]},"MapReference":{"ReferenceId":"78752857","Spot":0.36,"SideOfStreet":"left","StateId":"20248595","CountyId":"20347950","CityId":"20348167","DistrictId":"20348181"}}},{"Relevance":1.0,"Distance":21.8,"MatchLevel":"street","MatchQuality":{"Country":1.0,"State":1.0,"County":1.0,"City":1.0,"District":1.0,"Street":[1.0],"PostalCode":1.0},"Location":{"LocationId":"NT_.pfP4DmW4eqvKXczYEOCTC_l_27237398_R","LocationType":"point","DisplayPosition":{"Latitude":54.9042221,"Longitude":-1.4499461},"MapView":{"TopLeft":{"Latitude":54.90435,"Longitude":-1.45017},"BottomRight":{"Latitude":54.90382,"Longitude":-1.44872}},"Address":{"Label":"Union Street, Sunderland, SR4 0, United Kingdom","Country":"GBR","State":"England","County":"Tyne and Wear","City":"Sunderland","District":"South Hylton","Street":"Union Street","PostalCode":"SR4 0","AdditionalData":[{"value":"United Kingdom","key":"CountryName"},{"value":"England","key":"StateName"},{"value":"Tyne and Wear","key":"CountyName"}]},"MapReference":{"ReferenceId":"27237398","Spot":0.84,"SideOfStreet":"right","StateId":"20248595","CountyId":"20347950","CityId":"20348167","DistrictId":"20348181"}}},{"Relevance":1.0,"Distance":26.0,"MatchLevel":"postalCode","MatchQuality":{"PostalCode":1.0},"Location":{"LocationId":"NT_.pfP4DmW4eqvKXczYEOCTC_l_27237398_R","LocationType":"point","DisplayPosition":{"Latitude":54.90418,"Longitude":-1.44975},"MapView":{"TopLeft":{"Latitude":54.9131732,"Longitude":-1.4653919},"BottomRight":{"Latitude":54.8951868,"Longitude":-1.4341081}},"Address":{"Label":"SR4 0LS, Sunderland, England, United Kingdom","Country":"GBR","State":"England","County":"Tyne and Wear","City":"Sunderland","PostalCode":"SR4 0LS","AdditionalData":[{"value":"United Kingdom","key":"CountryName"},{"value":"England","key":"StateName"},{"value":"Tyne and Wear","key":"CountyName"}]},"MapReference":{"ReferenceId":"27237398","Spot":0.84,"SideOfStreet":"neither","StateId":"20248595","CountyId":"20347950","CityId":"20348167"}}},{"Relevance":1.0,"Distance":35.2,"MatchLevel":"houseNumber","MatchQuality":{"Country":1.0,"State":1.0,"County":1.0,"City":1.0,"District":1.0,"Street":[1.0],"HouseNumber":1.0,"PostalCode":1.0},"MatchType":"interpolated","Location":{"LocationId":"NT_0PZijmCAPfnTHelnq6r2DA_l_585765685_L_1A","LocationType":"point","DisplayPosition":{"Latitude":54.9044803,"Longitude":-1.4491911},"MapView":{"TopLeft":{"Latitude":54.9056044,"Longitude":-1.4511464},"BottomRight":{"Latitude":54.9033561,"Longitude":-1.4472359}},"Address":{"Label":"5 High Street, Sunderland, SR4 0PD, United Kingdom","Country":"GBR","State":"England","County":"Tyne and Wear","City":"Sunderland","District":"South Hylton","Street":"High Street","HouseNumber":"5","PostalCode":"SR4 0PD","AdditionalData":[{"value":"United Kingdom","key":"CountryName"},{"value":"England","key":"StateName"},{"value":"Tyne and Wear","key":"CountyName"}]},"MapReference":{"ReferenceId":"585765685","Spot":0.5,"SideOfStreet":"left","StateId":"20248595","CountyId":"20347950","CityId":"20348167","DistrictId":"20348181"}}},{"Relevance":1.0,"Distance":46.6,"MatchLevel":"street","MatchQuality":{"Country":1.0,"State":1.0,"County":1.0,"City":1.0,"District":1.0,"Street":[1.0],"PostalCode":1.0},"Location":{"LocationId":"NT_njAPrXL-Rvp7A7.Bk9RvfC_l_27237108_L","LocationType":"point","DisplayPosition":{"Latitude":54.9048044,"Longitude":-1.4495986},"MapView":{"TopLeft":{"Latitude":54.90499,"Longitude":-1.44992},"BottomRight":{"Latitude":54.90472,"Longitude":-1.44946}},"Address":{"Label":"High Street, Sunderland, SR4 0, United Kingdom","Country":"GBR","State":"England","County":"Tyne and Wear","City":"Sunderland","District":"South Hylton","Street":"High Street","PostalCode":"SR4 0","AdditionalData":[{"value":"United Kingdom","key":"CountryName"},{"value":"England","key":"StateName"},{"value":"Tyne and Wear","key":"CountyName"}]},"MapReference":{"ReferenceId":"27237108","Spot":0.3,"SideOfStreet":"left","StateId":"20248595","CountyId":"20347950","CityId":"20348167","DistrictId":"20348181"}}},{"Relevance":1.0,"Distance":48.9,"MatchLevel":"postalCode","MatchQuality":{"PostalCode":1.0},"MatchType":"interpolated","Location":{"LocationId":"NT_0PZijmCAPfnTHelnq6r2DA_l_585765684_L_0A","LocationType":"point","DisplayPosition":{"Latitude":54.90478,"Longitude":-1.44943},"MapView":{"TopLeft":{"Latitude":54.9137732,"Longitude":-1.4650721},"BottomRight":{"Latitude":54.8957868,"Longitude":-1.4337879}},"Address":{"Label":"SR4 0PD, Sunderland, England, United Kingdom","Country":"GBR","State":"England","County":"Tyne and Wear","City":"Sunderland","PostalCode":"SR4 0PD","AdditionalData":[{"value":"United Kingdom","key":"CountryName"},{"value":"England","key":"StateName"},{"value":"Tyne and Wear","key":"CountyName"}]},"MapReference":{"ReferenceId":"585765684","Spot":0.54,"SideOfStreet":"neither","StateId":"20248595","CountyId":"20347950","CityId":"20348167"}}},{"Relevance":1.0,"Distance":50.7,"MatchLevel":"street","MatchQuality":{"Country":1.0,"State":1.0,"County":1.0,"City":1.0,"District":1.0,"PostalCode":1.0},"Location":{"LocationId":"NT_ZELjii.tQmDYoHs0JZIrpD_l_27237089_R","LocationType":"point","DisplayPosition":{"Latitude":54.90483,"Longitude":-1.4501426},"MapView":{"TopLeft":{"Latitude":54.90499,"Longitude":-1.45024},"BottomRight":{"Latitude":54.90476,"Longitude":-1.44992}},"Address":{"Label":"Sunderland, SR4 0, United Kingdom","Country":"GBR","State":"England","County":"Tyne and Wear","City":"Sunderland","District":"South Hylton","PostalCode":"SR4 0","AdditionalData":[{"value":"United Kingdom","key":"CountryName"},{"value":"England","key":"StateName"},{"value":"Tyne and Wear","key":"CountyName"}]},"MapReference":{"ReferenceId":"27237089","Spot":0.3,"SideOfStreet":"right","StateId":"20248595","CountyId":"20347950","CityId":"20348167","DistrictId":"20348181"}}},{"Relevance":1.0,"Distance":57.5,"MatchLevel":"postalCode","MatchQuality":{"PostalCode":1.0},"Location":{"LocationId":"NT_C51MBGq9u-QKGn3o8jgSRD_l_27237014_L","LocationType":"point","DisplayPosition":{"Latitude":54.9049,"Longitude":-1.45012},"MapView":{"TopLeft":{"Latitude":54.9138932,"Longitude":-1.4657621},"BottomRight":{"Latitude":54.8959068,"Longitude":-1.4344779}},"Address":{"Label":"SR4 0PE, Sunderland, England, United Kingdom","Country":"GBR","State":"England","County":"Tyne and Wear","City":"Sunderland","PostalCode":"SR4 0PE","AdditionalData":[{"value":"United Kingdom","key":"CountryName"},{"value":"England","key":"StateName"},{"value":"Tyne and Wear","key":"CountyName"}]},"MapReference":{"ReferenceId":"27237014","Spot":0.0,"SideOfStreet":"neither","StateId":"20248595","CountyId":"20347950","CityId":"20348167"}}},{"Relevance":1.0,"Distance":57.8,"MatchLevel":"houseNumber","MatchQuality":{"Country":1.0,"State":1.0,"County":1.0,"City":1.0,"District":1.0,"Street":[1.0],"HouseNumber":1.0,"PostalCode":1.0},"MatchType":"interpolated","Location":{"LocationId":"NT_OPVw4Ntka57sS.m3c5MqDD_l_27237299_R_xA","LocationType":"point","DisplayPosition":{"Latitude":54.9047027,"Longitude":-1.4507773},"MapView":{"TopLeft":{"Latitude":54.9058268,"Longitude":-1.4527326},"BottomRight":{"Latitude":54.9035785,"Longitude":-1.4488221}},"Address":{"Label":"1 Violet Street, Sunderland, SR4 0PF, United Kingdom","Country":"GBR","State":"England","County":"Tyne and Wear","City":"Sunderland","District":"South Hylton","Street":"Violet Street","HouseNumber":"1","PostalCode":"SR4 0PF","AdditionalData":[{"value":"United Kingdom","key":"CountryName"},{"value":"England","key":"StateName"},{"value":"Tyne and Wear","key":"CountyName"}]},"MapReference":{"ReferenceId":"27237299","Spot":0.82,"SideOfStreet":"right","StateId":"20248595","CountyId":"20347950","CityId":"20348167","DistrictId":"20348181"}}}]}]}}