{"Response":{"MetaInfo":{"Timestamp":"2020-03-28T09:51:06.772+0000","NextPageInformation":"2"},"View":[{"_type":"SearchResultsViewType","ViewId":0,"Result":[{"Relevance":1.0,"Distance":0.0,"Direction":0.0,"MatchLevel":"district","MatchQuality":{"Country":1.0,"State":1.0,"County":1.0,"City":1.0,"District":1.0,"PostalCode":1.0},"Location":{"LocationId":"NT_6VoixA-5-xh-HPYEbfqkAC","LocationType":"point","DisplayPosition":{"Latitude":54.9820445,"Longitude":-6.688317},"MapView":{"TopLeft":{"Latitude":54.99533,"Longitude":-6.69726},"BottomRight":{"Latitude":54.97472,"Longitude":-6.67544}},"Address":{"Label":"Garvagh, Coleraine, Northern Ireland, United Kingdom","Country":"GBR","State":"Northern Ireland","County":"County Londonderry","City":"Coleraine","District":"Garvagh","PostalCode":"BT51 5","AdditionalData":[{"value":"United Kingdom","key":"CountryName"},{"value":"Northern Ireland","key":"StateName"},{"value":"County Londonderry","key":"CountyName"}]},"MapReference":{"ReferenceId":"564894776","SideOfStreet":"neither","StateId":"20403688","CountyId":"20411123","CityId":"20419829","DistrictId":"20419839"}}},{"Relevance":1.0,"Distance":4.3,"MatchLevel":"houseNumber","MatchQuality":{"Country":1.0,"State":1.0,"County":1.0,"City":1.0,"District":1.0,"Street":[1.0],"HouseNumber":1.0,"PostalCode":1.0},"MatchType":"interpolated","Location":{"LocationId":"NT_oi9iqyjYx4jYcPawqXMo9D_xADO","LocationType":"point","DisplayPosition":{"Latitude":54.98198,"Longitude":-6.68789},"MapView":{"TopLeft":{"Latitude":54.9831042,"Longitude":-6.689849},"BottomRight":{"Latitude":54.9808558,"Longitude":-6.685931}},"Address":{"Label":"108 Main Street, Coleraine, BT51 5, United Kingdom","Country":"GBR","State":"Northern Ireland","County":"County Londonderry","City":"Coleraine","District":"Garvagh","Street":"Main Street","HouseNumber":"108","PostalCode":"BT51 5","AdditionalData":[{"value":"United Kingdom","key":"CountryName"},{"value":"Northern Ireland","key":"StateName"},{"value":"County Londonderry","key":"CountyName"}]},"MapReference":{"ReferenceId":"845251165","Spot":0.73,"SideOfStreet":"left","StateId":"20403688","CountyId":"20411123","CityId":"20419829","DistrictId":"20419839","AddressId":"341751785","RoadLinkId":"226619100"}}},{"Relevance":1.0,"Distance":38.6,"MatchLevel":"postalCode","MatchQuality":{"PostalCode":1.0},"MatchType":"interpolated","Location":{"LocationId":"NT_oi9iqyjYx4jYcPawqXMo9D_xADO","LocationType":"point","DisplayPosition":{"Latitude":54.98194,"Longitude":-6.68774},"MapView":{"TopLeft":{"Latitude":54.9909332,"Longitude":-6.7034121},"BottomRight":{"Latitude":54.9729468,"Longitude":-6.6720679}},"Address":{"Label":"BT51 5AB, Coleraine, Northern Ireland, United Kingdom","Country":"GBR","State":"Northern Ireland","County":"County Londonderry","City":"Coleraine","PostalCode":"BT51 5AB","AdditionalData":[{"value":"United Kingdom","key":"CountryName"},{"value":"Northern Ireland","key":"StateName"},{"value":"County Londonderry","key":"CountyName"}]},"MapReference":{"ReferenceId":"845251165","Spot":0.73,"SideOfStreet":"neither","StateId":"20403688","CountyId":"20411123","CityId":"20419829"}}},{"Relevance":1.0,"Distance":51.0,"MatchLevel":"houseNumber","MatchQuality":{"Country":1.0,"State":1.0,"County":1.0,"City":1.0,"District":1.0,"Street":[1.0],"HouseNumber":1.0,"PostalCode":1.0},"MatchType":"interpolated","Location":{"LocationId":"NT_oi9iqyjYx4jYcPawqXMo9D_3ID","LocationType":"point","DisplayPosition":{"Latitude":54.98245,"Longitude":-6.68775},"MapView":{"TopLeft":{"Latitude":54.9835742,"Longitude":-6.689709},"BottomRight":{"Latitude":54.9813258,"Longitude":-6.685791}},"Address":{"Label":"72 Main Street, Coleraine, BT51 5, United Kingdom","Country":"GBR","State":"Northern Ireland","County":"County Londonderry","City":"Coleraine","District":"Garvagh","Street":"Main Street","HouseNumber":"72","PostalCode":"BT51 5","AdditionalData":[{"value":"United Kingdom","key":"CountryName"},{"value":"Northern Ireland","key":"StateName"},{"value":"County Londonderry","key":"CountyName"}]},"MapReference":{"ReferenceId":"845251166","Spot":0.24,"SideOfStreet":"left","StateId":"20403688","CountyId":"20411123","CityId":"20419829","DistrictId":"20419839","AddressId":"341751794","RoadLinkId":"226619101"}}},{"Relevance":1.0,"Distance":56.7,"MatchLevel":"postalCode","MatchQuality":{"PostalCode":1.0},"MatchType":"interpolated","Location":{"LocationId":"NT_oi9iqyjYx4jYcPawqXMo9D_3ID","LocationType":"point","DisplayPosition":{"Latitude":54.98254,"Longitude":-6.68811},"MapView":{"TopLeft":{"Latitude":54.9915332,"Longitude":-6.7037824},"BottomRight":{"Latitude":54.9735468,"Longitude":-6.6724376}},"Address":{"Label":"BT51 5AE, Coleraine, Northern Ireland, United Kingdom","Country":"GBR","State":"Northern Ireland","County":"County Londonderry","City":"Coleraine","PostalCode":"BT51 5AE","AdditionalData":[{"value":"United Kingdom","key":"CountryName"},{"value":"Northern Ireland","key":"StateName"},{"value":"County Londonderry","key":"CountyName"}]},"MapReference":{"ReferenceId":"845251166","Spot":0.24,"SideOfStreet":"neither","StateId":"20403688","CountyId":"20411123","CityId":"20419829"}}},{"Relevance":1.0,"Distance":80.3,"MatchLevel":"houseNumber","MatchQuality":{"Country":1.0,"State":1.0,"County":1.0,"City":1.0,"District":1.0,"Street":[1.0],"HouseNumber":1.0,"PostalCode":1.0},"MatchType":"interpolated","Location":{"LocationId":"NT_0oJX7arAj-KCxlNcOZZW1B_yA","LocationType":"point","DisplayPosition":{"Latitude":54.98134,"Longitude":-6.68756},"MapView":{"TopLeft":{"Latitude":54.9824642,"Longitude":-6.689519},"BottomRight":{"Latitude":54.9802158,"Longitude":-6.685601}},"Address":{"Label":"2 Millview Gardens, Coleraine, BT51 5, United Kingdom","Country":"GBR","State":"Northern Ireland","County":"County Londonderry","City":"Coleraine","District":"Garvagh","Street":"Millview Gardens","HouseNumber":"2","PostalCode":"BT51 5","AdditionalData":[{"value":"United Kingdom","key":"CountryName"},{"value":"Northern Ireland","key":"StateName"},{"value":"County Londonderry","key":"CountyName"}]},"MapReference":{"ReferenceId":"564894798","Spot":0.63,"SideOfStreet":"right","StateId":"20403688","CountyId":"20411123","CityId":"20419829","DistrictId":"20419839","AddressId":"342029809","RoadLinkId":"84853436"}}},{"Relevance":1.0,"Distance":113.5,"MatchLevel":"postalCode","MatchQuality":{"PostalCode":1.0},"MatchType":"interpolated","Location":{"LocationId":"NT_0oJX7arAj-KCxlNcOZZW1B_yA","LocationType":"point","DisplayPosition":{"Latitude":54.98134,"Longitude":-6.68703},"MapView":{"TopLeft":{"Latitude":54.9903332,"Longitude":-6.7027019},"BottomRight":{"Latitude":54.9723468,"Longitude":-6.6713581}},"Address":{"Label":"BT51 5AQ, Coleraine, Northern Ireland, United Kingdom","Country":"GBR","State":"Northern Ireland","County":"County Londonderry","City":"Coleraine","PostalCode":"BT51 5AQ","AdditionalData":[{"value":"United Kingdom","key":"CountryName"},{"value":"Northern Ireland","key":"StateName"},{"value":"County Londonderry","key":"CountyName"}]},"MapReference":{"ReferenceId":"564894798","Spot":0.63,"SideOfStreet":"neither","StateId":"20403688","CountyId":"20411123","CityId":"20419829"}}},{"Relevance":1.0,"Distance":134.7,"MatchLevel":"houseNumber","MatchQuality":{"Country":1.0,"State":1.0,"County":1.0,"City":1.0,"District":1.0,"Street":[1.0],"HouseNumber":1.0,"PostalCode":1.0},"MatchType":"interpolated","Location":{"LocationId":"NT_O14nFpk.YYZcbVXxmAe8QB_2A","LocationType":"point","DisplayPosition":{"Latitude":54.98335,"Longitude":-6.6888},"MapView":{"TopLeft":{"Latitude":54.9844742,"Longitude":-6.6907591},"BottomRight":{"Latitude":54.9822258,"Longitude":-6.6868409}},"Address":{"Label":"10 Limavady Road, Coleraine, BT51 5EB, United Kingdom","Country":"GBR","State":"Northern Ireland","County":"County Londonderry","City":"Coleraine","District":"Garvagh","Street":"Limavady Road","HouseNumber":"10","PostalCode":"BT51 5EB","AdditionalData":[{"value":"United Kingdom","key":"CountryName"},{"value":"Northern Ireland","key":"StateName"},{"value":"County Londonderry","key":"CountyName"}]},"MapReference":{"ReferenceId":"1186969721","Spot":0.31,"SideOfStreet":"left","StateId":"20403688","CountyId":"20411123","CityId":"20419829","DistrictId":"20419839","AddressId":"342169038","RoadLinkId":"495595281"}}},{"Relevance":1.0,"Distance":142.0,"MatchLevel":"street","MatchQuality":{"Country":1.0,"State":1.0,"County":1.0,"City":1.0,"District":1.0,"Street":[1.0],"PostalCode":1.0},"Location":{"LocationId":"NT_0uE9kstR3FFT5aHzODotLA_l_1186969720_L","LocationType":"point","DisplayPosition":{"Latitude":54.9833206,"Longitude":-6.688229},"MapView":{"TopLeft":{"Latitude":54.98334,"Longitude":-6.68851},"BottomRight":{"Latitude":54.98327,"Longitude":-6.68754}},"Address":{"Label":"Limavady Road, Coleraine, BT51 5, United Kingdom","Country":"GBR","State":"Northern Ireland","County":"County Londonderry","City":"Coleraine","District":"Garvagh","Street":"Limavady Road","PostalCode":"BT51 5","AdditionalData":[{"value":"United Kingdom","key":"CountryName"},{"value":"Northern Ireland","key":"StateName"},{"value":"County Londonderry","key":"CountyName"}]},"MapReference":{"ReferenceId":"1186969720","Spot":0.71,"SideOfStreet":"left","StateId":"20403688","CountyId":"20411123","CityId":"20419829","DistrictId":"20419839"}}},{"Relevance":1.0,"Distance":153.7,"MatchLevel":"houseNumber","MatchQuality":{"Country":1.0,"State":1.0,"County":1.0,"City":1.0,"District":1.0,"Street":[1.0],"HouseNumber":1.0,"PostalCode":1.0},"MatchType":"interpolated","Location":{"LocationId":"NT_ZiQ-M6NqeTdGAOoXOKg0qD_zkD","LocationType":"point","DisplayPosition":{"Latitude":54.98327,"Longitude":-6.69005},"MapView":{"TopLeft":{"Latitude":54.9843942,"Longitude":-6.6920091},"BottomRight":{"Latitude":54.9821458,"Longitude":-6.6880909}},"Address":{"Label":"39 Lyttlesdale, Coleraine, BT51 5EA, United Kingdom","Country":"GBR","State":"Northern Ireland","County":"County Londonderry","City":"Coleraine","District":"Garvagh","Street":"Lyttlesdale","HouseNumber":"39","PostalCode":"BT51 5EA","AdditionalData":[{"value":"United Kingdom","key":"CountryName"},{"value":"Northern Ireland","key":"StateName"},{"value":"County Londonderry","key":"CountyName"}]},"MapReference":{"ReferenceId":"564894558","Spot":0.87,"SideOfStreet":"right","StateId":"20403688","CountyId":"20411123","CityId":"20419829","DistrictId":"20419839","AddressId":"342015868","RoadLinkId":"84879800"}}}]}]}}