{"Response":{"MetaInfo":{"Timestamp":"2020-03-28T10:10:32.018+0000","NextPageInformation":"2"},"View":[{"_type":"SearchResultsViewType","ViewId":0,"Result":[{"Relevance":1.0,"Distance":0.0,"Direction":0.0,"MatchLevel":"district","MatchQuality":{"Country":1.0,"State":1.0,"County":1.0,"City":1.0,"District":1.0,"PostalCode":1.0},"Location":{"LocationId":"NT_tFAHYD9enJ6R1iPoARVkfD","LocationType":"point","DisplayPosition":{"Latitude":55.0830922,"Longitude":-1.5687162},"MapView":{"TopLeft":{"Latitude":55.10553,"Longitude":-1.62968},"BottomRight":{"Latitude":55.06775,"Longitude":-1.5665}},"Address":{"Label":"Cramlington, England, United Kingdom","Country":"GBR","State":"England","County":"Northumberland","City":"Cramlington","District":"Cramlington","PostalCode":"NE23 1","AdditionalData":[{"value":"United Kingdom","key":"CountryName"},{"value":"England","key":"StateName"},{"value":"Northumberland","key":"CountyName"}]},"MapReference":{"ReferenceId":"27583343","SideOfStreet":"neither","StateId":"20248595","CountyId":"20339029","CityId":"20347737","DistrictId":"20347738"}}},{"Relevance":1.0,"Distance":23.4,"MatchLevel":"street","MatchQuality":{"Country":1.0,"State":1.0,"County":1.0,"City":1.0,"District":1.0,"Street":[1.0],"PostalCode":1.0},"Location":{"LocationId":"NT_A1Hfq5v71ikXxxl6QF3opD_l_1001334309_R","LocationType":"point","DisplayPosition":{"Latitude":55.08312,"Longitude":-1.56908},"MapView":{"TopLeft":{"Latitude":55.08312,"Longitude":-1.56921},"BottomRight":{"Latitude":55.08266,"Longitude":-1.56908}},"Address":{"Label":"High Pit Road, Cramlington, NE23 6, United Kingdom","Country":"GBR","State":"England","County":"Northumberland","City":"Cramlington","District":"Cramlington","Street":"High Pit Road","PostalCode":"NE23 6","AdditionalData":[{"value":"United Kingdom","key":"CountryName"},{"value":"England","key":"StateName"},{"value":"Northumberland","key":"CountyName"}]},"MapReference":{"ReferenceId":"1001334309","Spot":1.0,"SideOfStreet":"right","StateId":"20248595","CountyId":"20339029","CityId":"20347737","DistrictId":"20347738"}}},{"Relevance":1.0,"Distance":24.7,"MatchLevel":"street","MatchQuality":{"Country":1.0,"State":1.0,"County":1.0,"City":1.0,"District":1.0,"Street":[1.0],"PostalCode":1.0},"Location":{"LocationId":"NT_bs3lmvBHfaJVAaR.iDT4.D_l_27532330_R","LocationType":"point","DisplayPosition":{"Latitude":55.0832041,"Longitude":-1.569052},"MapView":{"TopLeft":{"Latitude":55.08348,"Longitude":-1.56908},"BottomRight":{"Latitude":55.08312,"Longitude":-1.56896}},"Address":{"Label":"B1505, Cramlington, NE23 2, United Kingdom","Country":"GBR","State":"England","County":"Northumberland","City":"Cramlington","District":"Cramlington","Street":"B1505","PostalCode":"NE23 2","AdditionalData":[{"value":"United Kingdom","key":"CountryName"},{"value":"England","key":"StateName"},{"value":"Northumberland","key":"CountyName"}]},"MapReference":{"ReferenceId":"27532330","Spot":0.23,"SideOfStreet":"right","StateId":"20248595","CountyId":"20339029","CityId":"20347737","DistrictId":"20347738"}}},{"Relevance":1.0,"Distance":27.3,"MatchLevel":"houseNumber","MatchQuality":{"Country":1.0,"State":1.0,"County":1.0,"City":1.0,"District":1.0,"Street":[1.0],"HouseNumber":1.0,"PostalCode":1.0},"MatchType":"interpolated","Location":{"LocationId":"NT_FgNRhL0InNDfmnWazu-N7D_l_27532328_L_zA","LocationType":"point","DisplayPosition":{"Latitude":55.083416,"Longitude":-1.568383},"MapView":{"TopLeft":{"Latitude":55.0845401,"Longitude":-1.5703469},"BottomRight":{"Latitude":55.0822918,"Longitude":-1.566419}},"Address":{"Label":"3 Sea View Park, Cramlington, NE23 2DL, United Kingdom","Country":"GBR","State":"England","County":"Northumberland","City":"Cramlington","District":"Cramlington","Street":"Sea View Park","HouseNumber":"3","PostalCode":"NE23 2DL","AdditionalData":[{"value":"United Kingdom","key":"CountryName"},{"value":"England","key":"StateName"},{"value":"Northumberland","key":"CountyName"}]},"MapReference":{"ReferenceId":"27532328","Spot":0.43,"SideOfStreet":"left","StateId":"20248595","CountyId":"20339029","CityId":"20347737","DistrictId":"20347738"}}},{"Relevance":1.0,"Distance":44.1,"MatchLevel":"postalCode","MatchQuality":{"PostalCode":1.0},"MatchType":"interpolated","Location":{"LocationId":"NT_FgNRhL0InNDfmnWazu-N7D_l_27532328_L_zA","LocationType":"point","DisplayPosition":{"Latitude":55.08322,"Longitude":-1.56806},"MapView":{"TopLeft":{"Latitude":55.0922132,"Longitude":-1.5837718},"BottomRight":{"Latitude":55.0742268,"Longitude":-1.5523482}},"Address":{"Label":"NE23 2DL, Cramlington, England, United Kingdom","Country":"GBR","State":"England","County":"Northumberland","City":"Cramlington","PostalCode":"NE23 2DL","AdditionalData":[{"value":"United Kingdom","key":"CountryName"},{"value":"England","key":"StateName"},{"value":"Northumberland","key":"CountyName"}]},"MapReference":{"ReferenceId":"27532328","Spot":0.43,"SideOfStreet":"neither","StateId":"20248595","CountyId":"20339029","CityId":"20347737"}}},{"Relevance":1.0,"Distance":45.8,"MatchLevel":"street","MatchQuality":{"Country":1.0,"State":1.0,"County":1.0,"City":1.0,"District":1.0,"Street":[1.0],"PostalCode":1.0},"Location":{"LocationId":"NT_LDGwCiFEHR8Wbzsy67LHiA_l_27532300_R","LocationType":"point","DisplayPosition":{"Latitude":55.08348,"Longitude":-1.56896},"MapView":{"TopLeft":{"Latitude":55.08408,"Longitude":-1.56896},"BottomRight":{"Latitude":55.08348,"Longitude":-1.56875}},"Address":{"Label":"B1505, Cramlington, NE23 2, United Kingdom","Country":"GBR","State":"England","County":"Northumberland","City":"Cramlington","District":"High Pit","Street":"B1505","PostalCode":"NE23 2","AdditionalData":[{"value":"United Kingdom","key":"CountryName"},{"value":"England","key":"StateName"},{"value":"Northumberland","key":"CountyName"}]},"MapReference":{"ReferenceId":"27532300","Spot":0.0,"SideOfStreet":"right","StateId":"20248595","CountyId":"20339029","CityId":"20347737","DistrictId":"20347743"}}},{"Relevance":1.0,"Distance":46.2,"MatchLevel":"houseNumber","MatchQuality":{"Country":1.0,"State":1.0,"County":1.0,"City":1.0,"District":1.0,"Street":[1.0],"HouseNumber":1.0,"PostalCode":1.0},"MatchType":"interpolated","Location":{"LocationId":"NT_4ApgnhDINgy4GkROQKWw7D_l_27532331_L_yID","LocationType":"point","DisplayPosition":{"Latitude":55.083156,"Longitude":-1.5694328},"MapView":{"TopLeft":{"Latitude":55.0842802,"Longitude":-1.5713967},"BottomRight":{"Latitude":55.0820319,"Longitude":-1.5674688}},"Address":{"Label":"22 Village Road, Cramlington, NE23 2AQ, United Kingdom","Country":"GBR","State":"England","County":"Northumberland","City":"Cramlington","District":"High Pit","Street":"Village Road","HouseNumber":"22","PostalCode":"NE23 2AQ","AdditionalData":[{"value":"United Kingdom","key":"CountryName"},{"value":"England","key":"StateName"},{"value":"Northumberland","key":"CountyName"}]},"MapReference":{"ReferenceId":"27532331","Spot":0.5,"SideOfStreet":"left","StateId":"20248595","CountyId":"20339029","CityId":"20347737","DistrictId":"20347743"}}},{"Relevance":1.0,"Distance":51.0,"MatchLevel":"postalCode","MatchQuality":{"PostalCode":1.0},"Location":{"LocationId":"NT_A1Hfq5v71ikXxxl6QF3opD_l_1001334309_R","LocationType":"point","DisplayPosition":{"Latitude":55.08274,"Longitude":-1.56923},"MapView":{"TopLeft":{"Latitude":55.0917332,"Longitude":-1.5849416},"BottomRight":{"Latitude":55.0737468,"Longitude":-1.5535184}},"Address":{"Label":"NE23 2EE, Cramlington, England, United Kingdom","Country":"GBR","State":"England","County":"Northumberland","City":"Cramlington","PostalCode":"NE23 2EE","AdditionalData":[{"value":"United Kingdom","key":"CountryName"},{"value":"England","key":"StateName"},{"value":"Northumberland","key":"CountyName"}]},"MapReference":{"ReferenceId":"1001334309","Spot":1.0,"SideOfStreet":"neither","StateId":"20248595","CountyId":"20339029","CityId":"20347737"}}},{"Relevance":1.0,"Distance":57.4,"MatchLevel":"street","MatchQuality":{"Country":1.0,"State":1.0,"County":1.0,"City":1.0,"District":1.0,"Street":[1.0],"PostalCode":1.0},"Location":{"LocationId":"NT_A1Hfq5v71ikXxxl6QF3opD_l_1001334308_R","LocationType":"point","DisplayPosition":{"Latitude":55.08266,"Longitude":-1.56921},"MapView":{"TopLeft":{"Latitude":55.08266,"Longitude":-1.56928},"BottomRight":{"Latitude":55.08242,"Longitude":-1.56921}},"Address":{"Label":"High Pit Road, Cramlington, NE23 6, United Kingdom","Country":"GBR","State":"England","County":"Northumberland","City":"Cramlington","District":"Cramlington","Street":"High Pit Road","PostalCode":"NE23 6","AdditionalData":[{"value":"United Kingdom","key":"CountryName"},{"value":"England","key":"StateName"},{"value":"Northumberland","key":"CountyName"}]},"MapReference":{"ReferenceId":"1001334308","Spot":1.0,"SideOfStreet":"right","StateId":"20248595","CountyId":"20339029","CityId":"20347737","DistrictId":"20347738"}}},{"Relevance":1.0,"Distance":67.1,"MatchLevel":"street","MatchQuality":{"Country":1.0,"State":1.0,"County":1.0,"City":1.0,"District":1.0,"Street":[1.0],"PostalCode":1.0},"Location":{"LocationId":"NT_T8xazoiHK6eeTKaLwmMjMB_l_27532323_R","LocationType":"point","DisplayPosition":{"Latitude":55.08364,"Longitude":-1.56916},"MapView":{"TopLeft":{"Latitude":55.08366,"Longitude":-1.56978},"BottomRight":{"Latitude":55.0832,"Longitude":-1.56916}},"Address":{"Label":"Blue Top Cottages, Cramlington, NE23 2, United Kingdom","Country":"GBR","State":"England","County":"Northumberland","City":"Cramlington","District":"High Pit","Street":"Blue Top Cottages","PostalCode":"NE23 2","AdditionalData":[{"value":"United Kingdom","key":"CountryName"},{"value":"England","key":"StateName"},{"value":"Northumberland","key":"CountyName"}]},"MapReference":{"ReferenceId":"27532323","Spot":1.0,"SideOfStreet":"right","StateId":"20248595","CountyId":"20339029","CityId":"20347737","DistrictId":"20347743"}}}]}]}}