{"Response":{"MetaInfo":{"Timestamp":"2020-03-28T11:16:23.980+0000","NextPageInformation":"2"},"View":[{"_type":"SearchResultsViewType","ViewId":0,"Result":[{"Relevance":1.0,"Distance":0.0,"Direction":0.0,"MatchLevel":"postalCode","MatchQuality":{"Country":1.0,"State":1.0,"PostalCode":1.0},"Location":{"LocationId":"NT_bNRCuJT0vqqdHWeUYYEUtC","LocationType":"point","DisplayPosition":{"Latitude":55.0608846,"Longitude":-3.6617144},"MapView":{"TopLeft":{"Latitude":60.84599,"Longitude":-7.69853},"BottomRight":{"Latitude":54.63325,"Longitude":-0.73213}},"Address":{"Label":"DG2 8, Scotland, United Kingdom","Country":"GBR","State":"Scotland","PostalCode":"DG2 8","AdditionalData":[{"value":"United Kingdom","key":"CountryName"},{"value":"Scotland","key":"StateName"}]},"MapReference":{"ReferenceId":"1220478003","SideOfStreet":"neither","StateId":"20252820"}}},{"Relevance":1.0,"Distance":2.6,"MatchLevel":"street","MatchQuality":{"Country":1.0,"State":1.0,"County":1.0,"City":1.0,"District":1.0,"Street":[1.0],"PostalCode":1.0},"Location":{"LocationId":"NT_2i.BJ6dn8QwZGPLW7rCW0A_l_1176977010_L","LocationType":"point","DisplayPosition":{"Latitude":55.0609082,"Longitude":-3.6617153},"MapView":{"TopLeft":{"Latitude":55.0624,"Longitude":-3.67408},"BottomRight":{"Latitude":55.0607,"Longitude":-3.66167}},"Address":{"Label":"The Glen, Dumfries, DG2 8, United Kingdom","Country":"GBR","State":"Scotland","County":"Dumfriesshire","City":"Dumfries","District":"Dumfries","Street":"The Glen","PostalCode":"DG2 8","AdditionalData":[{"value":"United Kingdom","key":"CountryName"},{"value":"Scotland","key":"StateName"},{"value":"Dumfriesshire","key":"CountyName"}]},"MapReference":{"ReferenceId":"1176977010","Spot":0.0,"SideOfStreet":"neither","StateId":"20252820","CountyId":"20258874","CityId":"20291673","DistrictId":"20291674"}}},{"Relevance":1.0,"Distance":3.0,"MatchLevel":"landmark","MatchQuality":{"Country":1.0,"State":1.0,"County":1.0,"City":1.0,"District":1.0,"PostalCode":1.0,"Name":1.0},"Location":{"LocationId":"NT_YJUNhrfSuEBHEX--dRIFmD_p_G8xJ-Ud-x8Cg676J-fXFMD","LocationType":"hospital","Name":"Dumfries & Galloway Royal Infirmary","DisplayPosition":{"Latitude":55.05969,"Longitude":-3.65673},"MapView":{"TopLeft":{"Latitude":55.06118,"Longitude":-3.66167},"BottomRight":{"Latitude":55.05706,"Longitude":-3.6545}},"Address":{"Label":"Dumfries, DG2 8, United Kingdom","Country":"GBR","State":"Scotland","County":"Dumfriesshire","City":"Dumfries","District":"Dumfries","PostalCode":"DG2 8","AdditionalData":[{"value":"United Kingdom","key":"CountryName"},{"value":"Scotland","key":"StateName"},{"value":"Dumfriesshire","key":"CountyName"}]},"MapReference":{"StateId":"20252820","CountyId":"20258874","CityId":"20291673","DistrictId":"20291674","PlaceId":"1213252324"}}},{"Relevance":1.0,"Distance":4.0,"MatchLevel":"street","MatchQuality":{"Country":1.0,"State":1.0,"County":1.0,"City":1.0,"District":1.0,"Street":[1.0],"PostalCode":1.0},"Location":{"LocationId":"NT_2i.BJ6dn8QwZGPLW7rCW0A_l_1176977009_R","LocationType":"point","DisplayPosition":{"Latitude":55.06091,"Longitude":-3.66167},"MapView":{"TopLeft":{"Latitude":55.06104,"Longitude":-3.66167},"BottomRight":{"Latitude":55.06091,"Longitude":-3.65884}},"Address":{"Label":"The Glen, Dumfries, DG2 8, United Kingdom","Country":"GBR","State":"Scotland","County":"Dumfriesshire","City":"Dumfries","District":"Dumfries","Street":"The Glen","PostalCode":"DG2 8","AdditionalData":[{"value":"United Kingdom","key":"CountryName"},{"value":"Scotland","key":"StateName"},{"value":"Dumfriesshire","key":"CountyName"}]},"MapReference":{"ReferenceId":"1176977009","Spot":0.0,"SideOfStreet":"right","StateId":"20252820","CountyId":"20258874","CityId":"20291673","DistrictId":"20291674"}}},{"Relevance":1.0,"Distance":52.9,"MatchLevel":"street","MatchQuality":{"Country":1.0,"State":1.0,"County":1.0,"City":1.0,"District":1.0,"Street":[1.0],"PostalCode":1.0},"Location":{"LocationId":"NT_IERuLl2u8qfdQpMQKZQtCD_l_1150007086_L","LocationType":"point","DisplayPosition":{"Latitude":55.06136,"Longitude":-3.66167},"MapView":{"TopLeft":{"Latitude":55.0616,"Longitude":-3.6638},"BottomRight":{"Latitude":55.06125,"Longitude":-3.65919}},"Address":{"Label":"A75, Dumfries, DG2 8, United Kingdom","Country":"GBR","State":"Scotland","County":"Dumfriesshire","City":"Dumfries","District":"Dumfries","Street":"A75","PostalCode":"DG2 8","AdditionalData":[{"value":"United Kingdom","key":"CountryName"},{"value":"Scotland","key":"StateName"},{"value":"Dumfriesshire","key":"CountyName"}]},"MapReference":{"ReferenceId":"1150007086","Spot":0.54,"SideOfStreet":"left","StateId":"20252820","CountyId":"20258874","CityId":"20291673","DistrictId":"20291674"}}},{"Relevance":1.0,"Distance":118.5,"MatchLevel":"street","MatchQuality":{"Country":1.0,"State":1.0,"County":1.0,"City":1.0,"District":1.0,"PostalCode":1.0},"Location":{"LocationId":"NT_tscA7N-m3OOwjd67.1Zr3C_l_1223625835_L","LocationType":"point","DisplayPosition":{"Latitude":55.06042,"Longitude":-3.66004},"MapView":{"TopLeft":{"Latitude":55.06042,"Longitude":-3.66004},"BottomRight":{"Latitude":55.06019,"Longitude":-3.65984}},"Address":{"Label":"Dumfries, DG2 8, United Kingdom","Country":"GBR","State":"Scotland","County":"Dumfriesshire","City":"Dumfries","District":"Dumfries","PostalCode":"DG2 8","AdditionalData":[{"value":"United Kingdom","key":"CountryName"},{"value":"Scotland","key":"StateName"},{"value":"Dumfriesshire","key":"CountyName"}]},"MapReference":{"ReferenceId":"1223625835","Spot":1.0,"SideOfStreet":"left","StateId":"20252820","CountyId":"20258874","CityId":"20291673","DistrictId":"20291674"}}},{"Relevance":1.0,"Distance":142.2,"MatchLevel":"street","MatchQuality":{"Country":1.0,"State":1.0,"County":1.0,"City":1.0,"District":1.0,"PostalCode":1.0},"Location":{"LocationId":"NT_tscA7N-m3OOwjd67.1Zr3C_l_1223625834_L","LocationType":"point","DisplayPosition":{"Latitude":55.06019,"Longitude":-3.65984},"MapView":{"TopLeft":{"Latitude":55.06019,"Longitude":-3.65984},"BottomRight":{"Latitude":55.05974,"Longitude":-3.65683}},"Address":{"Label":"Dumfries, DG2 8, United Kingdom","Country":"GBR","State":"Scotland","County":"Dumfriesshire","City":"Dumfries","District":"Dumfries","PostalCode":"DG2 8","AdditionalData":[{"value":"United Kingdom","key":"CountryName"},{"value":"Scotland","key":"StateName"},{"value":"Dumfriesshire","key":"CountyName"}]},"MapReference":{"ReferenceId":"1223625834","Spot":1.0,"SideOfStreet":"left","StateId":"20252820","CountyId":"20258874","CityId":"20291673","DistrictId":"20291674"}}},{"Relevance":1.0,"Distance":154.8,"MatchLevel":"street","MatchQuality":{"Country":1.0,"State":1.0,"County":1.0,"City":1.0,"District":1.0,"Street":[1.0],"PostalCode":1.0},"Location":{"LocationId":"NT_IERuLl2u8qfdQpMQKZQtCD_l_78068629_L","LocationType":"point","DisplayPosition":{"Latitude":55.0616,"Longitude":-3.6638},"MapView":{"TopLeft":{"Latitude":55.06176,"Longitude":-3.66633},"BottomRight":{"Latitude":55.0616,"Longitude":-3.6638}},"Address":{"Label":"A75, Dumfries, DG2 8, United Kingdom","Country":"GBR","State":"Scotland","County":"Dumfriesshire","City":"Dumfries","District":"Dumfries","Street":"A75","PostalCode":"DG2 8","AdditionalData":[{"value":"United Kingdom","key":"CountryName"},{"value":"Scotland","key":"StateName"},{"value":"Dumfriesshire","key":"CountyName"}]},"MapReference":{"ReferenceId":"78068629","Spot":0.0,"SideOfStreet":"left","StateId":"20252820","CountyId":"20258874","CityId":"20291673","DistrictId":"20291674"}}},{"Relevance":1.0,"Distance":165.8,"MatchLevel":"street","MatchQuality":{"Country":1.0,"State":1.0,"County":1.0,"City":1.0,"District":1.0,"Street":[1.0],"PostalCode":1.0},"Location":{"LocationId":"NT_IERuLl2u8qfdQpMQKZQtCD_l_1150007087_R","LocationType":"point","DisplayPosition":{"Latitude":55.06125,"Longitude":-3.65919},"MapView":{"TopLeft":{"Latitude":55.06138,"Longitude":-3.65919},"BottomRight":{"Latitude":55.06125,"Longitude":-3.65628}},"Address":{"Label":"A75, Dumfries, DG2 8, United Kingdom","Country":"GBR","State":"Scotland","County":"Dumfriesshire","City":"Dumfries","District":"Dumfries","Street":"A75","PostalCode":"DG2 8","AdditionalData":[{"value":"United Kingdom","key":"CountryName"},{"value":"Scotland","key":"StateName"},{"value":"Dumfriesshire","key":"CountyName"}]},"MapReference":{"ReferenceId":"1150007087","Spot":0.0,"SideOfStreet":"right","StateId":"20252820","CountyId":"20258874","CityId":"20291673","DistrictId":"20291674"}}},{"Relevance":1.0,"Distance":183.9,"MatchLevel":"street","MatchQuality":{"Country":1.0,"State":1.0,"County":1.0,"City":1.0,"District":1.0,"Street":[1.0],"PostalCode":1.0},"Location":{"LocationId":"NT_2i.BJ6dn8QwZGPLW7rCW0A_l_1223625839_L","LocationType":"point","DisplayPosition":{"Latitude":55.06104,"Longitude":-3.65884},"MapView":{"TopLeft":{"Latitude":55.06105,"Longitude":-3.65884},"BottomRight":{"Latitude":55.06047,"Longitude":-3.65593}},"Address":{"Label":"The Glen, Dumfries, DG2 8, United Kingdom","Country":"GBR","State":"Scotland","County":"Dumfriesshire","City":"Dumfries","District":"Dumfries","Street":"The Glen","PostalCode":"DG2 8","AdditionalData":[{"value":"United Kingdom","key":"CountryName"},{"value":"Scotland","key":"StateName"},{"value":"Dumfriesshire","key":"CountyName"}]},"MapReference":{"ReferenceId":"1223625839","Spot":1.0,"SideOfStreet":"left","StateId":"20252820","CountyId":"20258874","CityId":"20291673","DistrictId":"20291674"}}}]}]}}