{"Response":{"MetaInfo":{"Timestamp":"2020-03-28T11:18:03.438+0000","NextPageInformation":"2"},"View":[{"_type":"SearchResultsViewType","ViewId":0,"Result":[{"Relevance":1.0,"Distance":0.0,"Direction":0.0,"MatchLevel":"district","MatchQuality":{"Country":1.0,"State":1.0,"County":1.0,"City":1.0,"District":1.0,"PostalCode":1.0},"Location":{"LocationId":"NT_1kmgYLDI4nQXJTyScNCWmB","LocationType":"point","DisplayPosition":{"Latitude":55.0268552,"Longitude":-1.4656395},"MapView":{"TopLeft":{"Latitude":55.02782,"Longitude":-1.50139},"BottomRight":{"Latitude":54.98851,"Longitude":-1.43104}},"Address":{"Label":"North Shields, England, United Kingdom","Country":"GBR","State":"England","County":"Tyne and Wear","City":"North Shields","District":"North Shields","PostalCode":"NE30 1","AdditionalData":[{"value":"United Kingdom","key":"CountryName"},{"value":"England","key":"StateName"},{"value":"Tyne and Wear","key":"CountyName"}]},"MapReference":{"ReferenceId":"27201056","SideOfStreet":"neither","StateId":"20248595","CountyId":"20347950","CityId":"20348141","DistrictId":"20348142"}}},{"Relevance":1.0,"Distance":12.1,"MatchLevel":"street","MatchQuality":{"Country":1.0,"State":1.0,"County":1.0,"City":1.0,"District":1.0,"PostalCode":1.0},"Location":{"LocationId":"NT_7nYtS0ff1SKQ4lyE7Fcc6A_l_27197575_R","LocationType":"point","DisplayPosition":{"Latitude":55.0269617,"Longitude":-1.465675},"MapView":{"TopLeft":{"Latitude":55.02699,"Longitude":-1.4676},"BottomRight":{"Latitude":55.02632,"Longitude":-1.46559}},"Address":{"Label":"North Shields, NE29 8, United Kingdom","Country":"GBR","State":"England","County":"Tyne and Wear","City":"North Shields","District":"North Shields","PostalCode":"NE29 8","AdditionalData":[{"value":"United Kingdom","key":"CountryName"},{"value":"England","key":"StateName"},{"value":"Tyne and Wear","key":"CountyName"}]},"MapReference":{"ReferenceId":"27197575","Spot":0.96,"SideOfStreet":"right","StateId":"20248595","CountyId":"20347950","CityId":"20348141","DistrictId":"20348142"}}},{"Relevance":1.0,"Distance":12.7,"MatchLevel":"street","MatchQuality":{"Country":1.0,"State":1.0,"County":1.0,"City":1.0,"District":1.0,"PostalCode":1.0},"Location":{"LocationId":"NT_7nYtS0ff1SKQ4lyE7Fcc6A_l_832526024_L","LocationType":"point","DisplayPosition":{"Latitude":55.0269585,"Longitude":-1.4655525},"MapView":{"TopLeft":{"Latitude":55.02699,"Longitude":-1.46559},"BottomRight":{"Latitude":55.02655,"Longitude":-1.46512}},"Address":{"Label":"North Shields, NE29 8, United Kingdom","Country":"GBR","State":"England","County":"Tyne and Wear","City":"North Shields","District":"North Shields","PostalCode":"NE29 8","AdditionalData":[{"value":"United Kingdom","key":"CountryName"},{"value":"England","key":"StateName"},{"value":"Tyne and Wear","key":"CountyName"}]},"MapReference":{"ReferenceId":"832526024","Spot":0.92,"SideOfStreet":"left","StateId":"20248595","CountyId":"20347950","CityId":"20348141","DistrictId":"20348142"}}},{"Relevance":1.0,"Distance":15.3,"MatchLevel":"street","MatchQuality":{"Country":1.0,"State":1.0,"County":1.0,"City":1.0,"District":1.0,"PostalCode":1.0},"Location":{"LocationId":"NT_7nYtS0ff1SKQ4lyE7Fcc6A_l_27197477_L","LocationType":"point","DisplayPosition":{"Latitude":55.02699,"Longitude":-1.46559},"MapView":{"TopLeft":{"Latitude":55.02722,"Longitude":-1.4659},"BottomRight":{"Latitude":55.02699,"Longitude":-1.46559}},"Address":{"Label":"North Shields, NE29 8, United Kingdom","Country":"GBR","State":"England","County":"Tyne and Wear","City":"North Shields","District":"North Shields","PostalCode":"NE29 8","AdditionalData":[{"value":"United Kingdom","key":"CountryName"},{"value":"England","key":"StateName"},{"value":"Tyne and Wear","key":"CountyName"}]},"MapReference":{"ReferenceId":"27197477","Spot":0.0,"SideOfStreet":"left","StateId":"20248595","CountyId":"20347950","CityId":"20348141","DistrictId":"20348142"}}},{"Relevance":1.0,"Distance":43.8,"MatchLevel":"street","MatchQuality":{"Country":1.0,"State":1.0,"County":1.0,"City":1.0,"District":1.0,"PostalCode":1.0},"Location":{"LocationId":"NT_7nYtS0ff1SKQ4lyE7Fcc6A_l_30084731_L","LocationType":"point","DisplayPosition":{"Latitude":55.02722,"Longitude":-1.4659},"MapView":{"TopLeft":{"Latitude":55.02724,"Longitude":-1.46602},"BottomRight":{"Latitude":55.02721,"Longitude":-1.4659}},"Address":{"Label":"North Shields, NE29 8, United Kingdom","Country":"GBR","State":"England","County":"Tyne and Wear","City":"North Shields","District":"North Shields","PostalCode":"NE29 8","AdditionalData":[{"value":"United Kingdom","key":"CountryName"},{"value":"England","key":"StateName"},{"value":"Tyne and Wear","key":"CountyName"}]},"MapReference":{"ReferenceId":"30084731","Spot":0.0,"SideOfStreet":"left","StateId":"20248595","CountyId":"20347950","CityId":"20348141","DistrictId":"20348142"}}},{"Relevance":1.0,"Distance":44.4,"MatchLevel":"street","MatchQuality":{"Country":1.0,"State":1.0,"County":1.0,"City":1.0,"District":1.0,"PostalCode":1.0},"Location":{"LocationId":"NT_7nYtS0ff1SKQ4lyE7Fcc6A_l_27197416_R","LocationType":"point","DisplayPosition":{"Latitude":55.027228,"Longitude":-1.465888},"MapView":{"TopLeft":{"Latitude":55.02729,"Longitude":-1.4659},"BottomRight":{"Latitude":55.02722,"Longitude":-1.46587}},"Address":{"Label":"North Shields, NE29 8, United Kingdom","Country":"GBR","State":"England","County":"Tyne and Wear","City":"North Shields","District":"North Shields","PostalCode":"NE29 8","AdditionalData":[{"value":"United Kingdom","key":"CountryName"},{"value":"England","key":"StateName"},{"value":"Tyne and Wear","key":"CountyName"}]},"MapReference":{"ReferenceId":"27197416","Spot":0.15,"SideOfStreet":"right","StateId":"20248595","CountyId":"20347950","CityId":"20348141","DistrictId":"20348142"}}},{"Relevance":1.0,"Distance":47.4,"MatchLevel":"street","MatchQuality":{"Country":1.0,"State":1.0,"County":1.0,"City":1.0,"District":1.0,"PostalCode":1.0},"Location":{"LocationId":"NT_Cyqial7NhV-kkKHsWn7zVB_l_832526027_L","LocationType":"point","DisplayPosition":{"Latitude":55.02655,"Longitude":-1.46512},"MapView":{"TopLeft":{"Latitude":55.02694,"Longitude":-1.46512},"BottomRight":{"Latitude":55.02655,"Longitude":-1.46429}},"Address":{"Label":"North Shields, NE29 9, United Kingdom","Country":"GBR","State":"England","County":"Tyne and Wear","City":"North Shields","District":"North Shields","PostalCode":"NE29 9","AdditionalData":[{"value":"United Kingdom","key":"CountryName"},{"value":"England","key":"StateName"},{"value":"Tyne and Wear","key":"CountyName"}]},"MapReference":{"ReferenceId":"832526027","Spot":0.0,"SideOfStreet":"left","StateId":"20248595","CountyId":"20347950","CityId":"20348141","DistrictId":"20348142"}}},{"Relevance":1.0,"Distance":47.4,"MatchLevel":"street","MatchQuality":{"Country":1.0,"State":1.0,"County":1.0,"City":1.0,"District":1.0,"PostalCode":1.0},"Location":{"LocationId":"NT_7nYtS0ff1SKQ4lyE7Fcc6A_l_832526023_L","LocationType":"point","DisplayPosition":{"Latitude":55.02655,"Longitude":-1.46512},"MapView":{"TopLeft":{"Latitude":55.02655,"Longitude":-1.46835},"BottomRight":{"Latitude":55.02329,"Longitude":-1.46379}},"Address":{"Label":"North Shields, NE29 8, United Kingdom","Country":"GBR","State":"England","County":"Tyne and Wear","City":"North Shields","District":"North Shields","PostalCode":"NE29 8","AdditionalData":[{"value":"United Kingdom","key":"CountryName"},{"value":"England","key":"StateName"},{"value":"Tyne and Wear","key":"CountyName"}]},"MapReference":{"ReferenceId":"832526023","Spot":1.0,"SideOfStreet":"left","StateId":"20248595","CountyId":"20347950","CityId":"20348141","DistrictId":"20348142"}}},{"Relevance":1.0,"Distance":49.2,"MatchLevel":"street","MatchQuality":{"Country":1.0,"State":1.0,"County":1.0,"City":1.0,"District":1.0,"Street":[1.0],"PostalCode":1.0},"Location":{"LocationId":"NT_JiNepm00CWnc7TuO4OAYqD_l_27197473_R","LocationType":"point","DisplayPosition":{"Latitude":55.02724,"Longitude":-1.46602},"MapView":{"TopLeft":{"Latitude":55.02724,"Longitude":-1.46674},"BottomRight":{"Latitude":55.02697,"Longitude":-1.46602}},"Address":{"Label":"Rake Lane, North Shields, NE29 8, United Kingdom","Country":"GBR","State":"England","County":"Tyne and Wear","City":"North Shields","District":"North Shields","Street":"Rake Lane","PostalCode":"NE29 8","AdditionalData":[{"value":"United Kingdom","key":"CountryName"},{"value":"England","key":"StateName"},{"value":"Tyne and Wear","key":"CountyName"}]},"MapReference":{"ReferenceId":"27197473","Spot":1.0,"SideOfStreet":"right","StateId":"20248595","CountyId":"20347950","CityId":"20348141","DistrictId":"20348142"}}},{"Relevance":1.0,"Distance":50.9,"MatchLevel":"street","MatchQuality":{"Country":1.0,"State":1.0,"County":1.0,"City":1.0,"District":1.0,"Street":[1.0],"PostalCode":1.0},"Location":{"LocationId":"NT_JiNepm00CWnc7TuO4OAYqD_l_1227762932_R","LocationType":"point","DisplayPosition":{"Latitude":55.02729,"Longitude":-1.46589},"MapView":{"TopLeft":{"Latitude":55.02751,"Longitude":-1.46589},"BottomRight":{"Latitude":55.02729,"Longitude":-1.46559}},"Address":{"Label":"Rake Lane, North Shields, NE29 8, United Kingdom","Country":"GBR","State":"England","County":"Tyne and Wear","City":"North Shields","District":"North Shields","Street":"Rake Lane","PostalCode":"NE29 8","AdditionalData":[{"value":"United Kingdom","key":"CountryName"},{"value":"England","key":"StateName"},{"value":"Tyne and Wear","key":"CountyName"}]},"MapReference":{"ReferenceId":"1227762932","Spot":0.0,"SideOfStreet":"right","StateId":"20248595","CountyId":"20347950","CityId":"20348141","DistrictId":"20348142"}}}]}]}}