{"Response":{"MetaInfo":{"Timestamp":"2020-03-28T10:39:18.569+0000","NextPageInformation":"2"},"View":[{"_type":"SearchResultsViewType","ViewId":0,"Result":[{"Relevance":1.0,"Distance":0.0,"Direction":0.0,"MatchLevel":"district","MatchQuality":{"Country":1.0,"State":1.0,"County":1.0,"City":1.0,"District":1.0,"PostalCode":1.0},"Location":{"LocationId":"NT_1kmgYLDI4nQXJTyScNCWmB","LocationType":"point","DisplayPosition":{"Latitude":55.0106722,"Longitude":-1.4516253},"MapView":{"TopLeft":{"Latitude":55.02782,"Longitude":-1.50139},"BottomRight":{"Latitude":54.98851,"Longitude":-1.43104}},"Address":{"Label":"North Shields, England, United Kingdom","Country":"GBR","State":"England","County":"Tyne and Wear","City":"North Shields","District":"North Shields","PostalCode":"NE30 1","AdditionalData":[{"value":"United Kingdom","key":"CountryName"},{"value":"England","key":"StateName"},{"value":"Tyne and Wear","key":"CountyName"}]},"MapReference":{"ReferenceId":"27201056","SideOfStreet":"neither","StateId":"20248595","CountyId":"20347950","CityId":"20348141","DistrictId":"20348142"}}},{"Relevance":1.0,"Distance":14.1,"MatchLevel":"postalCode","MatchQuality":{"PostalCode":1.0},"MatchType":"interpolated","Location":{"LocationId":"NT_bNInFoXcOQJVrTp2kB91PC_l_27201155_L_xED","LocationType":"point","DisplayPosition":{"Latitude":55.01056,"Longitude":-1.45173},"MapView":{"TopLeft":{"Latitude":55.0195532,"Longitude":-1.4674133},"BottomRight":{"Latitude":55.0015668,"Longitude":-1.4360467}},"Address":{"Label":"NE29 0HD, North Shields, England, United Kingdom","Country":"GBR","State":"England","County":"Tyne and Wear","City":"North Shields","PostalCode":"NE29 0HD","AdditionalData":[{"value":"United Kingdom","key":"CountryName"},{"value":"England","key":"StateName"},{"value":"Tyne and Wear","key":"CountyName"}]},"MapReference":{"ReferenceId":"27201155","Spot":0.59,"SideOfStreet":"neither","StateId":"20248595","CountyId":"20347950","CityId":"20348141"}}},{"Relevance":1.0,"Distance":24.6,"MatchLevel":"houseNumber","MatchQuality":{"Country":1.0,"State":1.0,"County":1.0,"City":1.0,"District":1.0,"Street":[1.0],"HouseNumber":1.0,"PostalCode":1.0},"MatchType":"interpolated","Location":{"LocationId":"NT_bNInFoXcOQJVrTp2kB91PC_l_27201155_L_xED","LocationType":"point","DisplayPosition":{"Latitude":55.0105333,"Longitude":-1.4519733},"MapView":{"TopLeft":{"Latitude":55.0116575,"Longitude":-1.4539337},"BottomRight":{"Latitude":55.0094092,"Longitude":-1.4500129}},"Address":{"Label":"11 Springfield, North Shields, NE29 0HR, United Kingdom","Country":"GBR","State":"England","County":"Tyne and Wear","City":"North Shields","District":"North Shields","Street":"Springfield","HouseNumber":"11","PostalCode":"NE29 0HR","AdditionalData":[{"value":"United Kingdom","key":"CountryName"},{"value":"England","key":"StateName"},{"value":"Tyne and Wear","key":"CountyName"}]},"MapReference":{"ReferenceId":"27201155","Spot":0.59,"SideOfStreet":"left","StateId":"20248595","CountyId":"20347950","CityId":"20348141","DistrictId":"20348142"}}},{"Relevance":1.0,"Distance":39.4,"MatchLevel":"houseNumber","MatchQuality":{"Country":1.0,"State":1.0,"County":1.0,"City":1.0,"District":1.0,"Street":[1.0],"HouseNumber":1.0,"PostalCode":1.0},"MatchType":"interpolated","Location":{"LocationId":"NT_atKDmhKVPsU2Ik3wZB-jWC_l_27201278_L_xED","LocationType":"point","DisplayPosition":{"Latitude":55.0101883,"Longitude":-1.4515033},"MapView":{"TopLeft":{"Latitude":55.0113125,"Longitude":-1.4534637},"BottomRight":{"Latitude":55.0090642,"Longitude":-1.4495429}},"Address":{"Label":"11 Ashfield Grove, North Shields, NE29 0HS, United Kingdom","Country":"GBR","State":"England","County":"Tyne and Wear","City":"North Shields","District":"North Shields","Street":"Ashfield Grove","HouseNumber":"11","PostalCode":"NE29 0HS","AdditionalData":[{"value":"United Kingdom","key":"CountryName"},{"value":"England","key":"StateName"},{"value":"Tyne and Wear","key":"CountyName"}]},"MapReference":{"ReferenceId":"27201278","Spot":0.63,"SideOfStreet":"left","StateId":"20248595","CountyId":"20347950","CityId":"20348141","DistrictId":"20348142"}}},{"Relevance":1.0,"Distance":39.4,"MatchLevel":"houseNumber","MatchQuality":{"Country":1.0,"State":1.0,"County":1.0,"City":1.0,"District":1.0,"Street":[1.0],"HouseNumber":1.0,"PostalCode":1.0},"MatchType":"interpolated","Location":{"LocationId":"NT_5GJUaF8ad5KSYkAOIL-T7C_l_27201042_R_xMD","LocationType":"point","DisplayPosition":{"Latitude":55.0109634,"Longitude":-1.4522991},"MapView":{"TopLeft":{"Latitude":55.0120876,"Longitude":-1.4542596},"BottomRight":{"Latitude":55.0098393,"Longitude":-1.4503387}},"Address":{"Label":"13 Lovaine Terrace, North Shields, NE29 0HJ, United Kingdom","Country":"GBR","State":"England","County":"Tyne and Wear","City":"North Shields","District":"North Shields","Street":"Lovaine Terrace","HouseNumber":"13","PostalCode":"NE29 0HJ","AdditionalData":[{"value":"United Kingdom","key":"CountryName"},{"value":"England","key":"StateName"},{"value":"Tyne and Wear","key":"CountyName"}]},"MapReference":{"ReferenceId":"27201042","Spot":0.45,"SideOfStreet":"right","StateId":"20248595","CountyId":"20347950","CityId":"20348141","DistrictId":"20348142"}}},{"Relevance":1.0,"Distance":39.4,"MatchLevel":"houseNumber","MatchQuality":{"Country":1.0,"State":1.0,"County":1.0,"City":1.0,"District":1.0,"Street":[1.0],"HouseNumber":1.0,"PostalCode":1.0},"MatchType":"interpolated","Location":{"LocationId":"NT_1f6BPidJq80SSbOiApLlpB_l_30089187_R_0A","LocationType":"point","DisplayPosition":{"Latitude":55.0102878,"Longitude":-1.4521519},"MapView":{"TopLeft":{"Latitude":55.011412,"Longitude":-1.4541123},"BottomRight":{"Latitude":55.0091637,"Longitude":-1.4501915}},"Address":{"Label":"4 Ayres Terrace, North Shields, NE29 0HL, United Kingdom","Country":"GBR","State":"England","County":"Tyne and Wear","City":"North Shields","District":"North Shields","Street":"Ayres Terrace","HouseNumber":"4","PostalCode":"NE29 0HL","AdditionalData":[{"value":"United Kingdom","key":"CountryName"},{"value":"England","key":"StateName"},{"value":"Tyne and Wear","key":"CountyName"}]},"MapReference":{"ReferenceId":"30089187","Spot":0.51,"SideOfStreet":"right","StateId":"20248595","CountyId":"20347950","CityId":"20348141","DistrictId":"20348142"}}},{"Relevance":1.0,"Distance":46.8,"MatchLevel":"street","MatchQuality":{"Country":1.0,"State":1.0,"County":1.0,"City":1.0,"District":1.0,"Street":[1.0],"PostalCode":1.0},"Location":{"LocationId":"NT_udWXdfyenwp3d6-VYKE0NC_l_565967307_R","LocationType":"point","DisplayPosition":{"Latitude":55.0110782,"Longitude":-1.4518191},"MapView":{"TopLeft":{"Latitude":55.01124,"Longitude":-1.45192},"BottomRight":{"Latitude":55.01103,"Longitude":-1.45148}},"Address":{"Label":"Spring Gardens Court, North Shields, NE29 0, United Kingdom","Country":"GBR","State":"England","County":"Tyne and Wear","City":"North Shields","District":"North Shields","Street":"Spring Gardens Court","PostalCode":"NE29 0","AdditionalData":[{"value":"United Kingdom","key":"CountryName"},{"value":"England","key":"StateName"},{"value":"Tyne and Wear","key":"CountyName"}]},"MapReference":{"ReferenceId":"565967307","Spot":0.23,"SideOfStreet":"right","StateId":"20248595","CountyId":"20347950","CityId":"20348141","DistrictId":"20348142"}}},{"Relevance":1.0,"Distance":49.7,"MatchLevel":"houseNumber","MatchQuality":{"Country":1.0,"State":1.0,"County":1.0,"City":1.0,"District":1.0,"Street":[1.0],"HouseNumber":1.0,"PostalCode":1.0},"MatchType":"interpolated","Location":{"LocationId":"NT_T2cddkHSy6BA5Ek0zerEoC_l_565967305_R_xMD","LocationType":"point","DisplayPosition":{"Latitude":55.0109817,"Longitude":-1.4510628},"MapView":{"TopLeft":{"Latitude":55.0121059,"Longitude":-1.4530232},"BottomRight":{"Latitude":55.0098576,"Longitude":-1.4491024}},"Address":{"Label":"13 Spring Terrace, North Shields, NE29 0HQ, United Kingdom","Country":"GBR","State":"England","County":"Tyne and Wear","City":"North Shields","District":"North Shields","Street":"Spring Terrace","HouseNumber":"13","PostalCode":"NE29 0HQ","AdditionalData":[{"value":"United Kingdom","key":"CountryName"},{"value":"England","key":"StateName"},{"value":"Tyne and Wear","key":"CountyName"}]},"MapReference":{"ReferenceId":"565967305","Spot":0.74,"SideOfStreet":"right","StateId":"20248595","CountyId":"20347950","CityId":"20348141","DistrictId":"20348142"}}},{"Relevance":1.0,"Distance":52.5,"MatchLevel":"houseNumber","MatchQuality":{"Country":1.0,"State":1.0,"County":1.0,"City":1.0,"District":1.0,"Street":[1.0],"HouseNumber":1.0,"PostalCode":1.0},"MatchType":"interpolated","Location":{"LocationId":"NT_1f6BPidJq80SSbOiApLlpB_l_30089188_L_xMD","LocationType":"point","DisplayPosition":{"Latitude":55.01055,"Longitude":-1.45242},"MapView":{"TopLeft":{"Latitude":55.0116742,"Longitude":-1.4543804},"BottomRight":{"Latitude":55.0094259,"Longitude":-1.4504596}},"Address":{"Label":"13 Ayres Terrace, North Shields, NE29 0HL, United Kingdom","Country":"GBR","State":"England","County":"Tyne and Wear","City":"North Shields","District":"North Shields","Street":"Ayres Terrace","HouseNumber":"13","PostalCode":"NE29 0HL","AdditionalData":[{"value":"United Kingdom","key":"CountryName"},{"value":"England","key":"StateName"},{"value":"Tyne and Wear","key":"CountyName"}]},"MapReference":{"ReferenceId":"30089188","Spot":0.31,"SideOfStreet":"left","StateId":"20248595","CountyId":"20347950","CityId":"20348141","DistrictId":"20348142"}}},{"Relevance":1.0,"Distance":54.6,"MatchLevel":"postalCode","MatchQuality":{"PostalCode":1.0},"MatchType":"interpolated","Location":{"LocationId":"NT_1f6BPidJq80SSbOiApLlpB_l_30089188_L_xMD","LocationType":"point","DisplayPosition":{"Latitude":55.01049,"Longitude":-1.45242},"MapView":{"TopLeft":{"Latitude":55.0194832,"Longitude":-1.4681033},"BottomRight":{"Latitude":55.0014968,"Longitude":-1.4367367}},"Address":{"Label":"NE29 0HL, North Shields, England, United Kingdom","Country":"GBR","State":"England","County":"Tyne and Wear","City":"North Shields","PostalCode":"NE29 0HL","AdditionalData":[{"value":"United Kingdom","key":"CountryName"},{"value":"England","key":"StateName"},{"value":"Tyne and Wear","key":"CountyName"}]},"MapReference":{"ReferenceId":"30089188","Spot":0.31,"SideOfStreet":"neither","StateId":"20248595","CountyId":"20347950","CityId":"20348141"}}}]}]}}