{"Response":{"MetaInfo":{"Timestamp":"2020-03-28T09:51:49.079+0000","NextPageInformation":"2"},"View":[{"_type":"SearchResultsViewType","ViewId":0,"Result":[{"Relevance":1.0,"Distance":0.0,"Direction":0.0,"MatchLevel":"district","MatchQuality":{"Country":1.0,"State":1.0,"County":1.0,"City":1.0,"District":1.0,"PostalCode":1.0},"Location":{"LocationId":"NT_iEcxik1BNzG9SnstnoYyDC","LocationType":"point","DisplayPosition":{"Latitude":55.1719953,"Longitude":-1.6833937},"MapView":{"TopLeft":{"Latitude":55.18091,"Longitude":-1.71579},"BottomRight":{"Latitude":55.14902,"Longitude":-1.66305}},"Address":{"Label":"Morpeth, England, United Kingdom","Country":"GBR","State":"England","County":"Northumberland","City":"Morpeth","District":"Morpeth","PostalCode":"NE61 1","AdditionalData":[{"value":"United Kingdom","key":"CountryName"},{"value":"England","key":"StateName"},{"value":"Northumberland","key":"CountyName"}]},"MapReference":{"ReferenceId":"878082685","SideOfStreet":"neither","StateId":"20248595","CountyId":"20339029","CityId":"20339039","DistrictId":"20347828"}}},{"Relevance":1.0,"Distance":35.5,"MatchLevel":"street","MatchQuality":{"Country":1.0,"State":1.0,"County":1.0,"City":1.0,"District":1.0,"Street":[1.0],"PostalCode":1.0},"Location":{"LocationId":"NT_vCWjK0arkvI1fPjBKlBDiB_l_565957214_L","LocationType":"point","DisplayPosition":{"Latitude":55.17182,"Longitude":-1.68386},"MapView":{"TopLeft":{"Latitude":55.17182,"Longitude":-1.68473},"BottomRight":{"Latitude":55.17172,"Longitude":-1.68386}},"Address":{"Label":"The Mount, Morpeth, NE61 1, United Kingdom","Country":"GBR","State":"England","County":"Northumberland","City":"Morpeth","District":"Morpeth","Street":"The Mount","PostalCode":"NE61 1","AdditionalData":[{"value":"United Kingdom","key":"CountryName"},{"value":"England","key":"StateName"},{"value":"Northumberland","key":"CountyName"}]},"MapReference":{"ReferenceId":"565957214","Spot":1.0,"SideOfStreet":"left","StateId":"20248595","CountyId":"20339029","CityId":"20339039","DistrictId":"20347828"}}},{"Relevance":1.0,"Distance":37.8,"MatchLevel":"postalCode","MatchQuality":{"PostalCode":1.0},"Location":{"LocationId":"NT_vCWjK0arkvI1fPjBKlBDiB_l_565957214_L","LocationType":"point","DisplayPosition":{"Latitude":55.17177,"Longitude":-1.68384},"MapView":{"TopLeft":{"Latitude":55.1807632,"Longitude":-1.6995867},"BottomRight":{"Latitude":55.1627768,"Longitude":-1.6680933}},"Address":{"Label":"NE61 1JX, Morpeth, England, United Kingdom","Country":"GBR","State":"England","County":"Northumberland","City":"Morpeth","PostalCode":"NE61 1JX","AdditionalData":[{"value":"United Kingdom","key":"CountryName"},{"value":"England","key":"StateName"},{"value":"Northumberland","key":"CountyName"}]},"MapReference":{"ReferenceId":"565957214","Spot":1.0,"SideOfStreet":"neither","StateId":"20248595","CountyId":"20339029","CityId":"20339039"}}},{"Relevance":1.0,"Distance":65.1,"MatchLevel":"street","MatchQuality":{"Country":1.0,"State":1.0,"County":1.0,"City":1.0,"District":1.0,"Street":[1.0],"PostalCode":1.0},"Location":{"LocationId":"NT_nORtqERrvVc7R7ZCvoAgxC_l_1214076325_L","LocationType":"point","DisplayPosition":{"Latitude":55.17143,"Longitude":-1.68313},"MapView":{"TopLeft":{"Latitude":55.17182,"Longitude":-1.68313},"BottomRight":{"Latitude":55.17143,"Longitude":-1.67961}},"Address":{"Label":"B1337, Morpeth, NE61 1, United Kingdom","Country":"GBR","State":"England","County":"Northumberland","City":"Morpeth","District":"Morpeth","Street":"B1337","PostalCode":"NE61 1","AdditionalData":[{"value":"United Kingdom","key":"CountryName"},{"value":"England","key":"StateName"},{"value":"Northumberland","key":"CountyName"}]},"MapReference":{"ReferenceId":"1214076325","Spot":0.0,"SideOfStreet":"left","StateId":"20248595","CountyId":"20339029","CityId":"20339039","DistrictId":"20347828"}}},{"Relevance":1.0,"Distance":65.1,"MatchLevel":"street","MatchQuality":{"Country":1.0,"State":1.0,"County":1.0,"City":1.0,"District":1.0,"Street":[1.0],"PostalCode":1.0},"Location":{"LocationId":"NT_djK1vDP4yFrPYixeGmVOUA_l_565957211_R","LocationType":"point","DisplayPosition":{"Latitude":55.17222,"Longitude":-1.68434},"MapView":{"TopLeft":{"Latitude":55.17222,"Longitude":-1.68487},"BottomRight":{"Latitude":55.17216,"Longitude":-1.68434}},"Address":{"Label":"Easterfield Court, Morpeth, NE61 1, United Kingdom","Country":"GBR","State":"England","County":"Northumberland","City":"Morpeth","District":"Morpeth","Street":"Easterfield Court","PostalCode":"NE61 1","AdditionalData":[{"value":"United Kingdom","key":"CountryName"},{"value":"England","key":"StateName"},{"value":"Northumberland","key":"CountyName"}]},"MapReference":{"ReferenceId":"565957211","Spot":1.0,"SideOfStreet":"right","StateId":"20248595","CountyId":"20339029","CityId":"20339039","DistrictId":"20347828"}}},{"Relevance":1.0,"Distance":66.7,"MatchLevel":"street","MatchQuality":{"Country":1.0,"State":1.0,"County":1.0,"City":1.0,"District":1.0,"Street":[1.0],"PostalCode":1.0},"Location":{"LocationId":"NT_nORtqERrvVc7R7ZCvoAgxC_l_763768927_L","LocationType":"point","DisplayPosition":{"Latitude":55.1714017,"Longitude":-1.6832375},"MapView":{"TopLeft":{"Latitude":55.17143,"Longitude":-1.68351},"BottomRight":{"Latitude":55.17133,"Longitude":-1.68313}},"Address":{"Label":"B1337, Morpeth, NE61 1, United Kingdom","Country":"GBR","State":"England","County":"Northumberland","City":"Morpeth","District":"Morpeth","Street":"B1337","PostalCode":"NE61 1","AdditionalData":[{"value":"United Kingdom","key":"CountryName"},{"value":"England","key":"StateName"},{"value":"Northumberland","key":"CountyName"}]},"MapReference":{"ReferenceId":"763768927","Spot":0.72,"SideOfStreet":"left","StateId":"20248595","CountyId":"20339029","CityId":"20339039","DistrictId":"20347828"}}},{"Relevance":1.0,"Distance":69.5,"MatchLevel":"street","MatchQuality":{"Country":1.0,"State":1.0,"County":1.0,"City":1.0,"District":1.0,"Street":[1.0],"PostalCode":1.0},"Location":{"LocationId":"NT_MKQmy5zpPQ67vn3I4PhawA_l_1268801193_L","LocationType":"point","DisplayPosition":{"Latitude":55.17139,"Longitude":-1.68312},"MapView":{"TopLeft":{"Latitude":55.17709,"Longitude":-1.68312},"BottomRight":{"Latitude":55.17139,"Longitude":-1.66969}},"Address":{"Label":"NCN 155, Morpeth, NE61 3, United Kingdom","Country":"GBR","State":"England","County":"Northumberland","City":"Morpeth","District":"Morpeth","Street":"NCN 155","PostalCode":"NE61 3","AdditionalData":[{"value":"United Kingdom","key":"CountryName"},{"value":"England","key":"StateName"},{"value":"Northumberland","key":"CountyName"}]},"MapReference":{"ReferenceId":"1268801193","Spot":0.0,"SideOfStreet":"left","StateId":"20248595","CountyId":"20339029","CityId":"20339039","DistrictId":"20347828"}}},{"Relevance":1.0,"Distance":69.5,"MatchLevel":"postalCode","MatchQuality":{"PostalCode":1.0},"Location":{"LocationId":"NT_djK1vDP4yFrPYixeGmVOUA_l_565957211_R","LocationType":"point","DisplayPosition":{"Latitude":55.17216,"Longitude":-1.68445},"MapView":{"TopLeft":{"Latitude":55.1811532,"Longitude":-1.7001968},"BottomRight":{"Latitude":55.1631668,"Longitude":-1.6687032}},"Address":{"Label":"NE61 1JY, Morpeth, England, United Kingdom","Country":"GBR","State":"England","County":"Northumberland","City":"Morpeth","PostalCode":"NE61 1JY","AdditionalData":[{"value":"United Kingdom","key":"CountryName"},{"value":"England","key":"StateName"},{"value":"Northumberland","key":"CountyName"}]},"MapReference":{"ReferenceId":"565957211","Spot":1.0,"SideOfStreet":"neither","StateId":"20248595","CountyId":"20339029","CityId":"20339039"}}},{"Relevance":1.0,"Distance":71.2,"MatchLevel":"street","MatchQuality":{"Country":1.0,"State":1.0,"County":1.0,"City":1.0,"District":1.0,"Street":[1.0],"PostalCode":1.0},"Location":{"LocationId":"NT_MKQmy5zpPQ67vn3I4PhawA_l_1268801192_L","LocationType":"point","DisplayPosition":{"Latitude":55.1713623,"Longitude":-1.6832224},"MapView":{"TopLeft":{"Latitude":55.17139,"Longitude":-1.68604},"BottomRight":{"Latitude":55.16988,"Longitude":-1.68312}},"Address":{"Label":"NCN 155, Morpeth, NE61 3, United Kingdom","Country":"GBR","State":"England","County":"Northumberland","City":"Morpeth","District":"Morpeth","Street":"NCN 155","PostalCode":"NE61 3","AdditionalData":[{"value":"United Kingdom","key":"CountryName"},{"value":"England","key":"StateName"},{"value":"Northumberland","key":"CountyName"}]},"MapReference":{"ReferenceId":"1268801192","Spot":0.97,"SideOfStreet":"left","StateId":"20248595","CountyId":"20339029","CityId":"20339039","DistrictId":"20347828"}}},{"Relevance":1.0,"Distance":74.3,"MatchLevel":"street","MatchQuality":{"Country":1.0,"State":1.0,"County":1.0,"City":1.0,"District":1.0,"Street":[1.0],"PostalCode":1.0},"Location":{"LocationId":"NT_nORtqERrvVc7R7ZCvoAgxC_l_763768926_L","LocationType":"point","DisplayPosition":{"Latitude":55.17133,"Longitude":-1.68351},"MapView":{"TopLeft":{"Latitude":55.17133,"Longitude":-1.68448},"BottomRight":{"Latitude":55.17111,"Longitude":-1.68351}},"Address":{"Label":"B1337, Morpeth, NE61 1, United Kingdom","Country":"GBR","State":"England","County":"Northumberland","City":"Morpeth","District":"Morpeth","Street":"B1337","PostalCode":"NE61 1","AdditionalData":[{"value":"United Kingdom","key":"CountryName"},{"value":"England","key":"StateName"},{"value":"Northumberland","key":"CountyName"}]},"MapReference":{"ReferenceId":"763768926","Spot":1.0,"SideOfStreet":"left","StateId":"20248595","CountyId":"20339029","CityId":"20339039","DistrictId":"20347828"}}}]}]}}