{"Response":{"MetaInfo":{"Timestamp":"2020-03-28T11:19:57.045+0000","NextPageInformation":"2"},"View":[{"_type":"SearchResultsViewType","ViewId":0,"Result":[{"Relevance":1.0,"Distance":0.0,"Direction":0.0,"MatchLevel":"district","MatchQuality":{"Country":1.0,"State":1.0,"County":1.0,"City":1.0,"District":1.0,"PostalCode":1.0},"Location":{"LocationId":"NT_jDeNbzTkURLrP-E20kq9ID","LocationType":"point","DisplayPosition":{"Latitude":55.1506105,"Longitude":-3.0001997},"MapView":{"TopLeft":{"Latitude":55.15618,"Longitude":-3.01277},"BottomRight":{"Latitude":55.14487,"Longitude":-2.98896}},"Address":{"Label":"Langholm, Scotland, United Kingdom","Country":"GBR","State":"Scotland","County":"Dumfriesshire","City":"Langholm","District":"Langholm","PostalCode":"DG13 0","AdditionalData":[{"value":"United Kingdom","key":"CountryName"},{"value":"Scotland","key":"StateName"},{"value":"Dumfriesshire","key":"CountyName"}]},"MapReference":{"ReferenceId":"19054281","SideOfStreet":"neither","StateId":"20252820","CountyId":"20258874","CityId":"20339102","DistrictId":"20339103"}}},{"Relevance":1.0,"Distance":27.8,"MatchLevel":"postalCode","MatchQuality":{"PostalCode":1.0},"Location":{"LocationId":"NT_izowPQtpCe5l8vN5JzNU0C_l_19054337_R","LocationType":"point","DisplayPosition":{"Latitude":55.15086,"Longitude":-3.00021},"MapView":{"TopLeft":{"Latitude":55.1598532,"Longitude":-3.0159484},"BottomRight":{"Latitude":55.1418668,"Longitude":-2.9844716}},"Address":{"Label":"DG13 0JY, Langholm, Scotland, United Kingdom","Country":"GBR","State":"Scotland","County":"Dumfriesshire","City":"Langholm","PostalCode":"DG13 0JY","AdditionalData":[{"value":"United Kingdom","key":"CountryName"},{"value":"Scotland","key":"StateName"},{"value":"Dumfriesshire","key":"CountyName"}]},"MapReference":{"ReferenceId":"19054337","Spot":0.68,"SideOfStreet":"neither","StateId":"20252820","CountyId":"20258874","CityId":"20339102"}}},{"Relevance":1.0,"Distance":33.5,"MatchLevel":"street","MatchQuality":{"Country":1.0,"State":1.0,"County":1.0,"City":1.0,"District":1.0,"Street":[1.0],"PostalCode":1.0},"Location":{"LocationId":"NT_izowPQtpCe5l8vN5JzNU0C_l_19054337_R","LocationType":"point","DisplayPosition":{"Latitude":55.1509101,"Longitude":-3.0002496},"MapView":{"TopLeft":{"Latitude":55.15108,"Longitude":-3.00169},"BottomRight":{"Latitude":55.15067,"Longitude":-2.99957}},"Address":{"Label":"Charles Street, Langholm, DG13 0, United Kingdom","Country":"GBR","State":"Scotland","County":"Dumfriesshire","City":"Langholm","District":"Langholm","Street":"Charles Street","PostalCode":"DG13 0","AdditionalData":[{"value":"United Kingdom","key":"CountryName"},{"value":"Scotland","key":"StateName"},{"value":"Dumfriesshire","key":"CountyName"}]},"MapReference":{"ReferenceId":"19054337","Spot":0.68,"SideOfStreet":"right","StateId":"20252820","CountyId":"20258874","CityId":"20339102","DistrictId":"20339103"}}},{"Relevance":1.0,"Distance":49.9,"MatchLevel":"postalCode","MatchQuality":{"PostalCode":1.0},"Location":{"LocationId":"NT_PIEudh60COaL3QjKdfDqnA_l_1222639730_L","LocationType":"point","DisplayPosition":{"Latitude":55.15052,"Longitude":-2.99943},"MapView":{"TopLeft":{"Latitude":55.1595132,"Longitude":-3.0151683},"BottomRight":{"Latitude":55.1415268,"Longitude":-2.9836917}},"Address":{"Label":"DG13 0JX, Langholm, Scotland, United Kingdom","Country":"GBR","State":"Scotland","County":"Dumfriesshire","City":"Langholm","PostalCode":"DG13 0JX","AdditionalData":[{"value":"United Kingdom","key":"CountryName"},{"value":"Scotland","key":"StateName"},{"value":"Dumfriesshire","key":"CountyName"}]},"MapReference":{"ReferenceId":"1222639730","Spot":0.57,"SideOfStreet":"neither","StateId":"20252820","CountyId":"20258874","CityId":"20339102"}}},{"Relevance":1.0,"Distance":53.9,"MatchLevel":"street","MatchQuality":{"Country":1.0,"State":1.0,"County":1.0,"City":1.0,"District":1.0,"Street":[1.0],"PostalCode":1.0},"Location":{"LocationId":"NT_PIEudh60COaL3QjKdfDqnA_l_1222639730_L","LocationType":"point","DisplayPosition":{"Latitude":55.1501721,"Longitude":-2.9998391},"MapView":{"TopLeft":{"Latitude":55.15078,"Longitude":-3.00091},"BottomRight":{"Latitude":55.1492,"Longitude":-2.99896}},"Address":{"Label":"Lairds Entry, Langholm, DG13 0, United Kingdom","Country":"GBR","State":"Scotland","County":"Dumfriesshire","City":"Langholm","District":"Langholm","Street":"Lairds Entry","PostalCode":"DG13 0","AdditionalData":[{"value":"United Kingdom","key":"CountryName"},{"value":"Scotland","key":"StateName"},{"value":"Dumfriesshire","key":"CountyName"}]},"MapReference":{"ReferenceId":"1222639730","Spot":0.57,"SideOfStreet":"left","StateId":"20252820","CountyId":"20258874","CityId":"20339102","DistrictId":"20339103"}}},{"Relevance":1.0,"Distance":55.6,"MatchLevel":"houseNumber","MatchQuality":{"Country":1.0,"State":1.0,"County":1.0,"City":1.0,"District":1.0,"Street":[1.0],"HouseNumber":1.0,"PostalCode":1.0},"MatchType":"interpolated","Location":{"LocationId":"NT_QKbGwozQdbh9x93xQJOr4C_l_19054327_L_xMD","LocationType":"point","DisplayPosition":{"Latitude":55.1511801,"Longitude":-2.9997101},"MapView":{"TopLeft":{"Latitude":55.1523042,"Longitude":-3.0016775},"BottomRight":{"Latitude":55.1500559,"Longitude":-2.9977428}},"Address":{"Label":"13 David Street, Langholm, DG13 0AB, United Kingdom","Country":"GBR","State":"Scotland","County":"Dumfriesshire","City":"Langholm","District":"Langholm","Street":"David Street","HouseNumber":"13","PostalCode":"DG13 0AB","AdditionalData":[{"value":"United Kingdom","key":"CountryName"},{"value":"Scotland","key":"StateName"},{"value":"Dumfriesshire","key":"CountyName"}]},"MapReference":{"ReferenceId":"19054327","Spot":0.26,"SideOfStreet":"left","StateId":"20252820","CountyId":"20258874","CityId":"20339102","DistrictId":"20339103"}}},{"Relevance":1.0,"Distance":56.3,"MatchLevel":"houseNumber","MatchQuality":{"Country":1.0,"State":1.0,"County":1.0,"City":1.0,"District":1.0,"Street":[1.0],"HouseNumber":1.0,"PostalCode":1.0},"MatchType":"interpolated","Location":{"LocationId":"NT_23nTmn5IvUGPTTgfdtYi9C_l_19054335_R_xMD","LocationType":"point","DisplayPosition":{"Latitude":55.1511346,"Longitude":-3.0008161},"MapView":{"TopLeft":{"Latitude":55.1522588,"Longitude":-3.0027834},"BottomRight":{"Latitude":55.1500105,"Longitude":-2.9988488}},"Address":{"Label":"13 John Street, Langholm, DG13 0, United Kingdom","Country":"GBR","State":"Scotland","County":"Dumfriesshire","City":"Langholm","District":"Langholm","Street":"John Street","HouseNumber":"13","PostalCode":"DG13 0","AdditionalData":[{"value":"United Kingdom","key":"CountryName"},{"value":"Scotland","key":"StateName"},{"value":"Dumfriesshire","key":"CountyName"}]},"MapReference":{"ReferenceId":"19054335","Spot":0.53,"SideOfStreet":"right","StateId":"20252820","CountyId":"20258874","CityId":"20339102","DistrictId":"20339103"}}},{"Relevance":1.0,"Distance":65.6,"MatchLevel":"street","MatchQuality":{"Country":1.0,"State":1.0,"County":1.0,"City":1.0,"District":1.0,"Street":[1.0],"PostalCode":1.0},"Location":{"LocationId":"NT_D008i0eJmWJx1TMdcrK8TA_l_1222639729_L","LocationType":"point","DisplayPosition":{"Latitude":55.15105,"Longitude":-2.99951},"MapView":{"TopLeft":{"Latitude":55.15105,"Longitude":-2.99951},"BottomRight":{"Latitude":55.15084,"Longitude":-2.99895}},"Address":{"Label":"Market Place, Langholm, DG13 0, United Kingdom","Country":"GBR","State":"Scotland","County":"Dumfriesshire","City":"Langholm","District":"Langholm","Street":"Market Place","PostalCode":"DG13 0","AdditionalData":[{"value":"United Kingdom","key":"CountryName"},{"value":"Scotland","key":"StateName"},{"value":"Dumfriesshire","key":"CountyName"}]},"MapReference":{"ReferenceId":"1222639729","Spot":1.0,"SideOfStreet":"left","StateId":"20252820","CountyId":"20258874","CityId":"20339102","DistrictId":"20339103"}}},{"Relevance":1.0,"Distance":65.6,"MatchLevel":"street","MatchQuality":{"Country":1.0,"State":1.0,"County":1.0,"City":1.0,"District":1.0,"PostalCode":1.0},"Location":{"LocationId":"NT_IC7-yY41xS3Yt-Eq5a9ZVD_l_19054328_R","LocationType":"point","DisplayPosition":{"Latitude":55.15105,"Longitude":-2.99951},"MapView":{"TopLeft":{"Latitude":55.1512,"Longitude":-2.99951},"BottomRight":{"Latitude":55.15105,"Longitude":-2.99921}},"Address":{"Label":"Langholm, DG13 0, United Kingdom","Country":"GBR","State":"Scotland","County":"Dumfriesshire","City":"Langholm","District":"Langholm","PostalCode":"DG13 0","AdditionalData":[{"value":"United Kingdom","key":"CountryName"},{"value":"Scotland","key":"StateName"},{"value":"Dumfriesshire","key":"CountyName"}]},"MapReference":{"ReferenceId":"19054328","Spot":0.0,"SideOfStreet":"right","StateId":"20252820","CountyId":"20258874","CityId":"20339102","DistrictId":"20339103"}}},{"Relevance":1.0,"Distance":65.8,"MatchLevel":"street","MatchQuality":{"Country":1.0,"State":1.0,"County":1.0,"City":1.0,"District":1.0,"Street":[1.0],"PostalCode":1.0},"Location":{"LocationId":"NT_QKbGwozQdbh9x93xQJOr4C_l_19054329_L","LocationType":"point","DisplayPosition":{"Latitude":55.15108,"Longitude":-2.99957},"MapView":{"TopLeft":{"Latitude":55.15108,"Longitude":-2.99957},"BottomRight":{"Latitude":55.15105,"Longitude":-2.99951}},"Address":{"Label":"David Street, Langholm, DG13 0, United Kingdom","Country":"GBR","State":"Scotland","County":"Dumfriesshire","City":"Langholm","District":"Langholm","Street":"David Street","PostalCode":"DG13 0","AdditionalData":[{"value":"United Kingdom","key":"CountryName"},{"value":"Scotland","key":"StateName"},{"value":"Dumfriesshire","key":"CountyName"}]},"MapReference":{"ReferenceId":"19054329","Spot":1.0,"SideOfStreet":"left","StateId":"20252820","CountyId":"20258874","CityId":"20339102","DistrictId":"20339103"}}}]}]}}