{"Response":{"MetaInfo":{"Timestamp":"2020-03-28T09:50:36.825+0000","NextPageInformation":"2"},"View":[{"_type":"SearchResultsViewType","ViewId":0,"Result":[{"Relevance":1.0,"Distance":0.0,"Direction":0.0,"MatchLevel":"district","MatchQuality":{"Country":1.0,"State":1.0,"County":1.0,"City":1.0,"District":1.0,"PostalCode":1.0},"Location":{"LocationId":"NT_BmZWgU4uIzb6oqPcc1mBeB","LocationType":"point","DisplayPosition":{"Latitude":55.1153369,"Longitude":-6.638965},"MapView":{"TopLeft":{"Latitude":55.15646,"Longitude":-6.70538},"BottomRight":{"Latitude":55.11067,"Longitude":-6.62897}},"Address":{"Label":"Coleraine, Northern Ireland, United Kingdom","Country":"GBR","State":"Northern Ireland","County":"County Londonderry","City":"Coleraine","District":"Coleraine","PostalCode":"BT51 3","AdditionalData":[{"value":"United Kingdom","key":"CountryName"},{"value":"Northern Ireland","key":"StateName"},{"value":"County Londonderry","key":"CountyName"}]},"MapReference":{"ReferenceId":"1230957060","SideOfStreet":"neither","StateId":"20403688","CountyId":"20411123","CityId":"20419829","DistrictId":"20419838"}}},{"Relevance":1.0,"Distance":34.4,"MatchLevel":"houseNumber","MatchQuality":{"Country":1.0,"State":1.0,"County":1.0,"City":1.0,"District":1.0,"Street":[1.0],"PostalCode":1.0},"MatchType":"interpolated","Location":{"LocationId":"NT_mycO2VADLcq9wLwxfTX7mA","LocationType":"point","DisplayPosition":{"Latitude":55.11578,"Longitude":-6.63998},"MapView":{"TopLeft":{"Latitude":55.1169042,"Longitude":-6.6419456},"BottomRight":{"Latitude":55.1146558,"Longitude":-6.6380144}},"Address":{"Label":"Knocklynn Road, Coleraine, BT52 1, United Kingdom","Country":"GBR","State":"Northern Ireland","County":"County Londonderry","City":"Coleraine","District":"Coleraine","Street":"Knocklynn Road","PostalCode":"BT52 1","AdditionalData":[{"value":"United Kingdom","key":"CountryName"},{"value":"Northern Ireland","key":"StateName"},{"value":"County Londonderry","key":"CountyName"}],"Building":"Sandel Village Centre"},"MapReference":{"ReferenceId":"1226451216","Spot":0.24,"SideOfStreet":"right","StateId":"20403688","CountyId":"20411123","CityId":"20419829","DistrictId":"20419838","AddressId":"342019798","RoadLinkId":"544851984"}}},{"Relevance":1.0,"Distance":40.9,"MatchLevel":"houseNumber","MatchQuality":{"Country":1.0,"State":1.0,"County":1.0,"City":1.0,"District":1.0,"Street":[1.0],"HouseNumber":1.0,"PostalCode":1.0},"MatchType":"interpolated","Location":{"LocationId":"NT_v8ZGx1C8Np9z.6zw5j43JC_xQD","LocationType":"point","DisplayPosition":{"Latitude":55.11479,"Longitude":-6.63861},"MapView":{"TopLeft":{"Latitude":55.1159142,"Longitude":-6.6405755},"BottomRight":{"Latitude":55.1136658,"Longitude":-6.6366445}},"Address":{"Label":"14 Knocklynn Grange, Coleraine, BT52 1WG, United Kingdom","Country":"GBR","State":"Northern Ireland","County":"County Londonderry","City":"Coleraine","District":"Coleraine","Street":"Knocklynn Grange","HouseNumber":"14","PostalCode":"BT52 1WG","AdditionalData":[{"value":"United Kingdom","key":"CountryName"},{"value":"Northern Ireland","key":"StateName"},{"value":"County Londonderry","key":"CountyName"}]},"MapReference":{"ReferenceId":"584073773","Spot":0.96,"SideOfStreet":"left","StateId":"20403688","CountyId":"20411123","CityId":"20419829","DistrictId":"20419838","AddressId":"342193577","RoadLinkId":"84951764"}}},{"Relevance":1.0,"Distance":59.0,"MatchLevel":"postalCode","MatchQuality":{"PostalCode":1.0},"MatchType":"interpolated","Location":{"LocationId":"NT_v8ZGx1C8Np9z.6zw5j43JC_xQD","LocationType":"point","DisplayPosition":{"Latitude":55.11481,"Longitude":-6.63907},"MapView":{"TopLeft":{"Latitude":55.1238032,"Longitude":-6.6547942},"BottomRight":{"Latitude":55.1058168,"Longitude":-6.6233458}},"Address":{"Label":"BT52 1WG, Coleraine, Northern Ireland, United Kingdom","Country":"GBR","State":"Northern Ireland","County":"County Londonderry","City":"Coleraine","PostalCode":"BT52 1WG","AdditionalData":[{"value":"United Kingdom","key":"CountryName"},{"value":"Northern Ireland","key":"StateName"},{"value":"County Londonderry","key":"CountyName"}]},"MapReference":{"ReferenceId":"584073773","Spot":0.96,"SideOfStreet":"neither","StateId":"20403688","CountyId":"20411123","CityId":"20419829"}}},{"Relevance":1.0,"Distance":59.8,"MatchLevel":"houseNumber","MatchQuality":{"Country":1.0,"State":1.0,"County":1.0,"City":1.0,"District":1.0,"Street":[1.0],"PostalCode":1.0},"MatchType":"interpolated","Location":{"LocationId":"NT_mycO2VADLcq9wLwxfTX7mA","LocationType":"point","DisplayPosition":{"Latitude":55.11527,"Longitude":-6.64032},"MapView":{"TopLeft":{"Latitude":55.1163942,"Longitude":-6.6422856},"BottomRight":{"Latitude":55.1141458,"Longitude":-6.6383544}},"Address":{"Label":"Knocklynn Road, Coleraine, BT52 1, United Kingdom","Country":"GBR","State":"Northern Ireland","County":"County Londonderry","City":"Coleraine","District":"Coleraine","Street":"Knocklynn Road","PostalCode":"BT52 1","AdditionalData":[{"value":"United Kingdom","key":"CountryName"},{"value":"Northern Ireland","key":"StateName"},{"value":"County Londonderry","key":"CountyName"}],"Building":"Killeague House"},"MapReference":{"ReferenceId":"584073735","Spot":0.98,"SideOfStreet":"right","StateId":"20403688","CountyId":"20411123","CityId":"20419829","DistrictId":"20419838","AddressId":"689596275","RoadLinkId":"84864573"}}},{"Relevance":1.0,"Distance":77.8,"MatchLevel":"street","MatchQuality":{"Country":1.0,"State":1.0,"County":1.0,"City":1.0,"District":1.0,"Street":[1.0],"PostalCode":1.0},"Location":{"LocationId":"NT_mycO2VADLcq9wLwxfTX7mA_l_1226518890_R","LocationType":"point","DisplayPosition":{"Latitude":55.11546,"Longitude":-6.64017},"MapView":{"TopLeft":{"Latitude":55.11546,"Longitude":-6.64031},"BottomRight":{"Latitude":55.11528,"Longitude":-6.64017}},"Address":{"Label":"Knocklynn Road, Coleraine, BT52 1, United Kingdom","Country":"GBR","State":"Northern Ireland","County":"County Londonderry","City":"Coleraine","District":"Coleraine","Street":"Knocklynn Road","PostalCode":"BT52 1","AdditionalData":[{"value":"United Kingdom","key":"CountryName"},{"value":"Northern Ireland","key":"StateName"},{"value":"County Londonderry","key":"CountyName"}]},"MapReference":{"ReferenceId":"1226518890","Spot":1.0,"SideOfStreet":"right","StateId":"20403688","CountyId":"20411123","CityId":"20419829","DistrictId":"20419838"}}},{"Relevance":1.0,"Distance":78.8,"MatchLevel":"street","MatchQuality":{"Country":1.0,"State":1.0,"County":1.0,"City":1.0,"District":1.0,"Street":[1.0],"PostalCode":1.0},"Location":{"LocationId":"NT_mycO2VADLcq9wLwxfTX7mA_l_1226518891_R","LocationType":"point","DisplayPosition":{"Latitude":55.1157,"Longitude":-6.64003},"MapView":{"TopLeft":{"Latitude":55.1157,"Longitude":-6.64017},"BottomRight":{"Latitude":55.11546,"Longitude":-6.64003}},"Address":{"Label":"Knocklynn Road, Coleraine, BT52 1, United Kingdom","Country":"GBR","State":"Northern Ireland","County":"County Londonderry","City":"Coleraine","District":"Coleraine","Street":"Knocklynn Road","PostalCode":"BT52 1","AdditionalData":[{"value":"United Kingdom","key":"CountryName"},{"value":"Northern Ireland","key":"StateName"},{"value":"County Londonderry","key":"CountyName"}]},"MapReference":{"ReferenceId":"1226518891","Spot":1.0,"SideOfStreet":"right","StateId":"20403688","CountyId":"20411123","CityId":"20419829","DistrictId":"20419838"}}},{"Relevance":1.0,"Distance":82.1,"MatchLevel":"houseNumber","MatchQuality":{"Country":1.0,"State":1.0,"County":1.0,"City":1.0,"District":1.0,"Street":[1.0],"HouseNumber":1.0,"PostalCode":1.0},"MatchType":"interpolated","Location":{"LocationId":"NT_mycO2VADLcq9wLwxfTX7mA_yA","LocationType":"point","DisplayPosition":{"Latitude":55.11608,"Longitude":-6.63987},"MapView":{"TopLeft":{"Latitude":55.1172042,"Longitude":-6.6418356},"BottomRight":{"Latitude":55.1149558,"Longitude":-6.6379044}},"Address":{"Label":"2 Knocklynn Road, Coleraine, BT52 1WT, United Kingdom","Country":"GBR","State":"Northern Ireland","County":"County Londonderry","City":"Coleraine","District":"Coleraine","Street":"Knocklynn Road","HouseNumber":"2","PostalCode":"BT52 1WT","AdditionalData":[{"value":"United Kingdom","key":"CountryName"},{"value":"Northern Ireland","key":"StateName"},{"value":"County Londonderry","key":"CountyName"}]},"MapReference":{"ReferenceId":"1226451144","Spot":0.1,"SideOfStreet":"right","StateId":"20403688","CountyId":"20411123","CityId":"20419829","DistrictId":"20419838","AddressId":"341799728","RoadLinkId":"544851850"}}},{"Relevance":1.0,"Distance":89.0,"MatchLevel":"postalCode","MatchQuality":{"PostalCode":1.0},"MatchType":"interpolated","Location":{"LocationId":"NT_mycO2VADLcq9wLwxfTX7mA","LocationType":"point","DisplayPosition":{"Latitude":55.11502,"Longitude":-6.64025},"MapView":{"TopLeft":{"Latitude":55.1240132,"Longitude":-6.6559743},"BottomRight":{"Latitude":55.1060268,"Longitude":-6.6245257}},"Address":{"Label":"BT52 1WT, Coleraine, Northern Ireland, United Kingdom","Country":"GBR","State":"Northern Ireland","County":"County Londonderry","City":"Coleraine","PostalCode":"BT52 1WT","AdditionalData":[{"value":"United Kingdom","key":"CountryName"},{"value":"Northern Ireland","key":"StateName"},{"value":"County Londonderry","key":"CountyName"}]},"MapReference":{"ReferenceId":"584073735","Spot":0.98,"SideOfStreet":"neither","StateId":"20403688","CountyId":"20411123","CityId":"20419829"}}},{"Relevance":1.0,"Distance":102.9,"MatchLevel":"houseNumber","MatchQuality":{"Country":1.0,"State":1.0,"County":1.0,"City":1.0,"District":1.0,"Street":[1.0],"HouseNumber":1.0,"PostalCode":1.0},"MatchType":"interpolated","Location":{"LocationId":"NT_sCs0kjN.kaIXtXV8CPFJrA_yID","LocationType":"point","DisplayPosition":{"Latitude":55.1161,"Longitude":-6.64019},"MapView":{"TopLeft":{"Latitude":55.1172242,"Longitude":-6.6421556},"BottomRight":{"Latitude":55.1149758,"Longitude":-6.6382244}},"Address":{"Label":"22 Gransden Park, Coleraine, BT52 1, United Kingdom","Country":"GBR","State":"Northern Ireland","County":"County Londonderry","City":"Coleraine","District":"Coleraine","Street":"Gransden Park","HouseNumber":"22","PostalCode":"BT52 1","AdditionalData":[{"value":"United Kingdom","key":"CountryName"},{"value":"Northern Ireland","key":"StateName"},{"value":"County Londonderry","key":"CountyName"}]},"MapReference":{"ReferenceId":"584073756","Spot":0.26,"SideOfStreet":"left","StateId":"20403688","CountyId":"20411123","CityId":"20419829","DistrictId":"20419838","AddressId":"341935735","RoadLinkId":"84877783"}}}]}]}}