{"Response":{"MetaInfo":{"Timestamp":"2020-03-28T10:26:08.853+0000","NextPageInformation":"2"},"View":[{"_type":"SearchResultsViewType","ViewId":0,"Result":[{"Relevance":1.0,"Distance":0.0,"Direction":0.0,"MatchLevel":"city","MatchQuality":{"Country":1.0,"State":1.0,"County":1.0,"City":1.0,"PostalCode":1.0},"Location":{"LocationId":"NT_FPeS3BekvJScDvhhh.dMLA","LocationType":"point","DisplayPosition":{"Latitude":55.2562875,"Longitude":9.4814372},"MapView":{"TopLeft":{"Latitude":55.27158,"Longitude":9.43605},"BottomRight":{"Latitude":55.22386,"Longitude":9.5326}},"Address":{"Label":"Haderslev, Syddanmark, Danmark","Country":"DNK","State":"Syddanmark","County":"Haderslev","City":"Haderslev","PostalCode":"6100","AdditionalData":[{"value":"Danmark","key":"CountryName"},{"value":"Syddanmark","key":"StateName"},{"value":"Haderslev","key":"CountyName"}]},"MapReference":{"ReferenceId":"34473419","SideOfStreet":"neither","CountryId":"20298369","StateId":"20367950","CountyId":"20367811","CityId":"20367813"}}},{"Relevance":1.0,"Distance":62.3,"MatchLevel":"houseNumber","MatchQuality":{"Country":1.0,"State":1.0,"County":1.0,"City":1.0,"Street":[1.0],"HouseNumber":1.0,"PostalCode":1.0},"MatchType":"interpolated","Location":{"LocationId":"NT_EAKU-bpuXZ5W0AcDDUE53C_yUD","LocationType":"point","DisplayPosition":{"Latitude":55.25648,"Longitude":9.48236},"MapView":{"TopLeft":{"Latitude":55.2576042,"Longitude":9.4803875},"BottomRight":{"Latitude":55.2553558,"Longitude":9.4843325}},"Address":{"Label":"Clausensvej 25, 6100 Haderslev, Danmark","Country":"DNK","State":"Syddanmark","County":"Haderslev","City":"Haderslev","Street":"Clausensvej","HouseNumber":"25","PostalCode":"6100","AdditionalData":[{"value":"Danmark","key":"CountryName"},{"value":"Syddanmark","key":"StateName"},{"value":"Haderslev","key":"CountyName"}]},"MapReference":{"ReferenceId":"34472637","Spot":0.9,"SideOfStreet":"right","CountryId":"20298369","StateId":"20367950","CountyId":"20367811","CityId":"20367813","AddressId":"200381927","RoadLinkId":"100305081"}}},{"Relevance":1.0,"Distance":73.7,"MatchLevel":"houseNumber","MatchQuality":{"Country":1.0,"State":1.0,"County":1.0,"City":1.0,"Street":[1.0],"HouseNumber":1.0,"PostalCode":1.0},"MatchType":"interpolated","Location":{"LocationId":"NT_NWHIp1dB.O0.es6tPKoYrD_xA","LocationType":"point","DisplayPosition":{"Latitude":55.25687,"Longitude":9.48248},"MapView":{"TopLeft":{"Latitude":55.2579942,"Longitude":9.4805075},"BottomRight":{"Latitude":55.2557458,"Longitude":9.4844525}},"Address":{"Label":"Thrigesvej 1, 6100 Haderslev, Danmark","Country":"DNK","State":"Syddanmark","County":"Haderslev","City":"Haderslev","Street":"Thrigesvej","HouseNumber":"1","PostalCode":"6100","AdditionalData":[{"value":"Danmark","key":"CountryName"},{"value":"Syddanmark","key":"StateName"},{"value":"Haderslev","key":"CountyName"}]},"MapReference":{"ReferenceId":"34472555","Spot":0.45,"SideOfStreet":"left","CountryId":"20298369","StateId":"20367950","CountyId":"20367811","CityId":"20367813","AddressId":"199028362","RoadLinkId":"100000037"}}},{"Relevance":1.0,"Distance":74.5,"MatchLevel":"houseNumber","MatchQuality":{"Country":1.0,"State":1.0,"County":1.0,"City":1.0,"Street":[1.0],"HouseNumber":1.0,"PostalCode":1.0},"MatchType":"interpolated","Location":{"LocationId":"NT_oote6T3YeFYPKHoyN-1W4C_xQD","LocationType":"point","DisplayPosition":{"Latitude":55.25546,"Longitude":9.48065},"MapView":{"TopLeft":{"Latitude":55.2565842,"Longitude":9.4786775},"BottomRight":{"Latitude":55.2543358,"Longitude":9.4826225}},"Address":{"Label":"Bredgade 14, 6100 Haderslev, Danmark","Country":"DNK","State":"Syddanmark","County":"Haderslev","City":"Haderslev","Street":"Bredgade","HouseNumber":"14","PostalCode":"6100","AdditionalData":[{"value":"Danmark","key":"CountryName"},{"value":"Syddanmark","key":"StateName"},{"value":"Haderslev","key":"CountyName"}]},"MapReference":{"ReferenceId":"778690741","Spot":0.38,"SideOfStreet":"right","CountryId":"20298369","StateId":"20367950","CountyId":"20367811","CityId":"20367813","AddressId":"199379894","RoadLinkId":"172175739"}}},{"Relevance":1.0,"Distance":75.1,"MatchLevel":"street","MatchQuality":{"Country":1.0,"State":1.0,"County":1.0,"City":1.0,"PostalCode":1.0},"Location":{"LocationId":"NT_7Ko6UAv4ODer7at-lHZk-A_l_778690742_L","LocationType":"point","DisplayPosition":{"Latitude":55.2556228,"Longitude":9.4816487},"MapView":{"TopLeft":{"Latitude":55.25585,"Longitude":9.48103},"BottomRight":{"Latitude":55.25529,"Longitude":9.48377}},"Address":{"Label":"6100 Haderslev, Danmark","Country":"DNK","State":"Syddanmark","County":"Haderslev","City":"Haderslev","PostalCode":"6100","AdditionalData":[{"value":"Danmark","key":"CountryName"},{"value":"Syddanmark","key":"StateName"},{"value":"Haderslev","key":"CountyName"}]},"MapReference":{"ReferenceId":"778690742","Spot":0.25,"SideOfStreet":"left","CountryId":"20298369","StateId":"20367950","CountyId":"20367811","CityId":"20367813"}}},{"Relevance":1.0,"Distance":82.6,"MatchLevel":"houseNumber","MatchQuality":{"Country":1.0,"State":1.0,"County":1.0,"City":1.0,"Street":[1.0],"HouseNumber":1.0,"PostalCode":1.0},"MatchType":"interpolated","Location":{"LocationId":"NT_NWHIp1dB.O0.es6tPKoYrD_yUD","LocationType":"point","DisplayPosition":{"Latitude":55.25708,"Longitude":9.48118},"MapView":{"TopLeft":{"Latitude":55.2582042,"Longitude":9.4792074},"BottomRight":{"Latitude":55.2559558,"Longitude":9.4831526}},"Address":{"Label":"Thrigesvej 25, 6100 Haderslev, Danmark","Country":"DNK","State":"Syddanmark","County":"Haderslev","City":"Haderslev","Street":"Thrigesvej","HouseNumber":"25","PostalCode":"6100","AdditionalData":[{"value":"Danmark","key":"CountryName"},{"value":"Syddanmark","key":"StateName"},{"value":"Haderslev","key":"CountyName"}]},"MapReference":{"ReferenceId":"34472502","Spot":0.62,"SideOfStreet":"left","CountryId":"20298369","StateId":"20367950","CountyId":"20367811","CityId":"20367813","AddressId":"201094404","RoadLinkId":"100159093"}}},{"Relevance":1.0,"Distance":113.9,"MatchLevel":"street","MatchQuality":{"Country":1.0,"State":1.0,"County":1.0,"City":1.0,"Street":[1.0],"PostalCode":1.0},"Location":{"LocationId":"NT_oote6T3YeFYPKHoyN-1W4C_l_778690740_R","LocationType":"point","DisplayPosition":{"Latitude":55.25529,"Longitude":9.48103},"MapView":{"TopLeft":{"Latitude":55.25529,"Longitude":9.48103},"BottomRight":{"Latitude":55.25501,"Longitude":9.48163}},"Address":{"Label":"Bredgade, 6100 Haderslev, Danmark","Country":"DNK","State":"Syddanmark","County":"Haderslev","City":"Haderslev","Street":"Bredgade","PostalCode":"6100","AdditionalData":[{"value":"Danmark","key":"CountryName"},{"value":"Syddanmark","key":"StateName"},{"value":"Haderslev","key":"CountyName"}]},"MapReference":{"ReferenceId":"778690740","Spot":1.0,"SideOfStreet":"right","CountryId":"20298369","StateId":"20367950","CountyId":"20367811","CityId":"20367813"}}},{"Relevance":1.0,"Distance":116.8,"MatchLevel":"street","MatchQuality":{"Country":1.0,"State":1.0,"County":1.0,"City":1.0,"Street":[1.0],"PostalCode":1.0},"Location":{"LocationId":"NT_7x7Dr3GEbUa4U0AzUocFgB_l_34472663_R","LocationType":"point","DisplayPosition":{"Latitude":55.25553,"Longitude":9.48016},"MapView":{"TopLeft":{"Latitude":55.25558,"Longitude":9.47973},"BottomRight":{"Latitude":55.25553,"Longitude":9.48016}},"Address":{"Label":"Bakkevej, 6100 Haderslev, Danmark","Country":"DNK","State":"Syddanmark","County":"Haderslev","City":"Haderslev","Street":"Bakkevej","PostalCode":"6100","AdditionalData":[{"value":"Danmark","key":"CountryName"},{"value":"Syddanmark","key":"StateName"},{"value":"Haderslev","key":"CountyName"}]},"MapReference":{"ReferenceId":"34472663","Spot":0.0,"SideOfStreet":"right","CountryId":"20298369","StateId":"20367950","CountyId":"20367811","CityId":"20367813"}}},{"Relevance":1.0,"Distance":123.9,"MatchLevel":"street","MatchQuality":{"Country":1.0,"State":1.0,"County":1.0,"City":1.0,"Street":[1.0],"PostalCode":1.0},"Location":{"LocationId":"NT_NWHIp1dB.O0.es6tPKoYrD_l_34472483_L","LocationType":"point","DisplayPosition":{"Latitude":55.25729,"Longitude":9.48229},"MapView":{"TopLeft":{"Latitude":55.25792,"Longitude":9.48199},"BottomRight":{"Latitude":55.25729,"Longitude":9.48229}},"Address":{"Label":"Thrigesvej, 6100 Haderslev, Danmark","Country":"DNK","State":"Syddanmark","County":"Haderslev","City":"Haderslev","Street":"Thrigesvej","PostalCode":"6100","AdditionalData":[{"value":"Danmark","key":"CountryName"},{"value":"Syddanmark","key":"StateName"},{"value":"Haderslev","key":"CountyName"}]},"MapReference":{"ReferenceId":"34472483","Spot":0.0,"SideOfStreet":"left","CountryId":"20298369","StateId":"20367950","CountyId":"20367811","CityId":"20367813"}}},{"Relevance":1.0,"Distance":133.7,"MatchLevel":"street","MatchQuality":{"Country":1.0,"State":1.0,"County":1.0,"City":1.0,"Street":[1.0],"PostalCode":1.0},"Location":{"LocationId":"NT_Aiw8SpaI80elb-nrFFtB4B_l_34472738_R","LocationType":"point","DisplayPosition":{"Latitude":55.2551247,"Longitude":9.4808994},"MapView":{"TopLeft":{"Latitude":55.25524,"Longitude":9.48042},"BottomRight":{"Latitude":55.25487,"Longitude":9.48163}},"Address":{"Label":"Bakkebo, 6100 Haderslev, Danmark","Country":"DNK","State":"Syddanmark","County":"Haderslev","City":"Haderslev","Street":"Bakkebo","PostalCode":"6100","AdditionalData":[{"value":"Danmark","key":"CountryName"},{"value":"Syddanmark","key":"StateName"},{"value":"Haderslev","key":"CountyName"}]},"MapReference":{"ReferenceId":"34472738","Spot":0.61,"SideOfStreet":"right","CountryId":"20298369","StateId":"20367950","CountyId":"20367811","CityId":"20367813"}}}]}]}}