{"Response":{"MetaInfo":{"Timestamp":"2020-03-28T09:56:39.206+0000","NextPageInformation":"2"},"View":[{"_type":"SearchResultsViewType","ViewId":0,"Result":[{"Relevance":1.0,"Distance":0.0,"Direction":0.0,"MatchLevel":"district","MatchQuality":{"Country":1.0,"State":1.0,"County":1.0,"City":1.0,"District":1.0,"PostalCode":1.0},"Location":{"LocationId":"NT_rcNdPP0CnWo5aKNTsd0n-D","LocationType":"point","DisplayPosition":{"Latitude":55.2448065,"Longitude":24.7530951},"MapView":{"TopLeft":{"Latitude":55.26523,"Longitude":24.7237},"BottomRight":{"Latitude":55.20828,"Longitude":24.81603}},"Address":{"Label":"Ukmergė, Vilniaus Apskritis, Lietuva","Country":"LTU","State":"Vilniaus Apskritis","County":"Ukmergės rajono savivaldybė","City":"Ukmergė","District":"Ukmergė","PostalCode":"20175","AdditionalData":[{"value":"Lietuva","key":"CountryName"},{"value":"Vilniaus Apskritis","key":"StateName"},{"value":"Ukmergės rajono savivaldybė","key":"CountyName"}]},"MapReference":{"ReferenceId":"752259614","SideOfStreet":"neither","CountryId":"20633740","StateId":"23290632","CountyId":"23291240","CityId":"28098670","DistrictId":"23292817"}}},{"Relevance":1.0,"Distance":7.4,"MatchLevel":"houseNumber","MatchQuality":{"Country":1.0,"State":1.0,"County":1.0,"City":1.0,"District":1.0,"Street":[1.0],"HouseNumber":1.0,"PostalCode":1.0},"MatchType":"interpolated","Location":{"LocationId":"NT_GdClW9VDaJH81ThotdmsWD_4AD","LocationType":"point","DisplayPosition":{"Latitude":55.24495,"Longitude":24.75288},"MapView":{"TopLeft":{"Latitude":55.2460742,"Longitude":24.750908},"BottomRight":{"Latitude":55.2438258,"Longitude":24.754852}},"Address":{"Label":"Kauno gatvė 80, LT-20115 Ukmergė, Lietuva","Country":"LTU","State":"Vilniaus Apskritis","County":"Ukmergės rajono savivaldybė","City":"Ukmergė","District":"Ukmergė","Street":"Kauno gatvė","HouseNumber":"80","PostalCode":"20115","AdditionalData":[{"value":"Lietuva","key":"CountryName"},{"value":"Vilniaus Apskritis","key":"StateName"},{"value":"Ukmergės rajono savivaldybė","key":"CountyName"}]},"MapReference":{"ReferenceId":"979299163","Spot":0.21,"SideOfStreet":"right","CountryId":"20633740","StateId":"23290632","CountyId":"23291240","CityId":"28098670","DistrictId":"23292817","AddressId":"667664750","RoadLinkId":"312353610"}}},{"Relevance":1.0,"Distance":41.0,"MatchLevel":"houseNumber","MatchQuality":{"Country":1.0,"State":1.0,"County":1.0,"City":1.0,"District":1.0,"Street":[1.0],"HouseNumber":1.0,"PostalCode":1.0},"MatchType":"interpolated","Location":{"LocationId":"NT_GdClW9VDaJH81ThotdmsWD_4ATY","LocationType":"point","DisplayPosition":{"Latitude":55.2448,"Longitude":24.75242},"MapView":{"TopLeft":{"Latitude":55.2459242,"Longitude":24.7504481},"BottomRight":{"Latitude":55.2436758,"Longitude":24.7543919}},"Address":{"Label":"Kauno gatvė 80a, LT-20115 Ukmergė, Lietuva","Country":"LTU","State":"Vilniaus Apskritis","County":"Ukmergės rajono savivaldybė","City":"Ukmergė","District":"Ukmergė","Street":"Kauno gatvė","HouseNumber":"80a","PostalCode":"20115","AdditionalData":[{"value":"Lietuva","key":"CountryName"},{"value":"Vilniaus Apskritis","key":"StateName"},{"value":"Ukmergės rajono savivaldybė","key":"CountyName"}]},"MapReference":{"ReferenceId":"979299162","Spot":1.0,"SideOfStreet":"right","CountryId":"20633740","StateId":"23290632","CountyId":"23291240","CityId":"28098670","DistrictId":"23292817","AddressId":"339603796","RoadLinkId":"312353609"}}},{"Relevance":1.0,"Distance":72.4,"MatchLevel":"houseNumber","MatchQuality":{"Country":1.0,"State":1.0,"County":1.0,"City":1.0,"District":1.0,"Street":[1.0],"HouseNumber":1.0,"PostalCode":1.0},"MatchType":"interpolated","Location":{"LocationId":"NT_GdClW9VDaJH81ThotdmsWD_4YD","LocationType":"point","DisplayPosition":{"Latitude":55.24464,"Longitude":24.75195},"MapView":{"TopLeft":{"Latitude":55.2457642,"Longitude":24.7499781},"BottomRight":{"Latitude":55.2435158,"Longitude":24.7539219}},"Address":{"Label":"Kauno gatvė 86, LT-20115 Ukmergė, Lietuva","Country":"LTU","State":"Vilniaus Apskritis","County":"Ukmergės rajono savivaldybė","City":"Ukmergė","District":"Ukmergė","Street":"Kauno gatvė","HouseNumber":"86","PostalCode":"20115","AdditionalData":[{"value":"Lietuva","key":"CountryName"},{"value":"Vilniaus Apskritis","key":"StateName"},{"value":"Ukmergės rajono savivaldybė","key":"CountyName"}]},"MapReference":{"ReferenceId":"752282101","Spot":0.84,"SideOfStreet":"right","CountryId":"20633740","StateId":"23290632","CountyId":"23291240","CityId":"28098670","DistrictId":"23292817","AddressId":"667399824","RoadLinkId":"148411141"}}},{"Relevance":1.0,"Distance":87.0,"MatchLevel":"houseNumber","MatchQuality":{"Country":1.0,"State":1.0,"County":1.0,"City":1.0,"District":1.0,"Street":[1.0],"HouseNumber":1.0,"PostalCode":1.0},"MatchType":"interpolated","Location":{"LocationId":"NT_w2Q0US3JBZrcSIblyF6Z0A_3A","LocationType":"point","DisplayPosition":{"Latitude":55.24396,"Longitude":24.75341},"MapView":{"TopLeft":{"Latitude":55.2450842,"Longitude":24.7514381},"BottomRight":{"Latitude":55.2428358,"Longitude":24.7553819}},"Address":{"Label":"Gėlių gatvė 7, LT-20115 Ukmergė, Lietuva","Country":"LTU","State":"Vilniaus Apskritis","County":"Ukmergės rajono savivaldybė","City":"Ukmergė","District":"Ukmergė","Street":"Gėlių gatvė","HouseNumber":"7","PostalCode":"20115","AdditionalData":[{"value":"Lietuva","key":"CountryName"},{"value":"Vilniaus Apskritis","key":"StateName"},{"value":"Ukmergės rajono savivaldybė","key":"CountyName"}]},"MapReference":{"ReferenceId":"752592814","Spot":0.24,"SideOfStreet":"left","CountryId":"20633740","StateId":"23290632","CountyId":"23291240","CityId":"28098670","DistrictId":"23292817","AddressId":"726009010","RoadLinkId":"148371723"}}},{"Relevance":1.0,"Distance":105.9,"MatchLevel":"houseNumber","MatchQuality":{"Country":1.0,"State":1.0,"County":1.0,"City":1.0,"District":1.0,"Street":[1.0],"HouseNumber":1.0,"PostalCode":1.0},"MatchType":"interpolated","Location":{"LocationId":"NT_w2Q0US3JBZrcSIblyF6Z0A_xED","LocationType":"point","DisplayPosition":{"Latitude":55.2439,"Longitude":24.75248},"MapView":{"TopLeft":{"Latitude":55.2450242,"Longitude":24.7505081},"BottomRight":{"Latitude":55.2427758,"Longitude":24.7544519}},"Address":{"Label":"Gėlių gatvė 11, LT-20115 Ukmergė, Lietuva","Country":"LTU","State":"Vilniaus Apskritis","County":"Ukmergės rajono savivaldybė","City":"Ukmergė","District":"Ukmergė","Street":"Gėlių gatvė","HouseNumber":"11","PostalCode":"20115","AdditionalData":[{"value":"Lietuva","key":"CountryName"},{"value":"Vilniaus Apskritis","key":"StateName"},{"value":"Ukmergės rajono savivaldybė","key":"CountyName"}]},"MapReference":{"ReferenceId":"752556410","Spot":0.11,"SideOfStreet":"right","CountryId":"20633740","StateId":"23290632","CountyId":"23291240","CityId":"28098670","DistrictId":"23292817","AddressId":"667540935","RoadLinkId":"148292250"}}},{"Relevance":1.0,"Distance":119.6,"MatchLevel":"street","MatchQuality":{"Country":1.0,"State":1.0,"County":1.0,"City":1.0,"District":1.0,"Street":[1.0],"PostalCode":1.0},"Location":{"LocationId":"NT_w2Q0US3JBZrcSIblyF6Z0A_l_752304012_L","LocationType":"point","DisplayPosition":{"Latitude":55.2438,"Longitude":24.75243},"MapView":{"TopLeft":{"Latitude":55.2438,"Longitude":24.75185},"BottomRight":{"Latitude":55.24328,"Longitude":24.75243}},"Address":{"Label":"Gėlių gatvė, LT-20115 Ukmergė, Lietuva","Country":"LTU","State":"Vilniaus Apskritis","County":"Ukmergės rajono savivaldybė","City":"Ukmergė","District":"Ukmergė","Street":"Gėlių gatvė","PostalCode":"20115","AdditionalData":[{"value":"Lietuva","key":"CountryName"},{"value":"Vilniaus Apskritis","key":"StateName"},{"value":"Ukmergės rajono savivaldybė","key":"CountyName"}]},"MapReference":{"ReferenceId":"752304012","Spot":1.0,"SideOfStreet":"left","CountryId":"20633740","StateId":"23290632","CountyId":"23291240","CityId":"28098670","DistrictId":"23292817"}}},{"Relevance":1.0,"Distance":124.8,"MatchLevel":"houseNumber","MatchQuality":{"Country":1.0,"State":1.0,"County":1.0,"City":1.0,"District":1.0,"Street":[1.0],"HouseNumber":1.0,"PostalCode":1.0},"MatchType":"interpolated","Location":{"LocationId":"NT_GdClW9VDaJH81ThotdmsWD_3AD","LocationType":"point","DisplayPosition":{"Latitude":55.24553,"Longitude":24.7546},"MapView":{"TopLeft":{"Latitude":55.2466542,"Longitude":24.752628},"BottomRight":{"Latitude":55.2444058,"Longitude":24.756572}},"Address":{"Label":"Kauno gatvė 70, LT-20115 Ukmergė, Lietuva","Country":"LTU","State":"Vilniaus Apskritis","County":"Ukmergės rajono savivaldybė","City":"Ukmergė","District":"Ukmergė","Street":"Kauno gatvė","HouseNumber":"70","PostalCode":"20115","AdditionalData":[{"value":"Lietuva","key":"CountryName"},{"value":"Vilniaus Apskritis","key":"StateName"},{"value":"Ukmergės rajono savivaldybė","key":"CountyName"}]},"MapReference":{"ReferenceId":"979299164","Spot":0.15,"SideOfStreet":"right","CountryId":"20633740","StateId":"23290632","CountyId":"23291240","CityId":"28098670","DistrictId":"23292817","AddressId":"667664753","RoadLinkId":"312353611"}}},{"Relevance":1.0,"Distance":149.5,"MatchLevel":"street","MatchQuality":{"Country":1.0,"State":1.0,"County":1.0,"City":1.0,"District":1.0,"Street":[1.0],"PostalCode":1.0},"Location":{"LocationId":"NT_VdQtiqi6M5zG5OXa0LI2UC_l_979303604_L","LocationType":"point","DisplayPosition":{"Latitude":55.2458442,"Longitude":24.754594},"MapView":{"TopLeft":{"Latitude":55.24585,"Longitude":24.75459},"BottomRight":{"Latitude":55.24559,"Longitude":24.75477}},"Address":{"Label":"A. Smetonos gatvė, LT-20175 Ukmergė, Lietuva","Country":"LTU","State":"Vilniaus Apskritis","County":"Ukmergės rajono savivaldybė","City":"Ukmergė","District":"Ukmergė","Street":"A. Smetonos gatvė","PostalCode":"20175","AdditionalData":[{"value":"Lietuva","key":"CountryName"},{"value":"Vilniaus Apskritis","key":"StateName"},{"value":"Ukmergės rajono savivaldybė","key":"CountyName"}]},"MapReference":{"ReferenceId":"979303604","Spot":0.98,"SideOfStreet":"left","CountryId":"20633740","StateId":"23290632","CountyId":"23291240","CityId":"28098670","DistrictId":"23292817"}}},{"Relevance":1.0,"Distance":164.2,"MatchLevel":"houseNumber","MatchQuality":{"Country":1.0,"State":1.0,"County":1.0,"City":1.0,"District":1.0,"Street":[1.0],"HouseNumber":1.0,"PostalCode":1.0},"MatchType":"interpolated","Location":{"LocationId":"NT_BG6ae-ZW8oY6Q9F3FIIssA_xAD","LocationType":"point","DisplayPosition":{"Latitude":55.2465,"Longitude":24.75287},"MapView":{"TopLeft":{"Latitude":55.2476242,"Longitude":24.750898},"BottomRight":{"Latitude":55.2453758,"Longitude":24.754842}},"Address":{"Label":"Deltuvos gatvė 10, LT-20120 Ukmergė, Lietuva","Country":"LTU","State":"Vilniaus Apskritis","County":"Ukmergės rajono savivaldybė","City":"Ukmergė","District":"Ukmergė","Street":"Deltuvos gatvė","HouseNumber":"10","PostalCode":"20120","AdditionalData":[{"value":"Lietuva","key":"CountryName"},{"value":"Vilniaus Apskritis","key":"StateName"},{"value":"Ukmergės rajono savivaldybė","key":"CountyName"}]},"MapReference":{"ReferenceId":"979301768","Spot":0.63,"SideOfStreet":"right","CountryId":"20633740","StateId":"23290632","CountyId":"23291240","CityId":"28098670","DistrictId":"23292817","AddressId":"339664422","RoadLinkId":"312356616"}}}]}]}}