{"Response":{"MetaInfo":{"Timestamp":"2020-03-28T11:19:57.995+0000","NextPageInformation":"2"},"View":[{"_type":"SearchResultsViewType","ViewId":0,"Result":[{"Relevance":1.0,"Distance":0.0,"Direction":0.0,"MatchLevel":"district","MatchQuality":{"Country":1.0,"State":1.0,"County":1.0,"City":1.0,"District":1.0,"PostalCode":1.0},"Location":{"LocationId":"NT_hoh2KNwKLwibe2GYANEDqB","LocationType":"point","DisplayPosition":{"Latitude":55.2361843,"Longitude":-3.7680932},"MapView":{"TopLeft":{"Latitude":55.24588,"Longitude":-3.77511},"BottomRight":{"Latitude":55.23411,"Longitude":-3.75611}},"Address":{"Label":"Thornhill, Scotland, United Kingdom","Country":"GBR","State":"Scotland","County":"Dumfriesshire","City":"Thornhill","District":"Thornhill","PostalCode":"DG3 5","AdditionalData":[{"value":"United Kingdom","key":"CountryName"},{"value":"Scotland","key":"StateName"},{"value":"Dumfriesshire","key":"CountyName"}]},"MapReference":{"ReferenceId":"19169902","SideOfStreet":"neither","StateId":"20252820","CountyId":"20258874","CityId":"20291694","DistrictId":"20291695"}}},{"Relevance":1.0,"Distance":104.2,"MatchLevel":"houseNumber","MatchQuality":{"Country":1.0,"State":1.0,"County":1.0,"City":1.0,"District":1.0,"Street":[1.0],"HouseNumber":1.0,"PostalCode":1.0},"MatchType":"interpolated","Location":{"LocationId":"NT_rodS1wSmOkSbuTK4plcabB_l_19169963_L_2QD","LocationType":"point","DisplayPosition":{"Latitude":55.2370852,"Longitude":-3.7670752},"MapView":{"TopLeft":{"Latitude":55.2382093,"Longitude":-3.7690467},"BottomRight":{"Latitude":55.235961,"Longitude":-3.7651036}},"Address":{"Label":"64 Kinnell Street, Thornhill, DG3 4, United Kingdom","Country":"GBR","State":"Scotland","County":"Dumfriesshire","City":"Thornhill","District":"Thornhill","Street":"Kinnell Street","HouseNumber":"64","PostalCode":"DG3 4","AdditionalData":[{"value":"United Kingdom","key":"CountryName"},{"value":"Scotland","key":"StateName"},{"value":"Dumfriesshire","key":"CountyName"}]},"MapReference":{"ReferenceId":"19169963","Spot":0.22,"SideOfStreet":"left","StateId":"20252820","CountyId":"20258874","CityId":"20291694","DistrictId":"20291695"}}},{"Relevance":1.0,"Distance":119.1,"MatchLevel":"street","MatchQuality":{"Country":1.0,"State":1.0,"County":1.0,"City":1.0,"District":1.0,"PostalCode":1.0},"Location":{"LocationId":"NT_SmrK2c3MG7LVofFZ96LzGB_l_19274089_L","LocationType":"point","DisplayPosition":{"Latitude":55.236353,"Longitude":-3.7662375},"MapView":{"TopLeft":{"Latitude":55.23708,"Longitude":-3.76625},"BottomRight":{"Latitude":55.23599,"Longitude":-3.76611}},"Address":{"Label":"Thornhill, DG3 5, United Kingdom","Country":"GBR","State":"Scotland","County":"Dumfriesshire","City":"Thornhill","District":"Thornhill","PostalCode":"DG3 5","AdditionalData":[{"value":"United Kingdom","key":"CountryName"},{"value":"Scotland","key":"StateName"},{"value":"Dumfriesshire","key":"CountyName"}]},"MapReference":{"ReferenceId":"19274089","Spot":0.35,"SideOfStreet":"left","StateId":"20252820","CountyId":"20258874","CityId":"20291694","DistrictId":"20291695"}}},{"Relevance":1.0,"Distance":127.6,"MatchLevel":"street","MatchQuality":{"Country":1.0,"State":1.0,"County":1.0,"City":1.0,"District":1.0,"PostalCode":1.0},"Location":{"LocationId":"NT_SmrK2c3MG7LVofFZ96LzGB_l_19169971_L","LocationType":"point","DisplayPosition":{"Latitude":55.23599,"Longitude":-3.76611},"MapView":{"TopLeft":{"Latitude":55.23599,"Longitude":-3.76611},"BottomRight":{"Latitude":55.23525,"Longitude":-3.7655}},"Address":{"Label":"Thornhill, DG3 5, United Kingdom","Country":"GBR","State":"Scotland","County":"Dumfriesshire","City":"Thornhill","District":"Thornhill","PostalCode":"DG3 5","AdditionalData":[{"value":"United Kingdom","key":"CountryName"},{"value":"Scotland","key":"StateName"},{"value":"Dumfriesshire","key":"CountyName"}]},"MapReference":{"ReferenceId":"19169971","Spot":1.0,"SideOfStreet":"left","StateId":"20252820","CountyId":"20258874","CityId":"20291694","DistrictId":"20291695"}}},{"Relevance":1.0,"Distance":128.6,"MatchLevel":"postalCode","MatchQuality":{"PostalCode":1.0},"MatchType":"interpolated","Location":{"LocationId":"NT_rodS1wSmOkSbuTK4plcabB_l_19169963_L_2QD","LocationType":"point","DisplayPosition":{"Latitude":55.23734,"Longitude":-3.76803},"MapView":{"TopLeft":{"Latitude":55.2463332,"Longitude":-3.7838026},"BottomRight":{"Latitude":55.2283468,"Longitude":-3.7522574}},"Address":{"Label":"DG3 4JN, Thornhill, Scotland, United Kingdom","Country":"GBR","State":"Scotland","County":"Dumfriesshire","City":"Thornhill","PostalCode":"DG3 4JN","AdditionalData":[{"value":"United Kingdom","key":"CountryName"},{"value":"Scotland","key":"StateName"},{"value":"Dumfriesshire","key":"CountyName"}]},"MapReference":{"ReferenceId":"19169963","Spot":0.22,"SideOfStreet":"neither","StateId":"20252820","CountyId":"20258874","CityId":"20291694"}}},{"Relevance":1.0,"Distance":135.9,"MatchLevel":"houseNumber","MatchQuality":{"Country":1.0,"State":1.0,"County":1.0,"City":1.0,"District":1.0,"Street":[1.0],"HouseNumber":1.0,"PostalCode":1.0},"MatchType":"interpolated","Location":{"LocationId":"NT_wxF.UprGQ5TX.CT2pfBf3D_l_1120209302_L_xA","LocationType":"point","DisplayPosition":{"Latitude":55.23605,"Longitude":-3.7658999},"MapView":{"TopLeft":{"Latitude":55.2371742,"Longitude":-3.7678714},"BottomRight":{"Latitude":55.2349259,"Longitude":-3.7639284}},"Address":{"Label":"1 Queensberry Brae, Thornhill, DG3 5, United Kingdom","Country":"GBR","State":"Scotland","County":"Dumfriesshire","City":"Thornhill","District":"Thornhill","Street":"Queensberry Brae","HouseNumber":"1","PostalCode":"DG3 5","AdditionalData":[{"value":"United Kingdom","key":"CountryName"},{"value":"Scotland","key":"StateName"},{"value":"Dumfriesshire","key":"CountyName"}]},"MapReference":{"ReferenceId":"1120209302","Spot":0.15,"SideOfStreet":"left","StateId":"20252820","CountyId":"20258874","CityId":"20291694","DistrictId":"20291695"}}},{"Relevance":1.0,"Distance":153.5,"MatchLevel":"street","MatchQuality":{"Country":1.0,"State":1.0,"County":1.0,"City":1.0,"District":1.0,"PostalCode":1.0},"Location":{"LocationId":"NT_SmrK2c3MG7LVofFZ96LzGB_l_19169962_L","LocationType":"point","DisplayPosition":{"Latitude":55.23708,"Longitude":-3.76625},"MapView":{"TopLeft":{"Latitude":55.23733,"Longitude":-3.7663},"BottomRight":{"Latitude":55.23708,"Longitude":-3.76625}},"Address":{"Label":"Thornhill, DG3 5, United Kingdom","Country":"GBR","State":"Scotland","County":"Dumfriesshire","City":"Thornhill","District":"Thornhill","PostalCode":"DG3 5","AdditionalData":[{"value":"United Kingdom","key":"CountryName"},{"value":"Scotland","key":"StateName"},{"value":"Dumfriesshire","key":"CountyName"}]},"MapReference":{"ReferenceId":"19169962","Spot":0.0,"SideOfStreet":"left","StateId":"20252820","CountyId":"20258874","CityId":"20291694","DistrictId":"20291695"}}},{"Relevance":1.0,"Distance":165.2,"MatchLevel":"street","MatchQuality":{"Country":1.0,"State":1.0,"County":1.0,"City":1.0,"District":1.0,"Street":[1.0],"PostalCode":1.0},"Location":{"LocationId":"NT_B5eTj.z2IN1qkAJoWu.otA_l_19169956_L","LocationType":"point","DisplayPosition":{"Latitude":55.23765,"Longitude":-3.76852},"MapView":{"TopLeft":{"Latitude":55.23921,"Longitude":-3.76945},"BottomRight":{"Latitude":55.23765,"Longitude":-3.76852}},"Address":{"Label":"Dalgarnock Road, Thornhill, DG3 4, United Kingdom","Country":"GBR","State":"Scotland","County":"Dumfriesshire","City":"Thornhill","District":"Thornhill","Street":"Dalgarnock Road","PostalCode":"DG3 4","AdditionalData":[{"value":"United Kingdom","key":"CountryName"},{"value":"Scotland","key":"StateName"},{"value":"Dumfriesshire","key":"CountyName"}]},"MapReference":{"ReferenceId":"19169956","Spot":0.0,"SideOfStreet":"left","StateId":"20252820","CountyId":"20258874","CityId":"20291694","DistrictId":"20291695"}}},{"Relevance":1.0,"Distance":166.8,"MatchLevel":"street","MatchQuality":{"Country":1.0,"State":1.0,"County":1.0,"City":1.0,"District":1.0,"Street":[1.0],"PostalCode":1.0},"Location":{"LocationId":"NT_rodS1wSmOkSbuTK4plcabB_l_19169955_R","LocationType":"point","DisplayPosition":{"Latitude":55.2376742,"Longitude":-3.7684036},"MapView":{"TopLeft":{"Latitude":55.23819,"Longitude":-3.76852},"BottomRight":{"Latitude":55.23765,"Longitude":-3.76765}},"Address":{"Label":"Kinnell Street, Thornhill, DG3 4, United Kingdom","Country":"GBR","State":"Scotland","County":"Dumfriesshire","City":"Thornhill","District":"Thornhill","Street":"Kinnell Street","PostalCode":"DG3 4","AdditionalData":[{"value":"United Kingdom","key":"CountryName"},{"value":"Scotland","key":"StateName"},{"value":"Dumfriesshire","key":"CountyName"}]},"MapReference":{"ReferenceId":"19169955","Spot":0.09,"SideOfStreet":"right","StateId":"20252820","CountyId":"20258874","CityId":"20291694","DistrictId":"20291695"}}},{"Relevance":1.0,"Distance":170.8,"MatchLevel":"street","MatchQuality":{"Country":1.0,"State":1.0,"County":1.0,"City":1.0,"District":1.0,"Street":[1.0],"PostalCode":1.0},"Location":{"LocationId":"NT_HKHoJoKskwkse6P2avr6QB_l_19169961_L","LocationType":"point","DisplayPosition":{"Latitude":55.23733,"Longitude":-3.7663},"MapView":{"TopLeft":{"Latitude":55.23837,"Longitude":-3.76684},"BottomRight":{"Latitude":55.23733,"Longitude":-3.7663}},"Address":{"Label":"Townhead Street, Thornhill, DG3 5, United Kingdom","Country":"GBR","State":"Scotland","County":"Dumfriesshire","City":"Thornhill","District":"Thornhill","Street":"Townhead Street","PostalCode":"DG3 5","AdditionalData":[{"value":"United Kingdom","key":"CountryName"},{"value":"Scotland","key":"StateName"},{"value":"Dumfriesshire","key":"CountyName"}]},"MapReference":{"ReferenceId":"19169961","Spot":0.0,"SideOfStreet":"left","StateId":"20252820","CountyId":"20258874","CityId":"20291694","DistrictId":"20291695"}}}]}]}}