{"Response":{"MetaInfo":{"Timestamp":"2020-03-28T11:03:00.262+0000","NextPageInformation":"2"},"View":[{"_type":"SearchResultsViewType","ViewId":0,"Result":[{"Relevance":1.0,"Distance":-4229.4,"MatchLevel":"landmark","MatchQuality":{"Country":1.0,"Name":1.0},"Location":{"LocationId":"NT_sXxRdEmskmIBL.Kxc8azGC","LocationType":"island","Name":"Sjælland","DisplayPosition":{"Latitude":55.54599,"Longitude":11.6978},"MapView":{"TopLeft":{"Latitude":56.12984,"Longitude":10.86824},"BottomRight":{"Latitude":54.96213,"Longitude":12.63858}},"Address":{"Label":"Danmark","Country":"DNK","AdditionalData":[{"value":"Danmark","key":"CountryName"}]},"MapReference":{"CountryId":"20298369","PlaceId":"67444971"}}},{"Relevance":1.0,"Distance":0.0,"Direction":0.0,"MatchLevel":"city","MatchQuality":{"Country":1.0,"State":1.0,"County":1.0,"City":1.0,"PostalCode":1.0},"Location":{"LocationId":"NT_9So7ne1-ApfFVuTZCU6DSD","LocationType":"point","DisplayPosition":{"Latitude":55.2398539,"Longitude":11.7602795},"MapView":{"TopLeft":{"Latitude":55.26173,"Longitude":11.72162},"BottomRight":{"Latitude":55.18834,"Longitude":11.80246}},"Address":{"Label":"Næstved, Sjælland, Danmark","Country":"DNK","State":"Sjælland","County":"Næstved","City":"Næstved","PostalCode":"4700","AdditionalData":[{"value":"Danmark","key":"CountryName"},{"value":"Sjælland","key":"StateName"},{"value":"Næstved","key":"CountyName"}]},"MapReference":{"ReferenceId":"926735205","SideOfStreet":"neither","CountryId":"20298369","StateId":"20368123","CountyId":"20368630","CityId":"20368632"}}},{"Relevance":1.0,"Distance":11.1,"MatchLevel":"houseNumber","MatchQuality":{"Country":1.0,"State":1.0,"County":1.0,"City":1.0,"Street":[1.0],"HouseNumber":1.0,"PostalCode":1.0},"MatchType":"interpolated","Location":{"LocationId":"NT_ANPvduDrNn.6IAwA6MDJgB_4kD","LocationType":"point","DisplayPosition":{"Latitude":55.23974,"Longitude":11.7604},"MapView":{"TopLeft":{"Latitude":55.2408642,"Longitude":11.7584283},"BottomRight":{"Latitude":55.2386158,"Longitude":11.7623717}},"Address":{"Label":"Ringstedgade 89, 4700 Næstved, Danmark","Country":"DNK","State":"Sjælland","County":"Næstved","City":"Næstved","Street":"Ringstedgade","HouseNumber":"89","PostalCode":"4700","AdditionalData":[{"value":"Danmark","key":"CountryName"},{"value":"Sjælland","key":"StateName"},{"value":"Næstved","key":"CountyName"}]},"MapReference":{"ReferenceId":"32532352","Spot":0.69,"SideOfStreet":"left","CountryId":"20298369","StateId":"20368123","CountyId":"20368630","CityId":"20368632","AddressId":"198513898","RoadLinkId":"100400541"}}},{"Relevance":1.0,"Distance":30.2,"MatchLevel":"houseNumber","MatchQuality":{"Country":1.0,"State":1.0,"County":1.0,"City":1.0,"Street":[1.0],"HouseNumber":1.0,"PostalCode":1.0},"MatchType":"interpolated","Location":{"LocationId":"NT_zD6rJb4f4scbE4keUIeY3B_xMjQ","LocationType":"point","DisplayPosition":{"Latitude":55.23983,"Longitude":11.75977},"MapView":{"TopLeft":{"Latitude":55.2409542,"Longitude":11.7577983},"BottomRight":{"Latitude":55.2387058,"Longitude":11.7617417}},"Address":{"Label":"Herlufsvænge 13B, 4700 Næstved, Danmark","Country":"DNK","State":"Sjælland","County":"Næstved","City":"Næstved","Street":"Herlufsvænge","HouseNumber":"13B","PostalCode":"4700","AdditionalData":[{"value":"Danmark","key":"CountryName"},{"value":"Sjælland","key":"StateName"},{"value":"Næstved","key":"CountyName"}]},"MapReference":{"ReferenceId":"573815555","Spot":0.58,"SideOfStreet":"right","CountryId":"20298369","StateId":"20368123","CountyId":"20368630","CityId":"20368632","AddressId":"201049949","RoadLinkId":"99957662"}}},{"Relevance":1.0,"Distance":48.5,"MatchLevel":"houseNumber","MatchQuality":{"Country":1.0,"State":1.0,"County":1.0,"City":1.0,"Street":[1.0],"HouseNumber":1.0,"PostalCode":1.0},"MatchType":"interpolated","Location":{"LocationId":"NT_ANPvduDrNn.6IAwA6MDJgB_5UD","LocationType":"point","DisplayPosition":{"Latitude":55.24026,"Longitude":11.76054},"MapView":{"TopLeft":{"Latitude":55.2413842,"Longitude":11.7585683},"BottomRight":{"Latitude":55.2391358,"Longitude":11.7625117}},"Address":{"Label":"Ringstedgade 95, 4700 Næstved, Danmark","Country":"DNK","State":"Sjælland","County":"Næstved","City":"Næstved","Street":"Ringstedgade","HouseNumber":"95","PostalCode":"4700","AdditionalData":[{"value":"Danmark","key":"CountryName"},{"value":"Sjælland","key":"StateName"},{"value":"Næstved","key":"CountyName"}]},"MapReference":{"ReferenceId":"32532287","Spot":0.05,"SideOfStreet":"left","CountryId":"20298369","StateId":"20368123","CountyId":"20368630","CityId":"20368632","AddressId":"198793404","RoadLinkId":"99977425"}}},{"Relevance":1.0,"Distance":52.2,"MatchLevel":"houseNumber","MatchQuality":{"Country":1.0,"State":1.0,"County":1.0,"City":1.0,"Street":[1.0],"HouseNumber":1.0,"PostalCode":1.0},"MatchType":"interpolated","Location":{"LocationId":"NT_TzSAerf3j0hKny9W0ekWhC_xA","LocationType":"point","DisplayPosition":{"Latitude":55.24027,"Longitude":11.75965},"MapView":{"TopLeft":{"Latitude":55.2413942,"Longitude":11.7576783},"BottomRight":{"Latitude":55.2391458,"Longitude":11.7616217}},"Address":{"Label":"Ved Skoven 1, 4700 Næstved, Danmark","Country":"DNK","State":"Sjælland","County":"Næstved","City":"Næstved","Street":"Ved Skoven","HouseNumber":"1","PostalCode":"4700","AdditionalData":[{"value":"Danmark","key":"CountryName"},{"value":"Sjælland","key":"StateName"},{"value":"Næstved","key":"CountyName"}]},"MapReference":{"ReferenceId":"32634907","Spot":0.29,"SideOfStreet":"left","CountryId":"20298369","StateId":"20368123","CountyId":"20368630","CityId":"20368632","AddressId":"200852580","RoadLinkId":"100012993"}}},{"Relevance":1.0,"Distance":107.1,"MatchLevel":"houseNumber","MatchQuality":{"Country":1.0,"State":1.0,"County":1.0,"City":1.0,"Street":[1.0],"HouseNumber":1.0,"PostalCode":1.0},"MatchType":"interpolated","Location":{"LocationId":"NT_t-D1RuVZMHDwcVM0jCBzBC_zATQ","LocationType":"point","DisplayPosition":{"Latitude":55.2406,"Longitude":11.76162},"MapView":{"TopLeft":{"Latitude":55.2417242,"Longitude":11.7596483},"BottomRight":{"Latitude":55.2394758,"Longitude":11.7635917}},"Address":{"Label":"Kalbyrisvej 30A, 4700 Næstved, Danmark","Country":"DNK","State":"Sjælland","County":"Næstved","City":"Næstved","Street":"Kalbyrisvej","HouseNumber":"30A","PostalCode":"4700","AdditionalData":[{"value":"Danmark","key":"CountryName"},{"value":"Sjælland","key":"StateName"},{"value":"Næstved","key":"CountyName"}]},"MapReference":{"ReferenceId":"1171223135","Spot":1.0,"SideOfStreet":"left","CountryId":"20298369","StateId":"20368123","CountyId":"20368630","CityId":"20368632","AddressId":"198681721","RoadLinkId":"478217372"}}},{"Relevance":1.0,"Distance":112.2,"MatchLevel":"houseNumber","MatchQuality":{"Country":1.0,"State":1.0,"County":1.0,"City":1.0,"Street":[1.0],"HouseNumber":1.0,"PostalCode":1.0},"MatchType":"interpolated","Location":{"LocationId":"NT_t-D1RuVZMHDwcVM0jCBzBC_0kTQ","LocationType":"point","DisplayPosition":{"Latitude":55.24063,"Longitude":11.76141},"MapView":{"TopLeft":{"Latitude":55.2417542,"Longitude":11.7594383},"BottomRight":{"Latitude":55.2395058,"Longitude":11.7633817}},"Address":{"Label":"Kalbyrisvej 49A, 4700 Næstved, Danmark","Country":"DNK","State":"Sjælland","County":"Næstved","City":"Næstved","Street":"Kalbyrisvej","HouseNumber":"49A","PostalCode":"4700","AdditionalData":[{"value":"Danmark","key":"CountryName"},{"value":"Sjælland","key":"StateName"},{"value":"Næstved","key":"CountyName"}]},"MapReference":{"ReferenceId":"1171223133","Spot":0.28,"SideOfStreet":"right","CountryId":"20298369","StateId":"20368123","CountyId":"20368630","CityId":"20368632","AddressId":"200825468","RoadLinkId":"478217370"}}},{"Relevance":1.0,"Distance":125.0,"MatchLevel":"landmark","MatchQuality":{"Country":1.0,"State":1.0,"County":1.0,"City":1.0,"Street":[1.0],"PostalCode":1.0,"Name":1.0},"Location":{"LocationId":"NT_lAd29WV2smiPjntkFpaLxB_p_hdk5Tz5qWzLegkv37OyLSB","LocationType":"hospital","Name":"Næstved Sygehus","DisplayPosition":{"Latitude":55.23632,"Longitude":11.75956},"MapView":{"TopLeft":{"Latitude":55.23873,"Longitude":11.75747},"BottomRight":{"Latitude":55.23423,"Longitude":11.76084}},"Address":{"Label":"Ringstedgade, 4700 Næstved, Danmark","Country":"DNK","State":"Sjælland","County":"Næstved","City":"Næstved","Street":"Ringstedgade","PostalCode":"4700","AdditionalData":[{"value":"Danmark","key":"CountryName"},{"value":"Sjælland","key":"StateName"},{"value":"Næstved","key":"CountyName"}]},"MapReference":{"CountryId":"20298369","StateId":"20368123","CountyId":"20368630","CityId":"20368632","PlaceId":"67636103"}}},{"Relevance":1.0,"Distance":133.6,"MatchLevel":"houseNumber","MatchQuality":{"Country":1.0,"State":1.0,"County":1.0,"City":1.0,"Street":[1.0],"HouseNumber":1.0,"PostalCode":1.0},"MatchType":"interpolated","Location":{"LocationId":"NT_zD6rJb4f4scbE4keUIeY3B_xQDR","LocationType":"point","DisplayPosition":{"Latitude":55.23868,"Longitude":11.75983},"MapView":{"TopLeft":{"Latitude":55.2398042,"Longitude":11.7578584},"BottomRight":{"Latitude":55.2375558,"Longitude":11.7618016}},"Address":{"Label":"Herlufsvænge 14D, 4700 Næstved, Danmark","Country":"DNK","State":"Sjælland","County":"Næstved","City":"Næstved","Street":"Herlufsvænge","HouseNumber":"14D","PostalCode":"4700","AdditionalData":[{"value":"Danmark","key":"CountryName"},{"value":"Sjælland","key":"StateName"},{"value":"Næstved","key":"CountyName"}]},"MapReference":{"ReferenceId":"32532354","Spot":0.0,"SideOfStreet":"right","CountryId":"20298369","StateId":"20368123","CountyId":"20368630","CityId":"20368632","AddressId":"199633045","RoadLinkId":"100396078"}}}]}]}}