{"Response":{"MetaInfo":{"Timestamp":"2020-03-28T12:04:28.825+0000","NextPageInformation":"2"},"View":[{"_type":"SearchResultsViewType","ViewId":0,"Result":[{"Relevance":1.0,"Distance":0.0,"Direction":0.0,"MatchLevel":"district","MatchQuality":{"Country":1.0,"State":1.0,"County":1.0,"City":1.0,"District":1.0,"PostalCode":1.0},"Location":{"LocationId":"NT_EKdAlvFVfJ138AQVKaI.UB","LocationType":"point","DisplayPosition":{"Latitude":55.2299722,"Longitude":25.4134159},"MapView":{"TopLeft":{"Latitude":55.23589,"Longitude":25.38948},"BottomRight":{"Latitude":55.21568,"Longitude":25.43658}},"Address":{"Label":"Molėtai, Utenos Apskritis, Lietuva","Country":"LTU","State":"Utenos Apskritis","County":"Molėtų rajono savivaldybė","City":"Molėtai","District":"Molėtai","PostalCode":"33111","AdditionalData":[{"value":"Lietuva","key":"CountryName"},{"value":"Utenos Apskritis","key":"StateName"},{"value":"Molėtų rajono savivaldybė","key":"CountyName"}]},"MapReference":{"ReferenceId":"752376935","SideOfStreet":"neither","CountryId":"20633740","StateId":"23291603","CountyId":"23292263","CityId":"23291666","DistrictId":"23291776"}}},{"Relevance":1.0,"Distance":9.2,"MatchLevel":"street","MatchQuality":{"Country":1.0,"State":1.0,"County":1.0,"City":1.0,"District":1.0,"Street":[1.0],"PostalCode":1.0},"Location":{"LocationId":"NT_Hidtx93NkamhVUdSrvl2IA_l_752434911_L","LocationType":"point","DisplayPosition":{"Latitude":55.2298909,"Longitude":25.4134445},"MapView":{"TopLeft":{"Latitude":55.23003,"Longitude":25.4133},"BottomRight":{"Latitude":55.22984,"Longitude":25.41384}},"Address":{"Label":"Amatų gatvė, LT-33111 Molėtai, Lietuva","Country":"LTU","State":"Utenos Apskritis","County":"Molėtų rajono savivaldybė","City":"Molėtai","District":"Molėtai","Street":"Amatų gatvė","PostalCode":"33111","AdditionalData":[{"value":"Lietuva","key":"CountryName"},{"value":"Utenos Apskritis","key":"StateName"},{"value":"Molėtų rajono savivaldybė","key":"CountyName"}]},"MapReference":{"ReferenceId":"752434911","Spot":0.27,"SideOfStreet":"left","CountryId":"20633740","StateId":"23291603","CountyId":"23292263","CityId":"23291666","DistrictId":"23291776"}}},{"Relevance":1.0,"Distance":15.4,"MatchLevel":"houseNumber","MatchQuality":{"Country":1.0,"State":1.0,"County":1.0,"City":1.0,"District":1.0,"Street":[1.0],"HouseNumber":1.0,"PostalCode":1.0},"MatchType":"interpolated","Location":{"LocationId":"NT_oX5qUra8S177MljMUiuP8A_zIG","LocationType":"point","DisplayPosition":{"Latitude":55.22999,"Longitude":25.41316},"MapView":{"TopLeft":{"Latitude":55.2311142,"Longitude":25.4111888},"BottomRight":{"Latitude":55.2288658,"Longitude":25.4151312}},"Address":{"Label":"Amatų gatvė 3b, LT-33102 Molėtai, Lietuva","Country":"LTU","State":"Utenos Apskritis","County":"Molėtų rajono savivaldybė","City":"Molėtai","District":"Molėtai","Street":"Amatų gatvė","HouseNumber":"3b","PostalCode":"33102","AdditionalData":[{"value":"Lietuva","key":"CountryName"},{"value":"Utenos Apskritis","key":"StateName"},{"value":"Molėtų rajono savivaldybė","key":"CountyName"}]},"MapReference":{"ReferenceId":"752538481","Spot":0.57,"SideOfStreet":"right","CountryId":"20633740","StateId":"23291603","CountyId":"23292263","CityId":"23291666","DistrictId":"23291776","AddressId":"339531970","RoadLinkId":"148471259"}}},{"Relevance":1.0,"Distance":16.4,"MatchLevel":"street","MatchQuality":{"Country":1.0,"State":1.0,"County":1.0,"City":1.0,"District":1.0,"Street":[1.0],"PostalCode":1.0},"Location":{"LocationId":"NT_Hidtx93NkamhVUdSrvl2IA_l_1056562870_R","LocationType":"point","DisplayPosition":{"Latitude":55.22984,"Longitude":25.4133},"MapView":{"TopLeft":{"Latitude":55.22984,"Longitude":25.4133},"BottomRight":{"Latitude":55.22956,"Longitude":25.41356}},"Address":{"Label":"Amatų gatvė, LT-33111 Molėtai, Lietuva","Country":"LTU","State":"Utenos Apskritis","County":"Molėtų rajono savivaldybė","City":"Molėtai","District":"Molėtai","Street":"Amatų gatvė","PostalCode":"33111","AdditionalData":[{"value":"Lietuva","key":"CountryName"},{"value":"Utenos Apskritis","key":"StateName"},{"value":"Molėtų rajono savivaldybė","key":"CountyName"}]},"MapReference":{"ReferenceId":"1056562870","Spot":1.0,"SideOfStreet":"right","CountryId":"20633740","StateId":"23291603","CountyId":"23292263","CityId":"23291666","DistrictId":"23291776"}}},{"Relevance":1.0,"Distance":30.7,"MatchLevel":"street","MatchQuality":{"Country":1.0,"State":1.0,"County":1.0,"City":1.0,"District":1.0,"PostalCode":1.0},"Location":{"LocationId":"NT_o5PmQLn-vLWO6UlcClQwZA_l_752257425_L","LocationType":"point","DisplayPosition":{"Latitude":55.2302,"Longitude":25.41369},"MapView":{"TopLeft":{"Latitude":55.2302,"Longitude":25.41369},"BottomRight":{"Latitude":55.23003,"Longitude":25.41384}},"Address":{"Label":"LT-33111 Molėtai, Lietuva","Country":"LTU","State":"Utenos Apskritis","County":"Molėtų rajono savivaldybė","City":"Molėtai","District":"Molėtai","PostalCode":"33111","AdditionalData":[{"value":"Lietuva","key":"CountryName"},{"value":"Utenos Apskritis","key":"StateName"},{"value":"Molėtų rajono savivaldybė","key":"CountyName"}]},"MapReference":{"ReferenceId":"752257425","Spot":1.0,"SideOfStreet":"left","CountryId":"20633740","StateId":"23291603","CountyId":"23292263","CityId":"23291666","DistrictId":"23291776"}}},{"Relevance":1.0,"Distance":31.7,"MatchLevel":"street","MatchQuality":{"Country":1.0,"State":1.0,"County":1.0,"City":1.0,"District":1.0,"PostalCode":1.0},"Location":{"LocationId":"NT_o5PmQLn-vLWO6UlcClQwZA_l_752629513_L","LocationType":"point","DisplayPosition":{"Latitude":55.230216,"Longitude":25.4136749},"MapView":{"TopLeft":{"Latitude":55.23037,"Longitude":25.41353},"BottomRight":{"Latitude":55.2302,"Longitude":25.41369}},"Address":{"Label":"LT-33111 Molėtai, Lietuva","Country":"LTU","State":"Utenos Apskritis","County":"Molėtų rajono savivaldybė","City":"Molėtai","District":"Molėtai","PostalCode":"33111","AdditionalData":[{"value":"Lietuva","key":"CountryName"},{"value":"Utenos Apskritis","key":"StateName"},{"value":"Molėtų rajono savivaldybė","key":"CountyName"}]},"MapReference":{"ReferenceId":"752629513","Spot":0.09,"SideOfStreet":"left","CountryId":"20633740","StateId":"23291603","CountyId":"23292263","CityId":"23291666","DistrictId":"23291776"}}},{"Relevance":1.0,"Distance":35.8,"MatchLevel":"houseNumber","MatchQuality":{"Country":1.0,"State":1.0,"County":1.0,"City":1.0,"District":1.0,"Street":[1.0],"HouseNumber":1.0,"PostalCode":1.0},"MatchType":"interpolated","Location":{"LocationId":"NT_oX5qUra8S177MljMUiuP8A_zA","LocationType":"point","DisplayPosition":{"Latitude":55.23018,"Longitude":25.41297},"MapView":{"TopLeft":{"Latitude":55.2313042,"Longitude":25.4109988},"BottomRight":{"Latitude":55.2290558,"Longitude":25.4149412}},"Address":{"Label":"Amatų gatvė 3, LT-33102 Molėtai, Lietuva","Country":"LTU","State":"Utenos Apskritis","County":"Molėtų rajono savivaldybė","City":"Molėtai","District":"Molėtai","Street":"Amatų gatvė","HouseNumber":"3","PostalCode":"33102","AdditionalData":[{"value":"Lietuva","key":"CountryName"},{"value":"Utenos Apskritis","key":"StateName"},{"value":"Molėtų rajono savivaldybė","key":"CountyName"}]},"MapReference":{"ReferenceId":"752372228","Spot":0.35,"SideOfStreet":"right","CountryId":"20633740","StateId":"23291603","CountyId":"23292263","CityId":"23291666","DistrictId":"23291776","AddressId":"339449971","RoadLinkId":"148275477"}}},{"Relevance":1.0,"Distance":44.8,"MatchLevel":"street","MatchQuality":{"Country":1.0,"State":1.0,"County":1.0,"City":1.0,"District":1.0,"Street":[1.0],"PostalCode":1.0},"Location":{"LocationId":"NT_yY-vhVjo0cgV31nuAOiw8A_l_752334544_L","LocationType":"point","DisplayPosition":{"Latitude":55.23037,"Longitude":25.41353},"MapView":{"TopLeft":{"Latitude":55.23058,"Longitude":25.41275},"BottomRight":{"Latitude":55.23037,"Longitude":25.41353}},"Address":{"Label":"Jaunimo aikštė, LT-33111 Molėtai, Lietuva","Country":"LTU","State":"Utenos Apskritis","County":"Molėtų rajono savivaldybė","City":"Molėtai","District":"Molėtai","Street":"Jaunimo aikštė","PostalCode":"33111","AdditionalData":[{"value":"Lietuva","key":"CountryName"},{"value":"Utenos Apskritis","key":"StateName"},{"value":"Molėtų rajono savivaldybė","key":"CountyName"}]},"MapReference":{"ReferenceId":"752334544","Spot":0.0,"SideOfStreet":"left","CountryId":"20633740","StateId":"23291603","CountyId":"23292263","CityId":"23291666","DistrictId":"23291776"}}},{"Relevance":1.0,"Distance":46.7,"MatchLevel":"street","MatchQuality":{"Country":1.0,"State":1.0,"County":1.0,"City":1.0,"District":1.0,"Street":[1.0],"PostalCode":1.0},"Location":{"LocationId":"NT_Hidtx93NkamhVUdSrvl2IA_l_1056562869_R","LocationType":"point","DisplayPosition":{"Latitude":55.22956,"Longitude":25.41356},"MapView":{"TopLeft":{"Latitude":55.22956,"Longitude":25.41356},"BottomRight":{"Latitude":55.22948,"Longitude":25.41363}},"Address":{"Label":"Amatų gatvė, LT-33111 Molėtai, Lietuva","Country":"LTU","State":"Utenos Apskritis","County":"Molėtų rajono savivaldybė","City":"Molėtai","District":"Molėtai","Street":"Amatų gatvė","PostalCode":"33111","AdditionalData":[{"value":"Lietuva","key":"CountryName"},{"value":"Utenos Apskritis","key":"StateName"},{"value":"Molėtų rajono savivaldybė","key":"CountyName"}]},"MapReference":{"ReferenceId":"1056562869","Spot":1.0,"SideOfStreet":"right","CountryId":"20633740","StateId":"23291603","CountyId":"23292263","CityId":"23291666","DistrictId":"23291776"}}},{"Relevance":1.0,"Distance":55.1,"MatchLevel":"street","MatchQuality":{"Country":1.0,"State":1.0,"County":1.0,"City":1.0,"District":1.0,"Street":[1.0],"PostalCode":1.0},"Location":{"LocationId":"NT_QLtZbWwd2Ne8b5NATMN-9A_l_1056565629_L","LocationType":"point","DisplayPosition":{"Latitude":55.22951,"Longitude":25.41373},"MapView":{"TopLeft":{"Latitude":55.22959,"Longitude":25.41373},"BottomRight":{"Latitude":55.22951,"Longitude":25.41396}},"Address":{"Label":"Vilniaus gatvė, LT-33102 Molėtai, Lietuva","Country":"LTU","State":"Utenos Apskritis","County":"Molėtų rajono savivaldybė","City":"Molėtai","District":"Molėtai","Street":"Vilniaus gatvė","PostalCode":"33102","AdditionalData":[{"value":"Lietuva","key":"CountryName"},{"value":"Utenos Apskritis","key":"StateName"},{"value":"Molėtų rajono savivaldybė","key":"CountyName"}]},"MapReference":{"ReferenceId":"1056565629","Spot":0.0,"SideOfStreet":"left","CountryId":"20633740","StateId":"23291603","CountyId":"23292263","CityId":"23291666","DistrictId":"23291776"}}}]}]}}