{"Response":{"MetaInfo":{"Timestamp":"2020-03-28T10:26:02.610+0000","NextPageInformation":"2"},"View":[{"_type":"SearchResultsViewType","ViewId":0,"Result":[{"Relevance":1.0,"Distance":-19549.5,"MatchLevel":"landmark","MatchQuality":{"Country":1.0,"State":1.0,"Name":1.0},"Location":{"LocationId":"NT_MMnYkDFipG7TssmApPSS8D","LocationType":"island","Name":"Fyn","DisplayPosition":{"Latitude":55.32473,"Longitude":10.34705},"MapView":{"TopLeft":{"Latitude":55.62276,"Longitude":9.67698},"BottomRight":{"Latitude":55.0267,"Longitude":10.8561}},"Address":{"Label":"Danmark","Country":"DNK","State":"Syddanmark","AdditionalData":[{"value":"Danmark","key":"CountryName"},{"value":"Syddanmark","key":"StateName"}]},"MapReference":{"CountryId":"20298369","StateId":"20367950","PlaceId":"20644429"}}},{"Relevance":1.0,"Distance":0.0,"Direction":0.0,"MatchLevel":"city","MatchQuality":{"Country":1.0,"State":1.0,"County":1.0,"City":1.0,"PostalCode":1.0},"Location":{"LocationId":"NT_NDBy2pZu3KaDRS33z4IwmD","LocationType":"point","DisplayPosition":{"Latitude":55.3934655,"Longitude":10.3850639},"MapView":{"TopLeft":{"Latitude":55.40968,"Longitude":10.36704},"BottomRight":{"Latitude":55.3827,"Longitude":10.41454}},"Address":{"Label":"Odense C, Syddanmark, Danmark","Country":"DNK","State":"Syddanmark","County":"Odense","City":"Odense C","PostalCode":"5000","AdditionalData":[{"value":"Danmark","key":"CountryName"},{"value":"Syddanmark","key":"StateName"},{"value":"Odense","key":"CountyName"}]},"MapReference":{"ReferenceId":"757112116","SideOfStreet":"neither","CountryId":"20298369","StateId":"20367950","CountyId":"20367970","CityId":"20367992"}}},{"Relevance":1.0,"Distance":4.0,"MatchLevel":"houseNumber","MatchQuality":{"Country":1.0,"State":1.0,"County":1.0,"City":1.0,"Street":[1.0],"HouseNumber":1.0,"PostalCode":1.0},"MatchType":"interpolated","Location":{"LocationId":"NT_jjRzQjkfbvpiw7fNGU3vlB_xgzQ","LocationType":"point","DisplayPosition":{"Latitude":55.39343,"Longitude":10.38507},"MapView":{"TopLeft":{"Latitude":55.3945542,"Longitude":10.3830906},"BottomRight":{"Latitude":55.3923058,"Longitude":10.3870494}},"Address":{"Label":"Holsedore 18C, 5000 Odense C, Danmark","Country":"DNK","State":"Syddanmark","County":"Odense","City":"Odense C","Street":"Holsedore","HouseNumber":"18C","PostalCode":"5000","AdditionalData":[{"value":"Danmark","key":"CountryName"},{"value":"Syddanmark","key":"StateName"},{"value":"Odense","key":"CountyName"}]},"MapReference":{"ReferenceId":"32572198","Spot":0.24,"SideOfStreet":"right","CountryId":"20298369","StateId":"20367950","CountyId":"20367970","CityId":"20854849","AddressId":"767810458","RoadLinkId":"100381090"}}},{"Relevance":1.0,"Distance":23.6,"MatchLevel":"houseNumber","MatchQuality":{"Country":1.0,"State":1.0,"County":1.0,"City":1.0,"Street":[1.0],"HouseNumber":1.0,"PostalCode":1.0},"MatchType":"interpolated","Location":{"LocationId":"NT_7O5tMNb7VWPqb2bxrrKodD_0A","LocationType":"point","DisplayPosition":{"Latitude":55.39365,"Longitude":10.38455},"MapView":{"TopLeft":{"Latitude":55.3947742,"Longitude":10.3825706},"BottomRight":{"Latitude":55.3925258,"Longitude":10.3865294}},"Address":{"Label":"Sankt Anne Plads 4, 5000 Odense C, Danmark","Country":"DNK","State":"Syddanmark","County":"Odense","City":"Odense C","Street":"Sankt Anne Plads","HouseNumber":"4","PostalCode":"5000","AdditionalData":[{"value":"Danmark","key":"CountryName"},{"value":"Syddanmark","key":"StateName"},{"value":"Odense","key":"CountyName"}]},"MapReference":{"ReferenceId":"32572131","Spot":0.29,"SideOfStreet":"right","CountryId":"20298369","StateId":"20367950","CountyId":"20367970","CityId":"20854849","AddressId":"200256212","RoadLinkId":"100052350"}}},{"Relevance":1.0,"Distance":25.4,"MatchLevel":"houseNumber","MatchQuality":{"Country":1.0,"State":1.0,"County":1.0,"City":1.0,"Street":[1.0],"HouseNumber":1.0,"PostalCode":1.0},"MatchType":"interpolated","Location":{"LocationId":"NT_ck278Gq.ldCghAP8JbZbRD_3A","LocationType":"point","DisplayPosition":{"Latitude":55.39316,"Longitude":10.38487},"MapView":{"TopLeft":{"Latitude":55.3942842,"Longitude":10.3828907},"BottomRight":{"Latitude":55.3920358,"Longitude":10.3868493}},"Address":{"Label":"Filosofgangen 7, 5000 Odense C, Danmark","Country":"DNK","State":"Syddanmark","County":"Odense","City":"Odense C","Street":"Filosofgangen","HouseNumber":"7","PostalCode":"5000","AdditionalData":[{"value":"Danmark","key":"CountryName"},{"value":"Syddanmark","key":"StateName"},{"value":"Odense","key":"CountyName"}]},"MapReference":{"ReferenceId":"869314029","Spot":0.28,"SideOfStreet":"right","CountryId":"20298369","StateId":"20367950","CountyId":"20367970","CityId":"20854849","AddressId":"200619037","RoadLinkId":"241675888"}}},{"Relevance":1.0,"Distance":32.5,"MatchLevel":"street","MatchQuality":{"Country":1.0,"State":1.0,"County":1.0,"City":1.0,"Street":[1.0],"PostalCode":1.0},"Location":{"LocationId":"NT_7O5tMNb7VWPqb2bxrrKodD_l_907359075_R","LocationType":"point","DisplayPosition":{"Latitude":55.3934655,"Longitude":10.38455},"MapView":{"TopLeft":{"Latitude":55.39356,"Longitude":10.38455},"BottomRight":{"Latitude":55.39344,"Longitude":10.38455}},"Address":{"Label":"Sankt Anne Plads, 5000 Odense C, Danmark","Country":"DNK","State":"Syddanmark","County":"Odense","City":"Odense C","Street":"Sankt Anne Plads","PostalCode":"5000","AdditionalData":[{"value":"Danmark","key":"CountryName"},{"value":"Syddanmark","key":"StateName"},{"value":"Odense","key":"CountyName"}]},"MapReference":{"ReferenceId":"907359075","Spot":0.21,"SideOfStreet":"right","CountryId":"20298369","StateId":"20367950","CountyId":"20367970","CityId":"20854849"}}},{"Relevance":1.0,"Distance":32.6,"MatchLevel":"street","MatchQuality":{"Country":1.0,"State":1.0,"County":1.0,"City":1.0,"Street":[1.0],"PostalCode":1.0},"Location":{"LocationId":"NT_7O5tMNb7VWPqb2bxrrKodD_l_907359074_R","LocationType":"point","DisplayPosition":{"Latitude":55.39344,"Longitude":10.38455},"MapView":{"TopLeft":{"Latitude":55.39344,"Longitude":10.38454},"BottomRight":{"Latitude":55.39316,"Longitude":10.38455}},"Address":{"Label":"Sankt Anne Plads, 5000 Odense C, Danmark","Country":"DNK","State":"Syddanmark","County":"Odense","City":"Odense C","Street":"Sankt Anne Plads","PostalCode":"5000","AdditionalData":[{"value":"Danmark","key":"CountryName"},{"value":"Syddanmark","key":"StateName"},{"value":"Odense","key":"CountyName"}]},"MapReference":{"ReferenceId":"907359074","Spot":1.0,"SideOfStreet":"right","CountryId":"20298369","StateId":"20367950","CountyId":"20367970","CityId":"20854849"}}},{"Relevance":1.0,"Distance":37.3,"MatchLevel":"houseNumber","MatchQuality":{"Country":1.0,"State":1.0,"County":1.0,"City":1.0,"Street":[1.0],"HouseNumber":1.0,"PostalCode":1.0},"MatchType":"interpolated","Location":{"LocationId":"NT_ck278Gq.ldCghAP8JbZbRD_xQD","LocationType":"point","DisplayPosition":{"Latitude":55.39313,"Longitude":10.38509},"MapView":{"TopLeft":{"Latitude":55.3942542,"Longitude":10.3831107},"BottomRight":{"Latitude":55.3920058,"Longitude":10.3870693}},"Address":{"Label":"Filosofgangen 14, 5000 Odense C, Danmark","Country":"DNK","State":"Syddanmark","County":"Odense","City":"Odense C","Street":"Filosofgangen","HouseNumber":"14","PostalCode":"5000","AdditionalData":[{"value":"Danmark","key":"CountryName"},{"value":"Syddanmark","key":"StateName"},{"value":"Odense","key":"CountyName"}]},"MapReference":{"ReferenceId":"1220969595","Spot":0.83,"SideOfStreet":"left","CountryId":"20298369","StateId":"20367950","CountyId":"20367970","CityId":"20854849","AddressId":"200962730","RoadLinkId":"538273777"}}},{"Relevance":1.0,"Distance":43.8,"MatchLevel":"houseNumber","MatchQuality":{"Country":1.0,"State":1.0,"County":1.0,"City":1.0,"Street":[1.0],"HouseNumber":1.0,"PostalCode":1.0},"MatchType":"interpolated","Location":{"LocationId":"NT_Sj8U4TqR2jZV66e7KnZvyA_xUD","LocationType":"point","DisplayPosition":{"Latitude":55.39387,"Longitude":10.38438},"MapView":{"TopLeft":{"Latitude":55.3949942,"Longitude":10.3824006},"BottomRight":{"Latitude":55.3927458,"Longitude":10.3863594}},"Address":{"Label":"Filosofhaven 15, 5000 Odense C, Danmark","Country":"DNK","State":"Syddanmark","County":"Odense","City":"Odense C","Street":"Filosofhaven","HouseNumber":"15","PostalCode":"5000","AdditionalData":[{"value":"Danmark","key":"CountryName"},{"value":"Syddanmark","key":"StateName"},{"value":"Odense","key":"CountyName"}]},"MapReference":{"ReferenceId":"32572080","Spot":0.86,"SideOfStreet":"right","CountryId":"20298369","StateId":"20367950","CountyId":"20367970","CityId":"20854849","AddressId":"200878651","RoadLinkId":"100223678"}}},{"Relevance":1.0,"Distance":47.8,"MatchLevel":"houseNumber","MatchQuality":{"Country":1.0,"State":1.0,"County":1.0,"City":1.0,"Street":[1.0],"HouseNumber":1.0,"PostalCode":1.0},"MatchType":"interpolated","Location":{"LocationId":"NT_ck278Gq.ldCghAP8JbZbRD_5A","LocationType":"point","DisplayPosition":{"Latitude":55.39315,"Longitude":10.38439},"MapView":{"TopLeft":{"Latitude":55.3942742,"Longitude":10.3824107},"BottomRight":{"Latitude":55.3920258,"Longitude":10.3863693}},"Address":{"Label":"Filosofgangen 9, 5000 Odense C, Danmark","Country":"DNK","State":"Syddanmark","County":"Odense","City":"Odense C","Street":"Filosofgangen","HouseNumber":"9","PostalCode":"5000","AdditionalData":[{"value":"Danmark","key":"CountryName"},{"value":"Syddanmark","key":"StateName"},{"value":"Odense","key":"CountyName"}]},"MapReference":{"ReferenceId":"1220969583","Spot":0.8,"SideOfStreet":"left","CountryId":"20298369","StateId":"20367950","CountyId":"20367970","CityId":"20854849","AddressId":"199815208","RoadLinkId":"538273755"}}}]}]}}