{"Response":{"MetaInfo":{"Timestamp":"2020-03-28T11:03:07.712+0000","NextPageInformation":"2"},"View":[{"_type":"SearchResultsViewType","ViewId":0,"Result":[{"Relevance":1.0,"Distance":-7.7,"MatchLevel":"landmark","MatchQuality":{"Country":1.0,"State":1.0,"County":1.0,"City":1.0,"Street":[1.0],"HouseNumber":1.0,"PostalCode":1.0,"Name":1.0},"Location":{"LocationId":"NT_-ioZ.4QTogTxM-FcouTFMA_p_MopnHSvu1EC3xAgTvcK-BA","LocationType":"hospital","Name":"Sydvestjysk Sygehus Esbjerg","DisplayPosition":{"Latitude":55.47371,"Longitude":8.45663},"MapView":{"TopLeft":{"Latitude":55.4748342,"Longitude":8.4546466},"BottomRight":{"Latitude":55.4725858,"Longitude":8.4586134}},"Address":{"Label":"Finsensgade 35, 6700 Esbjerg, Danmark","Country":"DNK","State":"Syddanmark","County":"Esbjerg","City":"Esbjerg","Street":"Finsensgade","HouseNumber":"35","PostalCode":"6700","AdditionalData":[{"value":"Danmark","key":"CountryName"},{"value":"Syddanmark","key":"StateName"},{"value":"Esbjerg","key":"CountyName"}]},"MapReference":{"CountryId":"20298369","StateId":"20367950","CountyId":"20368704","CityId":"20368711","PlaceId":"67643308"}}},{"Relevance":1.0,"Distance":0.0,"Direction":0.0,"MatchLevel":"city","MatchQuality":{"Country":1.0,"State":1.0,"County":1.0,"City":1.0,"PostalCode":1.0},"Location":{"LocationId":"NT_.KCPlgK4bz8mZrdO838zjA","LocationType":"point","DisplayPosition":{"Latitude":55.4734797,"Longitude":8.455534},"MapView":{"TopLeft":{"Latitude":55.50156,"Longitude":8.40928},"BottomRight":{"Latitude":55.44733,"Longitude":8.50611}},"Address":{"Label":"Esbjerg, Syddanmark, Danmark","Country":"DNK","State":"Syddanmark","County":"Esbjerg","City":"Esbjerg","PostalCode":"6700","AdditionalData":[{"value":"Danmark","key":"CountryName"},{"value":"Syddanmark","key":"StateName"},{"value":"Esbjerg","key":"CountyName"}]},"MapReference":{"ReferenceId":"906543183","SideOfStreet":"neither","CountryId":"20298369","StateId":"20367950","CountyId":"20368704","CityId":"20368711"}}},{"Relevance":1.0,"Distance":0.6,"MatchLevel":"street","MatchQuality":{"Country":1.0,"State":1.0,"County":1.0,"City":1.0,"PostalCode":1.0},"Location":{"LocationId":"NT_NOprf5XpFSfirb25xU-AbD_l_1075595565_L","LocationType":"point","DisplayPosition":{"Latitude":55.4734768,"Longitude":8.4555426},"MapView":{"TopLeft":{"Latitude":55.47406,"Longitude":8.45552},"BottomRight":{"Latitude":55.47341,"Longitude":8.45574}},"Address":{"Label":"6700 Esbjerg, Danmark","Country":"DNK","State":"Syddanmark","County":"Esbjerg","City":"Esbjerg","PostalCode":"6700","AdditionalData":[{"value":"Danmark","key":"CountryName"},{"value":"Syddanmark","key":"StateName"},{"value":"Esbjerg","key":"CountyName"}]},"MapReference":{"ReferenceId":"1075595565","Spot":0.1,"SideOfStreet":"neither","CountryId":"20298369","StateId":"20367950","CountyId":"20368704","CityId":"20368711"}}},{"Relevance":1.0,"Distance":11.6,"MatchLevel":"street","MatchQuality":{"Country":1.0,"State":1.0,"County":1.0,"City":1.0,"PostalCode":1.0},"Location":{"LocationId":"NT_NOprf5XpFSfirb25xU-AbD_l_1075595576_L","LocationType":"point","DisplayPosition":{"Latitude":55.47351,"Longitude":8.45571},"MapView":{"TopLeft":{"Latitude":55.47371,"Longitude":8.45571},"BottomRight":{"Latitude":55.47351,"Longitude":8.45579}},"Address":{"Label":"6700 Esbjerg, Danmark","Country":"DNK","State":"Syddanmark","County":"Esbjerg","City":"Esbjerg","PostalCode":"6700","AdditionalData":[{"value":"Danmark","key":"CountryName"},{"value":"Syddanmark","key":"StateName"},{"value":"Esbjerg","key":"CountyName"}]},"MapReference":{"ReferenceId":"1075595576","Spot":0.0,"SideOfStreet":"left","CountryId":"20298369","StateId":"20367950","CountyId":"20368704","CityId":"20368711"}}},{"Relevance":1.0,"Distance":16.2,"MatchLevel":"houseNumber","MatchQuality":{"Country":1.0,"State":1.0,"County":1.0,"City":1.0,"Street":[1.0],"HouseNumber":1.0,"PostalCode":1.0},"MatchType":"interpolated","Location":{"LocationId":"NT_vGzyIDXkuA2E94z1SbW32C_5A","LocationType":"point","DisplayPosition":{"Latitude":55.47344,"Longitude":8.45527},"MapView":{"TopLeft":{"Latitude":55.4745642,"Longitude":8.4532866},"BottomRight":{"Latitude":55.4723158,"Longitude":8.4572534}},"Address":{"Label":"Gormsgade 9, 6700 Esbjerg, Danmark","Country":"DNK","State":"Syddanmark","County":"Esbjerg","City":"Esbjerg","Street":"Gormsgade","HouseNumber":"9","PostalCode":"6700","AdditionalData":[{"value":"Danmark","key":"CountryName"},{"value":"Syddanmark","key":"StateName"},{"value":"Esbjerg","key":"CountyName"}]},"MapReference":{"ReferenceId":"1075595564","Spot":0.24,"SideOfStreet":"right","CountryId":"20298369","StateId":"20367950","CountyId":"20368704","CityId":"20368711","AddressId":"200859820","RoadLinkId":"395763070"}}},{"Relevance":1.0,"Distance":19.9,"MatchLevel":"houseNumber","MatchQuality":{"Country":1.0,"State":1.0,"County":1.0,"City":1.0,"Street":[1.0],"HouseNumber":1.0,"PostalCode":1.0},"MatchType":"interpolated","Location":{"LocationId":"NT_vGzyIDXkuA2E94z1SbW32C_l_1075595570_R_3A","LocationType":"point","DisplayPosition":{"Latitude":55.47337,"Longitude":8.45583},"MapView":{"TopLeft":{"Latitude":55.4744942,"Longitude":8.4538466},"BottomRight":{"Latitude":55.4722458,"Longitude":8.4578134}},"Address":{"Label":"Gormsgade 7, 6700 Esbjerg, Danmark","Country":"DNK","State":"Syddanmark","County":"Esbjerg","City":"Esbjerg","Street":"Gormsgade","HouseNumber":"7","PostalCode":"6700","AdditionalData":[{"value":"Danmark","key":"CountryName"},{"value":"Syddanmark","key":"StateName"},{"value":"Esbjerg","key":"CountyName"}]},"MapReference":{"ReferenceId":"1075595570","Spot":0.51,"SideOfStreet":"right","CountryId":"20298369","StateId":"20367950","CountyId":"20368704","CityId":"20368711"}}},{"Relevance":1.0,"Distance":27.5,"MatchLevel":"street","MatchQuality":{"Country":1.0,"State":1.0,"County":1.0,"City":1.0,"PostalCode":1.0},"Location":{"LocationId":"NT_NOprf5XpFSfirb25xU-AbD_l_1075595573_L","LocationType":"point","DisplayPosition":{"Latitude":55.47348,"Longitude":8.45597},"MapView":{"TopLeft":{"Latitude":55.47368,"Longitude":8.45597},"BottomRight":{"Latitude":55.47348,"Longitude":8.45604}},"Address":{"Label":"6700 Esbjerg, Danmark","Country":"DNK","State":"Syddanmark","County":"Esbjerg","City":"Esbjerg","PostalCode":"6700","AdditionalData":[{"value":"Danmark","key":"CountryName"},{"value":"Syddanmark","key":"StateName"},{"value":"Esbjerg","key":"CountyName"}]},"MapReference":{"ReferenceId":"1075595573","Spot":0.0,"SideOfStreet":"left","CountryId":"20298369","StateId":"20367950","CountyId":"20368704","CityId":"20368711"}}},{"Relevance":1.0,"Distance":30.3,"MatchLevel":"street","MatchQuality":{"Country":1.0,"State":1.0,"County":1.0,"City":1.0,"Street":[1.0],"PostalCode":1.0},"Location":{"LocationId":"NT_txyhUbHb5EovhuoAwaaVlD_l_1075595574_L","LocationType":"point","DisplayPosition":{"Latitude":55.47371,"Longitude":8.45579},"MapView":{"TopLeft":{"Latitude":55.47371,"Longitude":8.45579},"BottomRight":{"Latitude":55.47368,"Longitude":8.45604}},"Address":{"Label":"Finsensgade, 6700 Esbjerg, Danmark","Country":"DNK","State":"Syddanmark","County":"Esbjerg","City":"Esbjerg","Street":"Finsensgade","PostalCode":"6700","AdditionalData":[{"value":"Danmark","key":"CountryName"},{"value":"Syddanmark","key":"StateName"},{"value":"Esbjerg","key":"CountyName"}]},"MapReference":{"ReferenceId":"1075595574","Spot":1.0,"SideOfStreet":"left","CountryId":"20298369","StateId":"20367950","CountyId":"20368704","CityId":"20368711"}}},{"Relevance":1.0,"Distance":30.3,"MatchLevel":"street","MatchQuality":{"Country":1.0,"State":1.0,"County":1.0,"City":1.0,"Street":[1.0],"PostalCode":1.0},"Location":{"LocationId":"NT_txyhUbHb5EovhuoAwaaVlD_l_1075595575_L","LocationType":"point","DisplayPosition":{"Latitude":55.47371,"Longitude":8.45579},"MapView":{"TopLeft":{"Latitude":55.47404,"Longitude":8.45579},"BottomRight":{"Latitude":55.47371,"Longitude":8.4559}},"Address":{"Label":"Finsensgade, 6700 Esbjerg, Danmark","Country":"DNK","State":"Syddanmark","County":"Esbjerg","City":"Esbjerg","Street":"Finsensgade","PostalCode":"6700","AdditionalData":[{"value":"Danmark","key":"CountryName"},{"value":"Syddanmark","key":"StateName"},{"value":"Esbjerg","key":"CountyName"}]},"MapReference":{"ReferenceId":"1075595575","Spot":0.0,"SideOfStreet":"left","CountryId":"20298369","StateId":"20367950","CountyId":"20368704","CityId":"20368711"}}},{"Relevance":1.0,"Distance":38.9,"MatchLevel":"street","MatchQuality":{"Country":1.0,"State":1.0,"County":1.0,"City":1.0,"Street":[1.0],"PostalCode":1.0},"Location":{"LocationId":"NT_txyhUbHb5EovhuoAwaaVlD_l_1075595572_L","LocationType":"point","DisplayPosition":{"Latitude":55.47368,"Longitude":8.45604},"MapView":{"TopLeft":{"Latitude":55.47368,"Longitude":8.45604},"BottomRight":{"Latitude":55.47366,"Longitude":8.45626}},"Address":{"Label":"Finsensgade, 6700 Esbjerg, Danmark","Country":"DNK","State":"Syddanmark","County":"Esbjerg","City":"Esbjerg","Street":"Finsensgade","PostalCode":"6700","AdditionalData":[{"value":"Danmark","key":"CountryName"},{"value":"Syddanmark","key":"StateName"},{"value":"Esbjerg","key":"CountyName"}]},"MapReference":{"ReferenceId":"1075595572","Spot":1.0,"SideOfStreet":"left","CountryId":"20298369","StateId":"20367950","CountyId":"20368704","CityId":"20368711"}}}]}]}}