{"Response":{"MetaInfo":{"Timestamp":"2020-03-28T09:56:37.989+0000","NextPageInformation":"2"},"View":[{"_type":"SearchResultsViewType","ViewId":0,"Result":[{"Relevance":1.0,"Distance":0.0,"Direction":0.0,"MatchLevel":"district","MatchQuality":{"Country":1.0,"State":1.0,"County":1.0,"City":1.0,"District":1.0,"PostalCode":1.0},"Location":{"LocationId":"NT_yDKJw4Bc3cUWi.yMCcOHDD","LocationType":"point","DisplayPosition":{"Latitude":55.4980503,"Longitude":25.597373},"MapView":{"TopLeft":{"Latitude":55.52326,"Longitude":25.5507},"BottomRight":{"Latitude":55.47799,"Longitude":25.6548}},"Address":{"Label":"Utena, Utenos Apskritis, Lietuva","Country":"LTU","State":"Utenos Apskritis","County":"Utenos rajono savivaldybė","City":"Utena","District":"Utena","PostalCode":"28142","AdditionalData":[{"value":"Lietuva","key":"CountryName"},{"value":"Utenos Apskritis","key":"StateName"},{"value":"Utenos rajono savivaldybė","key":"CountyName"}]},"MapReference":{"ReferenceId":"752238398","SideOfStreet":"neither","CountryId":"20633740","StateId":"23291603","CountyId":"23292717","CityId":"25406377","DistrictId":"23292548"}}},{"Relevance":1.0,"Distance":5.7,"MatchLevel":"houseNumber","MatchQuality":{"Country":1.0,"State":1.0,"County":1.0,"City":1.0,"District":1.0,"Street":[1.0],"HouseNumber":1.0,"PostalCode":1.0},"MatchType":"interpolated","Location":{"LocationId":"NT_jqbu0o4Jn2sBx9743aq.OB_1QD","LocationType":"point","DisplayPosition":{"Latitude":55.49764,"Longitude":25.59765},"MapView":{"TopLeft":{"Latitude":55.4987642,"Longitude":25.5956654},"BottomRight":{"Latitude":55.4965158,"Longitude":25.5996346}},"Address":{"Label":"J. Basanavičiaus gatvė 54, LT-28142 Utena, Lietuva","Country":"LTU","State":"Utenos Apskritis","County":"Utenos rajono savivaldybė","City":"Utena","District":"Utena","Street":"J. Basanavičiaus gatvė","HouseNumber":"54","PostalCode":"28142","AdditionalData":[{"value":"Lietuva","key":"CountryName"},{"value":"Utenos Apskritis","key":"StateName"},{"value":"Utenos rajono savivaldybė","key":"CountyName"}]},"MapReference":{"ReferenceId":"832523323","Spot":0.02,"SideOfStreet":"left","CountryId":"20633740","StateId":"23291603","CountyId":"23292717","CityId":"25406377","DistrictId":"23292548","AddressId":"667582024","RoadLinkId":"215685814"}}},{"Relevance":1.0,"Distance":5.9,"MatchLevel":"landmark","MatchQuality":{"Country":1.0,"State":1.0,"County":1.0,"City":1.0,"District":1.0,"Name":1.0},"Location":{"LocationId":"NT_G12HGtNd4oN4QZy.JQcwiA_p_l5iD1-asCWMYICrIu7y5PC","LocationType":"shoppingCentre","Name":"Senukai","DisplayPosition":{"Latitude":55.49831,"Longitude":25.5963},"MapView":{"TopLeft":{"Latitude":55.49925,"Longitude":25.59501},"BottomRight":{"Latitude":55.49735,"Longitude":25.59894}},"Address":{"Label":"Utena, Lietuva","Country":"LTU","State":"Utenos Apskritis","County":"Utenos rajono savivaldybė","City":"Utena","District":"Utena","AdditionalData":[{"value":"Lietuva","key":"CountryName"},{"value":"Utenos Apskritis","key":"StateName"},{"value":"Utenos rajono savivaldybė","key":"CountyName"}]},"MapReference":{"CountryId":"20633740","StateId":"23291603","CountyId":"23292717","CityId":"25406377","DistrictId":"23292548","PlaceId":"1039110433"}}},{"Relevance":1.0,"Distance":18.0,"MatchLevel":"street","MatchQuality":{"Country":1.0,"State":1.0,"County":1.0,"City":1.0,"District":1.0,"PostalCode":1.0},"Location":{"LocationId":"NT_Rhc9p6k-akdTmm8BJPftqB_l_1239877690_L","LocationType":"point","DisplayPosition":{"Latitude":55.4982,"Longitude":25.59748},"MapView":{"TopLeft":{"Latitude":55.49894,"Longitude":25.59717},"BottomRight":{"Latitude":55.4982,"Longitude":25.59773}},"Address":{"Label":"LT-28142 Utena, Lietuva","Country":"LTU","State":"Utenos Apskritis","County":"Utenos rajono savivaldybė","City":"Utena","District":"Utena","PostalCode":"28142","AdditionalData":[{"value":"Lietuva","key":"CountryName"},{"value":"Utenos Apskritis","key":"StateName"},{"value":"Utenos rajono savivaldybė","key":"CountyName"}]},"MapReference":{"ReferenceId":"1239877690","Spot":0.23,"SideOfStreet":"left","CountryId":"20633740","StateId":"23291603","CountyId":"23292717","CityId":"25406377","DistrictId":"23292548"}}},{"Relevance":1.0,"Distance":31.6,"MatchLevel":"street","MatchQuality":{"Country":1.0,"State":1.0,"County":1.0,"City":1.0,"District":1.0,"PostalCode":1.0},"Location":{"LocationId":"NT_Rhc9p6k-akdTmm8BJPftqB_l_1239877691_R","LocationType":"point","DisplayPosition":{"Latitude":55.49825,"Longitude":25.59773},"MapView":{"TopLeft":{"Latitude":55.49827,"Longitude":25.59773},"BottomRight":{"Latitude":55.49825,"Longitude":25.59786}},"Address":{"Label":"LT-28142 Utena, Lietuva","Country":"LTU","State":"Utenos Apskritis","County":"Utenos rajono savivaldybė","City":"Utena","District":"Utena","PostalCode":"28142","AdditionalData":[{"value":"Lietuva","key":"CountryName"},{"value":"Utenos Apskritis","key":"StateName"},{"value":"Utenos rajono savivaldybė","key":"CountyName"}]},"MapReference":{"ReferenceId":"1239877691","Spot":0.0,"SideOfStreet":"right","CountryId":"20633740","StateId":"23291603","CountyId":"23292717","CityId":"25406377","DistrictId":"23292548"}}},{"Relevance":1.0,"Distance":32.5,"MatchLevel":"street","MatchQuality":{"Country":1.0,"State":1.0,"County":1.0,"City":1.0,"District":1.0},"Location":{"LocationId":"NT_xQZTJVLIm76ggNfDCU3WfB_l_833050158_R","LocationType":"point","DisplayPosition":{"Latitude":55.49776,"Longitude":25.59731},"MapView":{"TopLeft":{"Latitude":55.49776,"Longitude":25.59731},"BottomRight":{"Latitude":55.49763,"Longitude":25.5976}},"Address":{"Label":"Utena, Lietuva","Country":"LTU","State":"Utenos Apskritis","County":"Utenos rajono savivaldybė","City":"Utena","District":"Utena","AdditionalData":[{"value":"Lietuva","key":"CountryName"},{"value":"Utenos Apskritis","key":"StateName"},{"value":"Utenos rajono savivaldybė","key":"CountyName"}]},"MapReference":{"ReferenceId":"833050158","Spot":1.0,"SideOfStreet":"right","CountryId":"20633740","StateId":"23291603","CountyId":"23292717","CityId":"25406377","DistrictId":"23292548"}}},{"Relevance":1.0,"Distance":32.5,"MatchLevel":"street","MatchQuality":{"Country":1.0,"State":1.0,"County":1.0,"City":1.0,"District":1.0},"Location":{"LocationId":"NT_xQZTJVLIm76ggNfDCU3WfB_l_833050159_R","LocationType":"point","DisplayPosition":{"Latitude":55.49776,"Longitude":25.59731},"MapView":{"TopLeft":{"Latitude":55.49826,"Longitude":25.59609},"BottomRight":{"Latitude":55.49763,"Longitude":25.59731}},"Address":{"Label":"Utena, Lietuva","Country":"LTU","State":"Utenos Apskritis","County":"Utenos rajono savivaldybė","City":"Utena","District":"Utena","AdditionalData":[{"value":"Lietuva","key":"CountryName"},{"value":"Utenos Apskritis","key":"StateName"},{"value":"Utenos rajono savivaldybė","key":"CountyName"}]},"MapReference":{"ReferenceId":"833050159","Spot":0.0,"SideOfStreet":"right","CountryId":"20633740","StateId":"23291603","CountyId":"23292717","CityId":"25406377","DistrictId":"23292548"}}},{"Relevance":1.0,"Distance":38.2,"MatchLevel":"street","MatchQuality":{"Country":1.0,"State":1.0,"County":1.0,"City":1.0,"District":1.0,"PostalCode":1.0},"Location":{"LocationId":"NT_Rhc9p6k-akdTmm8BJPftqB_l_1239877662_L","LocationType":"point","DisplayPosition":{"Latitude":55.49821,"Longitude":25.59791},"MapView":{"TopLeft":{"Latitude":55.49821,"Longitude":25.59791},"BottomRight":{"Latitude":55.49794,"Longitude":25.59816}},"Address":{"Label":"LT-28142 Utena, Lietuva","Country":"LTU","State":"Utenos Apskritis","County":"Utenos rajono savivaldybė","City":"Utena","District":"Utena","PostalCode":"28142","AdditionalData":[{"value":"Lietuva","key":"CountryName"},{"value":"Utenos Apskritis","key":"StateName"},{"value":"Utenos rajono savivaldybė","key":"CountyName"}]},"MapReference":{"ReferenceId":"1239877662","Spot":1.0,"SideOfStreet":"left","CountryId":"20633740","StateId":"23291603","CountyId":"23292717","CityId":"25406377","DistrictId":"23292548"}}},{"Relevance":1.0,"Distance":39.2,"MatchLevel":"street","MatchQuality":{"Country":1.0,"State":1.0,"County":1.0,"City":1.0,"District":1.0,"PostalCode":1.0},"Location":{"LocationId":"NT_Rhc9p6k-akdTmm8BJPftqB_l_1239877660_L","LocationType":"point","DisplayPosition":{"Latitude":55.49827,"Longitude":25.59786},"MapView":{"TopLeft":{"Latitude":55.49848,"Longitude":25.59786},"BottomRight":{"Latitude":55.49827,"Longitude":25.5979}},"Address":{"Label":"LT-28142 Utena, Lietuva","Country":"LTU","State":"Utenos Apskritis","County":"Utenos rajono savivaldybė","City":"Utena","District":"Utena","PostalCode":"28142","AdditionalData":[{"value":"Lietuva","key":"CountryName"},{"value":"Utenos Apskritis","key":"StateName"},{"value":"Utenos rajono savivaldybė","key":"CountyName"}]},"MapReference":{"ReferenceId":"1239877660","Spot":0.0,"SideOfStreet":"left","CountryId":"20633740","StateId":"23291603","CountyId":"23292717","CityId":"25406377","DistrictId":"23292548"}}},{"Relevance":1.0,"Distance":39.2,"MatchLevel":"street","MatchQuality":{"Country":1.0,"State":1.0,"County":1.0,"City":1.0,"District":1.0,"PostalCode":1.0},"Location":{"LocationId":"NT_Rhc9p6k-akdTmm8BJPftqB_l_1239877663_L","LocationType":"point","DisplayPosition":{"Latitude":55.49827,"Longitude":25.59786},"MapView":{"TopLeft":{"Latitude":55.49827,"Longitude":25.59786},"BottomRight":{"Latitude":55.49821,"Longitude":25.59791}},"Address":{"Label":"LT-28142 Utena, Lietuva","Country":"LTU","State":"Utenos Apskritis","County":"Utenos rajono savivaldybė","City":"Utena","District":"Utena","PostalCode":"28142","AdditionalData":[{"value":"Lietuva","key":"CountryName"},{"value":"Utenos Apskritis","key":"StateName"},{"value":"Utenos rajono savivaldybė","key":"CountyName"}]},"MapReference":{"ReferenceId":"1239877663","Spot":1.0,"SideOfStreet":"left","CountryId":"20633740","StateId":"23291603","CountyId":"23292717","CityId":"25406377","DistrictId":"23292548"}}}]}]}}