{"Response":{"MetaInfo":{"Timestamp":"2020-03-28T11:15:07.601+0000","NextPageInformation":"2"},"View":[{"_type":"SearchResultsViewType","ViewId":0,"Result":[{"Relevance":1.0,"Distance":0.0,"Direction":0.0,"MatchLevel":"district","MatchQuality":{"Country":1.0,"State":1.0,"County":1.0,"City":1.0,"District":1.0,"PostalCode":1.0},"Location":{"LocationId":"NT_jbtXm4qNsLuhF7ld..JRUA","LocationType":"point","DisplayPosition":{"Latitude":55.4111857,"Longitude":-1.6974076},"MapView":{"TopLeft":{"Latitude":55.41862,"Longitude":-1.72229},"BottomRight":{"Latitude":55.39693,"Longitude":-1.68104}},"Address":{"Label":"Alnwick, England, United Kingdom","Country":"GBR","State":"England","County":"Northumberland","City":"Alnwick","District":"Alnwick","PostalCode":"NE66 1","AdditionalData":[{"value":"United Kingdom","key":"CountryName"},{"value":"England","key":"StateName"},{"value":"Northumberland","key":"CountyName"}]},"MapReference":{"ReferenceId":"27522573","SideOfStreet":"neither","StateId":"20248595","CountyId":"20339029","CityId":"20347627","DistrictId":"20347628"}}},{"Relevance":1.0,"Distance":6.1,"MatchLevel":"street","MatchQuality":{"Country":1.0,"State":1.0,"County":1.0,"City":1.0,"District":1.0,"PostalCode":1.0},"Location":{"LocationId":"NT_1ovVrrbP8.-onebK4HqG9C_l_585775661_R","LocationType":"point","DisplayPosition":{"Latitude":55.41124,"Longitude":-1.69742},"MapView":{"TopLeft":{"Latitude":55.41132,"Longitude":-1.69831},"BottomRight":{"Latitude":55.4102,"Longitude":-1.69688}},"Address":{"Label":"Alnwick, NE66 2, United Kingdom","Country":"GBR","State":"England","County":"Northumberland","City":"Alnwick","District":"Alnwick","PostalCode":"NE66 2","AdditionalData":[{"value":"United Kingdom","key":"CountryName"},{"value":"England","key":"StateName"},{"value":"Northumberland","key":"CountyName"}]},"MapReference":{"ReferenceId":"585775661","Spot":0.69,"SideOfStreet":"right","StateId":"20248595","CountyId":"20339029","CityId":"20347627","DistrictId":"20347628"}}},{"Relevance":1.0,"Distance":33.5,"MatchLevel":"postalCode","MatchQuality":{"PostalCode":1.0},"Location":{"LocationId":"NT_1ovVrrbP8.-onebK4HqG9C_l_585775661_R","LocationType":"point","DisplayPosition":{"Latitude":55.41108,"Longitude":-1.69691},"MapView":{"TopLeft":{"Latitude":55.4200732,"Longitude":-1.7127519},"BottomRight":{"Latitude":55.4020868,"Longitude":-1.6810681}},"Address":{"Label":"NE66 2NS, Alnwick, England, United Kingdom","Country":"GBR","State":"England","County":"Northumberland","City":"Alnwick","PostalCode":"NE66 2NS","AdditionalData":[{"value":"United Kingdom","key":"CountryName"},{"value":"England","key":"StateName"},{"value":"Northumberland","key":"CountyName"}]},"MapReference":{"ReferenceId":"585775661","Spot":0.69,"SideOfStreet":"neither","StateId":"20248595","CountyId":"20339029","CityId":"20347627"}}},{"Relevance":1.0,"Distance":45.1,"MatchLevel":"street","MatchQuality":{"Country":1.0,"State":1.0,"County":1.0,"City":1.0,"District":1.0,"Street":[1.0],"PostalCode":1.0},"Location":{"LocationId":"NT_HGV3wsCgnVQJwUGODwrr7A_l_843745713_L","LocationType":"point","DisplayPosition":{"Latitude":55.4115891,"Longitude":-1.6973386},"MapView":{"TopLeft":{"Latitude":55.41168,"Longitude":-1.69787},"BottomRight":{"Latitude":55.41142,"Longitude":-1.69635}},"Address":{"Label":"Fisher Lane, Alnwick, NE66 2, United Kingdom","Country":"GBR","State":"England","County":"Northumberland","City":"Alnwick","District":"Alnwick","Street":"Fisher Lane","PostalCode":"NE66 2","AdditionalData":[{"value":"United Kingdom","key":"CountryName"},{"value":"England","key":"StateName"},{"value":"Northumberland","key":"CountyName"}]},"MapReference":{"ReferenceId":"843745713","Spot":0.65,"SideOfStreet":"left","StateId":"20248595","CountyId":"20339029","CityId":"20347627","DistrictId":"20347628"}}},{"Relevance":1.0,"Distance":62.2,"MatchLevel":"landmark","MatchQuality":{"Country":1.0,"State":1.0,"County":1.0,"City":1.0,"District":1.0,"Street":[1.0],"PostalCode":1.0,"Name":1.0},"Location":{"LocationId":"NT_qgvUna7tUZamVHT1VbC0aA_p_iJ0SSDk9caG5SS8qoqUypD","LocationType":"park","Name":"Alnwick Castle","DisplayPosition":{"Latitude":55.41515,"Longitude":-1.70887},"MapView":{"TopLeft":{"Latitude":55.4536,"Longitude":-1.78567},"BottomRight":{"Latitude":55.41019,"Longitude":-1.66777}},"Address":{"Label":"Narrowgate, Alnwick, NE66 1, United Kingdom","Country":"GBR","State":"England","County":"Northumberland","City":"Alnwick","District":"Alnwick","Street":"Narrowgate","PostalCode":"NE66 1","AdditionalData":[{"value":"United Kingdom","key":"CountryName"},{"value":"England","key":"StateName"},{"value":"Northumberland","key":"CountyName"}]},"MapReference":{"StateId":"20248595","CountyId":"20339029","CityId":"20347627","DistrictId":"20347628","PlaceId":"1144030745"}}},{"Relevance":1.0,"Distance":62.2,"MatchLevel":"street","MatchQuality":{"Country":1.0,"State":1.0,"County":1.0,"City":1.0,"District":1.0,"Street":[1.0],"PostalCode":1.0},"Location":{"LocationId":"NT_KN1CG8B8x4OmFgVDT7oV7B_l_1083345340_R","LocationType":"point","DisplayPosition":{"Latitude":55.41168,"Longitude":-1.69787},"MapView":{"TopLeft":{"Latitude":55.41168,"Longitude":-1.70028},"BottomRight":{"Latitude":55.41139,"Longitude":-1.69787}},"Address":{"Label":"Denwick Lane, Alnwick, NE66 1, United Kingdom","Country":"GBR","State":"England","County":"Northumberland","City":"Alnwick","District":"Alnwick","Street":"Denwick Lane","PostalCode":"NE66 1","AdditionalData":[{"value":"United Kingdom","key":"CountryName"},{"value":"England","key":"StateName"},{"value":"Northumberland","key":"CountyName"}]},"MapReference":{"ReferenceId":"1083345340","Spot":1.0,"SideOfStreet":"right","StateId":"20248595","CountyId":"20339029","CityId":"20347627","DistrictId":"20347628"}}},{"Relevance":1.0,"Distance":62.2,"MatchLevel":"street","MatchQuality":{"Country":1.0,"State":1.0,"County":1.0,"City":1.0,"District":1.0,"Street":[1.0],"PostalCode":1.0},"Location":{"LocationId":"NT_VllfH3SllXy4owTlx4mPAC_l_843745712_R","LocationType":"point","DisplayPosition":{"Latitude":55.41168,"Longitude":-1.69787},"MapView":{"TopLeft":{"Latitude":55.41282,"Longitude":-1.69787},"BottomRight":{"Latitude":55.41168,"Longitude":-1.69735}},"Address":{"Label":"Denwick Lane, Alnwick, NE66 1, United Kingdom","Country":"GBR","State":"England","County":"Northumberland","City":"Alnwick","District":"Alnwick","Street":"Denwick Lane","PostalCode":"NE66 1","AdditionalData":[{"value":"United Kingdom","key":"CountryName"},{"value":"England","key":"StateName"},{"value":"Northumberland","key":"CountyName"}]},"MapReference":{"ReferenceId":"843745712","Spot":0.0,"SideOfStreet":"right","StateId":"20248595","CountyId":"20339029","CityId":"20347627","DistrictId":"20347628"}}},{"Relevance":1.0,"Distance":71.7,"MatchLevel":"street","MatchQuality":{"Country":1.0,"State":1.0,"County":1.0,"City":1.0,"District":1.0,"Street":[1.0],"PostalCode":1.0},"Location":{"LocationId":"NT_HGV3wsCgnVQJwUGODwrr7A_l_867632822_R","LocationType":"point","DisplayPosition":{"Latitude":55.41142,"Longitude":-1.69635},"MapView":{"TopLeft":{"Latitude":55.41199,"Longitude":-1.69635},"BottomRight":{"Latitude":55.41129,"Longitude":-1.69051}},"Address":{"Label":"Fisher Lane, Alnwick, NE66 2, United Kingdom","Country":"GBR","State":"England","County":"Northumberland","City":"Alnwick","District":"Alnwick","Street":"Fisher Lane","PostalCode":"NE66 2","AdditionalData":[{"value":"United Kingdom","key":"CountryName"},{"value":"England","key":"StateName"},{"value":"Northumberland","key":"CountyName"}]},"MapReference":{"ReferenceId":"867632822","Spot":0.0,"SideOfStreet":"right","StateId":"20248595","CountyId":"20339029","CityId":"20347627","DistrictId":"20347628"}}},{"Relevance":1.0,"Distance":80.5,"MatchLevel":"houseNumber","MatchQuality":{"Country":1.0,"State":1.0,"County":1.0,"City":1.0,"District":1.0,"Street":[1.0],"HouseNumber":1.0,"PostalCode":1.0},"MatchType":"interpolated","Location":{"LocationId":"NT_Th11bSMPUCijM.4l84TQOD_l_27522627_L_yMD","LocationType":"point","DisplayPosition":{"Latitude":55.4110504,"Longitude":-1.6959172},"MapView":{"TopLeft":{"Latitude":55.4121745,"Longitude":-1.6978974},"BottomRight":{"Latitude":55.4099262,"Longitude":-1.693937}},"Address":{"Label":"23 Springfield Park, Alnwick, NE66 2NH, United Kingdom","Country":"GBR","State":"England","County":"Northumberland","City":"Alnwick","District":"Alnwick","Street":"Springfield Park","HouseNumber":"23","PostalCode":"NE66 2NH","AdditionalData":[{"value":"United Kingdom","key":"CountryName"},{"value":"England","key":"StateName"},{"value":"Northumberland","key":"CountyName"}]},"MapReference":{"ReferenceId":"27522627","Spot":0.64,"SideOfStreet":"left","StateId":"20248595","CountyId":"20339029","CityId":"20347627","DistrictId":"20347628"}}},{"Relevance":1.0,"Distance":90.6,"MatchLevel":"street","MatchQuality":{"Country":1.0,"State":1.0,"County":1.0,"City":1.0,"District":1.0,"PostalCode":1.0},"Location":{"LocationId":"NT_RjnhsSpnEy2rV94U0ihpFC_l_901994743_R","LocationType":"point","DisplayPosition":{"Latitude":55.41181,"Longitude":-1.69833},"MapView":{"TopLeft":{"Latitude":55.41308,"Longitude":-1.69922},"BottomRight":{"Latitude":55.41166,"Longitude":-1.69729}},"Address":{"Label":"Alnwick, NE66 1, United Kingdom","Country":"GBR","State":"England","County":"Northumberland","City":"Alnwick","District":"Alnwick","PostalCode":"NE66 1","AdditionalData":[{"value":"United Kingdom","key":"CountryName"},{"value":"England","key":"StateName"},{"value":"Northumberland","key":"CountyName"}]},"MapReference":{"ReferenceId":"901994743","Spot":0.33,"SideOfStreet":"right","StateId":"20248595","CountyId":"20339029","CityId":"20347627","DistrictId":"20347628"}}}]}]}}