{"Response":{"MetaInfo":{"Timestamp":"2020-03-28T10:25:59.921+0000","NextPageInformation":"2"},"View":[{"_type":"SearchResultsViewType","ViewId":0,"Result":[{"Relevance":1.0,"Distance":0.0,"Direction":0.0,"MatchLevel":"city","MatchQuality":{"Country":1.0,"State":1.0,"County":1.0,"City":1.0,"PostalCode":1.0},"Location":{"LocationId":"NT_YPSvAXiOoDV4etJnaE2pZD","LocationType":"point","DisplayPosition":{"Latitude":55.492708,"Longitude":9.482462},"MapView":{"TopLeft":{"Latitude":55.52318,"Longitude":9.42821},"BottomRight":{"Latitude":55.46042,"Longitude":9.56364}},"Address":{"Label":"Kolding, Syddanmark, Danmark","Country":"DNK","State":"Syddanmark","County":"Kolding","City":"Kolding","PostalCode":"6000","AdditionalData":[{"value":"Danmark","key":"CountryName"},{"value":"Syddanmark","key":"StateName"},{"value":"Kolding","key":"CountyName"}]},"MapReference":{"ReferenceId":"1163001471","SideOfStreet":"neither","CountryId":"20298369","StateId":"20367950","CountyId":"20367728","CityId":"20367730"}}},{"Relevance":1.0,"Distance":9.3,"MatchLevel":"houseNumber","MatchQuality":{"Country":1.0,"State":1.0,"County":1.0,"City":1.0,"Street":[1.0],"HouseNumber":1.0,"PostalCode":1.0},"MatchType":"interpolated","Location":{"LocationId":"NT_UMawyrbAO86kIDCy-V4O1D_0AD","LocationType":"point","DisplayPosition":{"Latitude":55.49284,"Longitude":9.48231},"MapView":{"TopLeft":{"Latitude":55.4939642,"Longitude":9.4803257},"BottomRight":{"Latitude":55.4917158,"Longitude":9.4842943}},"Address":{"Label":"Fredericiagade 40, 6000 Kolding, Danmark","Country":"DNK","State":"Syddanmark","County":"Kolding","City":"Kolding","Street":"Fredericiagade","HouseNumber":"40","PostalCode":"6000","AdditionalData":[{"value":"Danmark","key":"CountryName"},{"value":"Syddanmark","key":"StateName"},{"value":"Kolding","key":"CountyName"}]},"MapReference":{"ReferenceId":"34632152","Spot":0.38,"SideOfStreet":"right","CountryId":"20298369","StateId":"20367950","CountyId":"20367728","CityId":"20367730","AddressId":"200020299","RoadLinkId":"99930588"}}},{"Relevance":1.0,"Distance":29.1,"MatchLevel":"houseNumber","MatchQuality":{"Country":1.0,"State":1.0,"County":1.0,"City":1.0,"Street":[1.0],"HouseNumber":1.0,"PostalCode":1.0},"MatchType":"interpolated","Location":{"LocationId":"NT_I7F.voRKAFVwwMxIHcr-zB_5A","LocationType":"point","DisplayPosition":{"Latitude":55.4924,"Longitude":9.48263},"MapView":{"TopLeft":{"Latitude":55.4935242,"Longitude":9.4806457},"BottomRight":{"Latitude":55.4912758,"Longitude":9.4846143}},"Address":{"Label":"Mazantigade 9, 6000 Kolding, Danmark","Country":"DNK","State":"Syddanmark","County":"Kolding","City":"Kolding","Street":"Mazantigade","HouseNumber":"9","PostalCode":"6000","AdditionalData":[{"value":"Danmark","key":"CountryName"},{"value":"Syddanmark","key":"StateName"},{"value":"Kolding","key":"CountyName"}]},"MapReference":{"ReferenceId":"1104179124","Spot":0.16,"SideOfStreet":"left","CountryId":"20298369","StateId":"20367950","CountyId":"20367728","CityId":"20367730","AddressId":"200233752","RoadLinkId":"416057992"}}},{"Relevance":1.0,"Distance":43.3,"MatchLevel":"street","MatchQuality":{"Country":1.0,"State":1.0,"County":1.0,"City":1.0,"Street":[1.0],"PostalCode":1.0},"Location":{"LocationId":"NT_I7F.voRKAFVwwMxIHcr-zB_l_1104179126_R","LocationType":"point","DisplayPosition":{"Latitude":55.49232,"Longitude":9.48252},"MapView":{"TopLeft":{"Latitude":55.49232,"Longitude":9.48252},"BottomRight":{"Latitude":55.49218,"Longitude":9.48283}},"Address":{"Label":"Mazantigade, 6000 Kolding, Danmark","Country":"DNK","State":"Syddanmark","County":"Kolding","City":"Kolding","Street":"Mazantigade","PostalCode":"6000","AdditionalData":[{"value":"Danmark","key":"CountryName"},{"value":"Syddanmark","key":"StateName"},{"value":"Kolding","key":"CountyName"}]},"MapReference":{"ReferenceId":"1104179126","Spot":1.0,"SideOfStreet":"right","CountryId":"20298369","StateId":"20367950","CountyId":"20367728","CityId":"20367730"}}},{"Relevance":1.0,"Distance":46.9,"MatchLevel":"houseNumber","MatchQuality":{"Country":1.0,"State":1.0,"County":1.0,"City":1.0,"Street":[1.0],"HouseNumber":1.0,"PostalCode":1.0},"MatchType":"interpolated","Location":{"LocationId":"NT_x4saDAKdmLhD56lw1bsNGD_xA","LocationType":"point","DisplayPosition":{"Latitude":55.49301,"Longitude":9.48315},"MapView":{"TopLeft":{"Latitude":55.4941342,"Longitude":9.4811656},"BottomRight":{"Latitude":55.4918858,"Longitude":9.4851344}},"Address":{"Label":"Dyrehavegårdsvej 1, 6000 Kolding, Danmark","Country":"DNK","State":"Syddanmark","County":"Kolding","City":"Kolding","Street":"Dyrehavegårdsvej","HouseNumber":"1","PostalCode":"6000","AdditionalData":[{"value":"Danmark","key":"CountryName"},{"value":"Syddanmark","key":"StateName"},{"value":"Kolding","key":"CountyName"}]},"MapReference":{"ReferenceId":"34563921","Spot":0.38,"SideOfStreet":"left","CountryId":"20298369","StateId":"20367950","CountyId":"20367728","CityId":"20367730","AddressId":"200453951","RoadLinkId":"100145058"}}},{"Relevance":1.0,"Distance":59.2,"MatchLevel":"houseNumber","MatchQuality":{"Country":1.0,"State":1.0,"County":1.0,"City":1.0,"Street":[1.0],"HouseNumber":1.0,"PostalCode":1.0},"MatchType":"interpolated","Location":{"LocationId":"NT_I7F.voRKAFVwwMxIHcr-zB_1A","LocationType":"point","DisplayPosition":{"Latitude":55.49215,"Longitude":9.48228},"MapView":{"TopLeft":{"Latitude":55.4932742,"Longitude":9.4802957},"BottomRight":{"Latitude":55.4910258,"Longitude":9.4842643}},"Address":{"Label":"Mazantigade 5, 6000 Kolding, Danmark","Country":"DNK","State":"Syddanmark","County":"Kolding","City":"Kolding","Street":"Mazantigade","HouseNumber":"5","PostalCode":"6000","AdditionalData":[{"value":"Danmark","key":"CountryName"},{"value":"Syddanmark","key":"StateName"},{"value":"Kolding","key":"CountyName"}]},"MapReference":{"ReferenceId":"1104179123","Spot":0.41,"SideOfStreet":"left","CountryId":"20298369","StateId":"20367950","CountyId":"20367728","CityId":"20367730","AddressId":"199338426","RoadLinkId":"416057991"}}},{"Relevance":1.0,"Distance":61.2,"MatchLevel":"houseNumber","MatchQuality":{"Country":1.0,"State":1.0,"County":1.0,"City":1.0,"Street":[1.0],"HouseNumber":1.0,"PostalCode":1.0},"MatchType":"interpolated","Location":{"LocationId":"NT_UMawyrbAO86kIDCy-V4O1D_zID","LocationType":"point","DisplayPosition":{"Latitude":55.49273,"Longitude":9.48139},"MapView":{"TopLeft":{"Latitude":55.4938542,"Longitude":9.4794057},"BottomRight":{"Latitude":55.4916058,"Longitude":9.4833743}},"Address":{"Label":"Fredericiagade 32, 6000 Kolding, Danmark","Country":"DNK","State":"Syddanmark","County":"Kolding","City":"Kolding","Street":"Fredericiagade","HouseNumber":"32","PostalCode":"6000","AdditionalData":[{"value":"Danmark","key":"CountryName"},{"value":"Syddanmark","key":"StateName"},{"value":"Kolding","key":"CountyName"}]},"MapReference":{"ReferenceId":"34563932","Spot":0.67,"SideOfStreet":"right","CountryId":"20298369","StateId":"20367950","CountyId":"20367728","CityId":"20367730","AddressId":"200436669","RoadLinkId":"100340714"}}},{"Relevance":1.0,"Distance":63.1,"MatchLevel":"street","MatchQuality":{"Country":1.0,"State":1.0,"County":1.0,"City":1.0,"Street":[1.0],"PostalCode":1.0},"Location":{"LocationId":"NT_I7F.voRKAFVwwMxIHcr-zB_l_1104179129_R","LocationType":"point","DisplayPosition":{"Latitude":55.49218,"Longitude":9.48283},"MapView":{"TopLeft":{"Latitude":55.49218,"Longitude":9.48283},"BottomRight":{"Latitude":55.49214,"Longitude":9.48292}},"Address":{"Label":"Mazantigade, 6000 Kolding, Danmark","Country":"DNK","State":"Syddanmark","County":"Kolding","City":"Kolding","Street":"Mazantigade","PostalCode":"6000","AdditionalData":[{"value":"Danmark","key":"CountryName"},{"value":"Syddanmark","key":"StateName"},{"value":"Kolding","key":"CountyName"}]},"MapReference":{"ReferenceId":"1104179129","Spot":1.0,"SideOfStreet":"right","CountryId":"20298369","StateId":"20367950","CountyId":"20367728","CityId":"20367730"}}},{"Relevance":1.0,"Distance":63.9,"MatchLevel":"street","MatchQuality":{"Country":1.0,"State":1.0,"County":1.0,"City":1.0,"PostalCode":1.0},"Location":{"LocationId":"NT_fICsPk2LfzRAuqSR83prjA_l_1104179127_L","LocationType":"point","DisplayPosition":{"Latitude":55.4921689,"Longitude":9.482813},"MapView":{"TopLeft":{"Latitude":55.49218,"Longitude":9.4824},"BottomRight":{"Latitude":55.4919,"Longitude":9.48283}},"Address":{"Label":"6000 Kolding, Danmark","Country":"DNK","State":"Syddanmark","County":"Kolding","City":"Kolding","PostalCode":"6000","AdditionalData":[{"value":"Danmark","key":"CountryName"},{"value":"Syddanmark","key":"StateName"},{"value":"Kolding","key":"CountyName"}]},"MapReference":{"ReferenceId":"1104179127","Spot":0.96,"SideOfStreet":"left","CountryId":"20298369","StateId":"20367950","CountyId":"20367728","CityId":"20367730"}}},{"Relevance":1.0,"Distance":65.4,"MatchLevel":"houseNumber","MatchQuality":{"Country":1.0,"State":1.0,"County":1.0,"City":1.0,"Street":[1.0],"HouseNumber":1.0,"PostalCode":1.0},"MatchType":"interpolated","Location":{"LocationId":"NT_YSTNC1HG8WbA0Y1ISYI5zA_yA","LocationType":"point","DisplayPosition":{"Latitude":55.49287,"Longitude":9.48346},"MapView":{"TopLeft":{"Latitude":55.4939942,"Longitude":9.4814756},"BottomRight":{"Latitude":55.4917458,"Longitude":9.4854444}},"Address":{"Label":"Fynsvej 2, 6000 Kolding, Danmark","Country":"DNK","State":"Syddanmark","County":"Kolding","City":"Kolding","Street":"Fynsvej","HouseNumber":"2","PostalCode":"6000","AdditionalData":[{"value":"Danmark","key":"CountryName"},{"value":"Syddanmark","key":"StateName"},{"value":"Kolding","key":"CountyName"}]},"MapReference":{"ReferenceId":"34563920","Spot":0.25,"SideOfStreet":"right","CountryId":"20298369","StateId":"20367950","CountyId":"20367728","CityId":"20367730","AddressId":"199385618","RoadLinkId":"100392846"}}}]}]}}