{"Response":{"MetaInfo":{"Timestamp":"2020-03-31T17:07:37.801+0000","NextPageInformation":"2"},"View":[{"_type":"SearchResultsViewType","ViewId":0,"Result":[{"Relevance":1.0,"Distance":0.0,"Direction":0.0,"MatchLevel":"city","MatchQuality":{"Country":1.0,"State":1.0,"County":1.0,"City":1.0,"PostalCode":1.0},"Location":{"LocationId":"NT_ibxnbk75xbCFWJxbWxsMzC","LocationType":"point","DisplayPosition":{"Latitude":55.5708,"Longitude":13.0667},"MapView":{"TopLeft":{"Latitude":55.63916,"Longitude":12.89924},"BottomRight":{"Latitude":55.54728,"Longitude":13.1137}},"Address":{"Label":"Malmö, Skåne län, Sverige","Country":"SWE","State":"Skåne län","County":"Malmö","City":"Malmö","PostalCode":"211 43","AdditionalData":[{"value":"Sverige","key":"CountryName"},{"value":"Skåne län","key":"StateName"},{"value":"Malmö","key":"CountyName"}]},"MapReference":{"ReferenceId":"1222960958","SideOfStreet":"neither","CountryId":"20298368","StateId":"20299186","CountyId":"20299264","CityId":"20299265"}}},{"Relevance":1.0,"Distance":215.6,"MatchLevel":"street","MatchQuality":{"Country":1.0,"State":1.0,"County":1.0,"City":1.0,"PostalCode":1.0},"Location":{"LocationId":"NT_HdlLGViosU.PuHZZzi8mcC_l_1225945123_L","LocationType":"point","DisplayPosition":{"Latitude":55.57047,"Longitude":13.07008},"MapView":{"TopLeft":{"Latitude":55.57081,"Longitude":13.07008},"BottomRight":{"Latitude":55.57047,"Longitude":13.07024}},"Address":{"Label":"SE-212 35 Malmö, Sverige","Country":"SWE","State":"Skåne län","County":"Malmö","City":"Malmö","PostalCode":"212 35","AdditionalData":[{"value":"Sverige","key":"CountryName"},{"value":"Skåne län","key":"StateName"},{"value":"Malmö","key":"CountyName"}]},"MapReference":{"ReferenceId":"1225945123","Spot":0.0,"SideOfStreet":"left","CountryId":"20298368","StateId":"20299186","CountyId":"20299264","CityId":"20299265"}}},{"Relevance":1.0,"Distance":216.1,"MatchLevel":"landmark","MatchQuality":{"Country":1.0,"State":1.0,"County":1.0,"City":1.0,"PostalCode":1.0,"Name":1.0},"Location":{"LocationId":"NT_olgVJDhQHU20ejZOhKBfPD","LocationType":"industrialComplex","Name":"Elisedals industriområde","DisplayPosition":{"Latitude":55.56629,"Longitude":13.07297},"MapView":{"TopLeft":{"Latitude":55.57083,"Longitude":13.06048},"BottomRight":{"Latitude":55.56174,"Longitude":13.08049}},"Address":{"Label":"SE-211 43 Malmö, Sverige","Country":"SWE","State":"Skåne län","County":"Malmö","City":"Malmö","PostalCode":"211 43","AdditionalData":[{"value":"Sverige","key":"CountryName"},{"value":"Skåne län","key":"StateName"},{"value":"Malmö","key":"CountyName"}]},"MapReference":{"CountryId":"20298368","StateId":"20299186","CountyId":"20299264","CityId":"20299265","PlaceId":"1425940548"}}},{"Relevance":1.0,"Distance":222.6,"MatchLevel":"street","MatchQuality":{"Country":1.0,"State":1.0,"County":1.0,"City":1.0,"PostalCode":1.0},"Location":{"LocationId":"NT_zKZoCjgMx4IF-jmk-VYCfC_l_1225948677_L","LocationType":"point","DisplayPosition":{"Latitude":55.57081,"Longitude":13.07024},"MapView":{"TopLeft":{"Latitude":55.57357,"Longitude":13.07024},"BottomRight":{"Latitude":55.57081,"Longitude":13.0734}},"Address":{"Label":"SE-212 35 Malmö, Sverige","Country":"SWE","State":"Skåne län","County":"Malmö","City":"Malmö","PostalCode":"212 35","AdditionalData":[{"value":"Sverige","key":"CountryName"},{"value":"Skåne län","key":"StateName"},{"value":"Malmö","key":"CountyName"}]},"MapReference":{"ReferenceId":"1225948677","Spot":0.0,"SideOfStreet":"left","CountryId":"20298368","StateId":"20299186","CountyId":"20299264","CityId":"20299264"}}},{"Relevance":1.0,"Distance":270.9,"MatchLevel":"houseNumber","MatchQuality":{"Country":1.0,"State":1.0,"County":1.0,"City":1.0,"Street":[1.0],"HouseNumber":1.0,"PostalCode":1.0},"MatchType":"interpolated","Location":{"LocationId":"NT_Q9Xw3MF9CaJidngnBVBJEC_4EE","LocationType":"point","DisplayPosition":{"Latitude":55.56875,"Longitude":13.07052},"MapView":{"TopLeft":{"Latitude":55.5698742,"Longitude":13.0685318},"BottomRight":{"Latitude":55.5676258,"Longitude":13.0725082}},"Address":{"Label":"Skrittgatan 8A, SE-213 77 Malmö, Sverige","Country":"SWE","State":"Skåne län","County":"Malmö","City":"Malmö","Street":"Skrittgatan","HouseNumber":"8A","PostalCode":"213 77","AdditionalData":[{"value":"Sverige","key":"CountryName"},{"value":"Skåne län","key":"StateName"},{"value":"Malmö","key":"CountyName"}]},"MapReference":{"ReferenceId":"28071032","Spot":0.48,"SideOfStreet":"left","CountryId":"20298368","StateId":"20299186","CountyId":"20299264","CityId":"20299265","AddressId":"217779290","RoadLinkId":"98716156"}}},{"Relevance":1.0,"Distance":324.2,"MatchLevel":"street","MatchQuality":{"Country":1.0,"State":1.0,"County":1.0,"City":1.0,"PostalCode":1.0},"Location":{"LocationId":"NT_xy.4ePBC-bEZy-jhLHQ0YC_l_1235908326_L","LocationType":"point","DisplayPosition":{"Latitude":55.56927,"Longitude":13.07109},"MapView":{"TopLeft":{"Latitude":55.57046,"Longitude":13.07109},"BottomRight":{"Latitude":55.56927,"Longitude":13.07196}},"Address":{"Label":"SE-213 77 Malmö, Sverige","Country":"SWE","State":"Skåne län","County":"Malmö","City":"Malmö","PostalCode":"213 77","AdditionalData":[{"value":"Sverige","key":"CountryName"},{"value":"Skåne län","key":"StateName"},{"value":"Malmö","key":"CountyName"}]},"MapReference":{"ReferenceId":"1235908326","Spot":0.0,"SideOfStreet":"left","CountryId":"20298368","StateId":"20299186","CountyId":"20299264","CityId":"20299265"}}},{"Relevance":1.0,"Distance":338.4,"MatchLevel":"street","MatchQuality":{"Country":1.0,"State":1.0,"County":1.0,"City":1.0,"PostalCode":1.0},"Location":{"LocationId":"NT_qjOnkNXQ3hCi07BaHHJTXC_l_1236712681_R","LocationType":"point","DisplayPosition":{"Latitude":55.5709,"Longitude":13.06132},"MapView":{"TopLeft":{"Latitude":55.57225,"Longitude":13.05767},"BottomRight":{"Latitude":55.5709,"Longitude":13.06132}},"Address":{"Label":"SE-212 37 Malmö, Sverige","Country":"SWE","State":"Skåne län","County":"Malmö","City":"Malmö","PostalCode":"212 37","AdditionalData":[{"value":"Sverige","key":"CountryName"},{"value":"Skåne län","key":"StateName"},{"value":"Malmö","key":"CountyName"}]},"MapReference":{"ReferenceId":"1236712681","Spot":0.0,"SideOfStreet":"right","CountryId":"20298368","StateId":"20299186","CountyId":"20299264","CityId":"20299265"}}},{"Relevance":1.0,"Distance":338.4,"MatchLevel":"street","MatchQuality":{"Country":1.0,"State":1.0,"County":1.0,"City":1.0,"PostalCode":1.0},"Location":{"LocationId":"NT_qjOnkNXQ3hCi07BaHHJTXC_l_1236712385_R","LocationType":"point","DisplayPosition":{"Latitude":55.5709,"Longitude":13.06132},"MapView":{"TopLeft":{"Latitude":55.5709,"Longitude":13.06091},"BottomRight":{"Latitude":55.56998,"Longitude":13.06132}},"Address":{"Label":"SE-212 37 Malmö, Sverige","Country":"SWE","State":"Skåne län","County":"Malmö","City":"Malmö","PostalCode":"212 37","AdditionalData":[{"value":"Sverige","key":"CountryName"},{"value":"Skåne län","key":"StateName"},{"value":"Malmö","key":"CountyName"}]},"MapReference":{"ReferenceId":"1236712385","Spot":1.0,"SideOfStreet":"right","CountryId":"20298368","StateId":"20299186","CountyId":"20299264","CityId":"20299265"}}},{"Relevance":1.0,"Distance":339.2,"MatchLevel":"houseNumber","MatchQuality":{"Country":1.0,"State":1.0,"County":1.0,"City":1.0,"Street":[1.0],"HouseNumber":1.0,"PostalCode":1.0},"MatchType":"interpolated","Location":{"LocationId":"NT_Q9Xw3MF9CaJidngnBVBJEC_0A","LocationType":"point","DisplayPosition":{"Latitude":55.56767,"Longitude":13.06953},"MapView":{"TopLeft":{"Latitude":55.5687942,"Longitude":13.0675419},"BottomRight":{"Latitude":55.5665458,"Longitude":13.0715181}},"Address":{"Label":"Skrittgatan 4, SE-213 77 Malmö, Sverige","Country":"SWE","State":"Skåne län","County":"Malmö","City":"Malmö","Street":"Skrittgatan","HouseNumber":"4","PostalCode":"213 77","AdditionalData":[{"value":"Sverige","key":"CountryName"},{"value":"Skåne län","key":"StateName"},{"value":"Malmö","key":"CountyName"}],"Building":"Festkommitténs lokal - stuga"},"MapReference":{"ReferenceId":"28071065","Spot":0.32,"SideOfStreet":"left","CountryId":"20298368","StateId":"20299186","CountyId":"20299264","CityId":"20299265","AddressId":"777180102","RoadLinkId":"98930544"}}},{"Relevance":1.0,"Distance":339.8,"MatchLevel":"street","MatchQuality":{"Country":1.0,"State":1.0,"County":1.0,"City":1.0,"PostalCode":1.0},"Location":{"LocationId":"NT_qjOnkNXQ3hCi07BaHHJTXC_l_1236712386_R","LocationType":"point","DisplayPosition":{"Latitude":55.57169,"Longitude":13.06153},"MapView":{"TopLeft":{"Latitude":55.572,"Longitude":13.06126},"BottomRight":{"Latitude":55.5709,"Longitude":13.06153}},"Address":{"Label":"SE-212 37 Malmö, Sverige","Country":"SWE","State":"Skåne län","County":"Malmö","City":"Malmö","PostalCode":"212 37","AdditionalData":[{"value":"Sverige","key":"CountryName"},{"value":"Skåne län","key":"StateName"},{"value":"Malmö","key":"CountyName"}]},"MapReference":{"ReferenceId":"1236712386","Spot":0.66,"SideOfStreet":"right","CountryId":"20298368","StateId":"20299186","CountyId":"20299264","CityId":"20299265"}}}]}]}}