{"Response":{"MetaInfo":{"Timestamp":"2020-03-28T11:02:58.550+0000","NextPageInformation":"2"},"View":[{"_type":"SearchResultsViewType","ViewId":0,"Result":[{"Relevance":1.0,"Distance":-2689.8,"MatchLevel":"landmark","MatchQuality":{"Country":1.0,"Name":1.0},"Location":{"LocationId":"NT_sXxRdEmskmIBL.Kxc8azGC","LocationType":"island","Name":"Sjælland","DisplayPosition":{"Latitude":55.54599,"Longitude":11.6978},"MapView":{"TopLeft":{"Latitude":56.12984,"Longitude":10.86824},"BottomRight":{"Latitude":54.96213,"Longitude":12.63858}},"Address":{"Label":"Danmark","Country":"DNK","AdditionalData":[{"value":"Danmark","key":"CountryName"}]},"MapReference":{"CountryId":"20298369","PlaceId":"67444971"}}},{"Relevance":1.0,"Distance":0.0,"Direction":0.0,"MatchLevel":"city","MatchQuality":{"Country":1.0,"State":1.0,"County":1.0,"City":1.0,"PostalCode":1.0},"Location":{"LocationId":"NT_rIIQhb1W6532Xu9t5XE5hB","LocationType":"point","DisplayPosition":{"Latitude":55.6608189,"Longitude":12.1314631},"MapView":{"TopLeft":{"Latitude":55.6711,"Longitude":12.03989},"BottomRight":{"Latitude":55.61789,"Longitude":12.15717}},"Address":{"Label":"Roskilde, Sjælland, Danmark","Country":"DNK","State":"Sjælland","County":"Roskilde","City":"Roskilde","PostalCode":"4000","AdditionalData":[{"value":"Danmark","key":"CountryName"},{"value":"Sjælland","key":"StateName"},{"value":"Roskilde","key":"CountyName"}]},"MapReference":{"ReferenceId":"1157029556","SideOfStreet":"neither","CountryId":"20298369","StateId":"20368123","CountyId":"20368405","CityId":"20368408"}}},{"Relevance":1.0,"Distance":7.7,"MatchLevel":"houseNumber","MatchQuality":{"Country":1.0,"State":1.0,"County":1.0,"City":1.0,"Street":[1.0],"HouseNumber":1.0,"PostalCode":1.0},"MatchType":"interpolated","Location":{"LocationId":"NT_08C4Y7LLlUrXp5fqAHduiC_2ED","LocationType":"point","DisplayPosition":{"Latitude":55.66084,"Longitude":12.13159},"MapView":{"TopLeft":{"Latitude":55.6619642,"Longitude":12.1295971},"BottomRight":{"Latitude":55.6597158,"Longitude":12.1335829}},"Address":{"Label":"Tønsbergvej 61, 4000 Roskilde, Danmark","Country":"DNK","State":"Sjælland","County":"Roskilde","City":"Roskilde","Street":"Tønsbergvej","HouseNumber":"61","PostalCode":"4000","AdditionalData":[{"value":"Danmark","key":"CountryName"},{"value":"Sjælland","key":"StateName"},{"value":"Roskilde","key":"CountyName"}]},"MapReference":{"ReferenceId":"707050439","Spot":0.23,"SideOfStreet":"left","CountryId":"20298369","StateId":"20368123","CountyId":"20368405","CityId":"20368408","AddressId":"199289935","RoadLinkId":"112894763"}}},{"Relevance":1.0,"Distance":19.5,"MatchLevel":"street","MatchQuality":{"Country":1.0,"State":1.0,"County":1.0,"City":1.0,"Street":[1.0],"PostalCode":1.0},"Location":{"LocationId":"NT_08C4Y7LLlUrXp5fqAHduiC_l_707050437_R","LocationType":"point","DisplayPosition":{"Latitude":55.6606508,"Longitude":12.1313732},"MapView":{"TopLeft":{"Latitude":55.66069,"Longitude":12.1313},"BottomRight":{"Latitude":55.66046,"Longitude":12.13173}},"Address":{"Label":"Tønsbergvej, 4000 Roskilde, Danmark","Country":"DNK","State":"Sjælland","County":"Roskilde","City":"Roskilde","Street":"Tønsbergvej","PostalCode":"4000","AdditionalData":[{"value":"Danmark","key":"CountryName"},{"value":"Sjælland","key":"StateName"},{"value":"Roskilde","key":"CountyName"}]},"MapReference":{"ReferenceId":"707050437","Spot":0.83,"SideOfStreet":"right","CountryId":"20298369","StateId":"20368123","CountyId":"20368405","CityId":"20368408"}}},{"Relevance":1.0,"Distance":30.1,"MatchLevel":"houseNumber","MatchQuality":{"Country":1.0,"State":1.0,"County":1.0,"City":1.0,"Street":[1.0],"HouseNumber":1.0,"PostalCode":1.0},"MatchType":"interpolated","Location":{"LocationId":"NT_08C4Y7LLlUrXp5fqAHduiC_0kD","LocationType":"point","DisplayPosition":{"Latitude":55.66073,"Longitude":12.13101},"MapView":{"TopLeft":{"Latitude":55.6618542,"Longitude":12.1290171},"BottomRight":{"Latitude":55.6596058,"Longitude":12.1330029}},"Address":{"Label":"Tønsbergvej 49, 4000 Roskilde, Danmark","Country":"DNK","State":"Sjælland","County":"Roskilde","City":"Roskilde","Street":"Tønsbergvej","HouseNumber":"49","PostalCode":"4000","AdditionalData":[{"value":"Danmark","key":"CountryName"},{"value":"Sjælland","key":"StateName"},{"value":"Roskilde","key":"CountyName"}]},"MapReference":{"ReferenceId":"707050438","Spot":0.89,"SideOfStreet":"left","CountryId":"20298369","StateId":"20368123","CountyId":"20368405","CityId":"20368408","AddressId":"198721992","RoadLinkId":"112894762"}}},{"Relevance":1.0,"Distance":43.3,"MatchLevel":"street","MatchQuality":{"Country":1.0,"State":1.0,"County":1.0,"City":1.0,"Street":[1.0],"PostalCode":1.0},"Location":{"LocationId":"NT_F4PeHEc0J0hXH.pJk.XP0B_l_707050436_L","LocationType":"point","DisplayPosition":{"Latitude":55.66046,"Longitude":12.13173},"MapView":{"TopLeft":{"Latitude":55.66125,"Longitude":12.13173},"BottomRight":{"Latitude":55.66046,"Longitude":12.13315}},"Address":{"Label":"Nordens Parkvej, 4000 Roskilde, Danmark","Country":"DNK","State":"Sjælland","County":"Roskilde","City":"Roskilde","Street":"Nordens Parkvej","PostalCode":"4000","AdditionalData":[{"value":"Danmark","key":"CountryName"},{"value":"Sjælland","key":"StateName"},{"value":"Roskilde","key":"CountyName"}]},"MapReference":{"ReferenceId":"707050436","Spot":0.0,"SideOfStreet":"left","CountryId":"20298369","StateId":"20368123","CountyId":"20368405","CityId":"20368408"}}},{"Relevance":1.0,"Distance":45.2,"MatchLevel":"street","MatchQuality":{"Country":1.0,"State":1.0,"County":1.0,"City":1.0,"Street":[1.0],"PostalCode":1.0},"Location":{"LocationId":"NT_F4PeHEc0J0hXH.pJk.XP0B_l_957391568_L","LocationType":"point","DisplayPosition":{"Latitude":55.6604305,"Longitude":12.1316763},"MapView":{"TopLeft":{"Latitude":55.66046,"Longitude":12.1304},"BottomRight":{"Latitude":55.65973,"Longitude":12.13173}},"Address":{"Label":"Nordens Parkvej, 4000 Roskilde, Danmark","Country":"DNK","State":"Sjælland","County":"Roskilde","City":"Roskilde","Street":"Nordens Parkvej","PostalCode":"4000","AdditionalData":[{"value":"Danmark","key":"CountryName"},{"value":"Sjælland","key":"StateName"},{"value":"Roskilde","key":"CountyName"}]},"MapReference":{"ReferenceId":"957391568","Spot":0.96,"SideOfStreet":"left","CountryId":"20298369","StateId":"20368123","CountyId":"20368405","CityId":"20368408"}}},{"Relevance":1.0,"Distance":57.2,"MatchLevel":"street","MatchQuality":{"Country":1.0,"State":1.0,"County":1.0,"City":1.0,"Street":[1.0],"PostalCode":1.0},"Location":{"LocationId":"NT_Pmu8dlsirk2GYdUaNzhLJC_l_707050456_R","LocationType":"point","DisplayPosition":{"Latitude":55.6613323,"Longitude":12.1314052},"MapView":{"TopLeft":{"Latitude":55.66235,"Longitude":12.13103},"BottomRight":{"Latitude":55.66129,"Longitude":12.13499}},"Address":{"Label":"Slæggerupvej, 4000 Roskilde, Danmark","Country":"DNK","State":"Sjælland","County":"Roskilde","City":"Roskilde","Street":"Slæggerupvej","PostalCode":"4000","AdditionalData":[{"value":"Danmark","key":"CountryName"},{"value":"Sjælland","key":"StateName"},{"value":"Roskilde","key":"CountyName"}]},"MapReference":{"ReferenceId":"707050456","Spot":0.09,"SideOfStreet":"right","CountryId":"20298369","StateId":"20368123","CountyId":"20368405","CityId":"20368408"}}},{"Relevance":1.0,"Distance":59.0,"MatchLevel":"street","MatchQuality":{"Country":1.0,"State":1.0,"County":1.0,"City":1.0,"Street":[1.0],"PostalCode":1.0},"Location":{"LocationId":"NT_Pmu8dlsirk2GYdUaNzhLJC_l_902163483_R","LocationType":"point","DisplayPosition":{"Latitude":55.66129,"Longitude":12.13103},"MapView":{"TopLeft":{"Latitude":55.66129,"Longitude":12.12905},"BottomRight":{"Latitude":55.66086,"Longitude":12.13103}},"Address":{"Label":"Slæggerupvej, 4000 Roskilde, Danmark","Country":"DNK","State":"Sjælland","County":"Roskilde","City":"Roskilde","Street":"Slæggerupvej","PostalCode":"4000","AdditionalData":[{"value":"Danmark","key":"CountryName"},{"value":"Sjælland","key":"StateName"},{"value":"Roskilde","key":"CountyName"}]},"MapReference":{"ReferenceId":"902163483","Spot":1.0,"SideOfStreet":"right","CountryId":"20298369","StateId":"20368123","CountyId":"20368405","CityId":"20368408"}}},{"Relevance":1.0,"Distance":74.7,"MatchLevel":"houseNumber","MatchQuality":{"Country":1.0,"State":1.0,"County":1.0,"City":1.0,"Street":[1.0],"HouseNumber":1.0,"PostalCode":1.0},"MatchType":"interpolated","Location":{"LocationId":"NT_08C4Y7LLlUrXp5fqAHduiC_xgDO","LocationType":"point","DisplayPosition":{"Latitude":55.66027,"Longitude":12.13215},"MapView":{"TopLeft":{"Latitude":55.6613942,"Longitude":12.1301572},"BottomRight":{"Latitude":55.6591458,"Longitude":12.1341428}},"Address":{"Label":"Tønsbergvej 188, 4000 Roskilde, Danmark","Country":"DNK","State":"Sjælland","County":"Roskilde","City":"Roskilde","Street":"Tønsbergvej","HouseNumber":"188","PostalCode":"4000","AdditionalData":[{"value":"Danmark","key":"CountryName"},{"value":"Sjælland","key":"StateName"},{"value":"Roskilde","key":"CountyName"}]},"MapReference":{"ReferenceId":"707050440","Spot":0.87,"SideOfStreet":"right","CountryId":"20298369","StateId":"20368123","CountyId":"20368405","CityId":"20368408","AddressId":"200150844","RoadLinkId":"112894766"}}}]}]}}