{"Response":{"MetaInfo":{"Timestamp":"2020-03-28T11:45:55.571+0000","NextPageInformation":"2"},"View":[{"_type":"SearchResultsViewType","ViewId":0,"Result":[{"Relevance":1.0,"Distance":0.0,"Direction":0.0,"MatchLevel":"city","MatchQuality":{"Country":1.0,"State":1.0,"County":1.0,"City":1.0,"PostalCode":1.0},"Location":{"LocationId":"NT_.ElA.SFBldCH2WDMIzjSrA","LocationType":"point","DisplayPosition":{"Latitude":55.7796859,"Longitude":8.2864656},"MapView":{"TopLeft":{"Latitude":55.7855,"Longitude":8.27693},"BottomRight":{"Latitude":55.77209,"Longitude":8.30046}},"Address":{"Label":"Nørre Nebel, Syddanmark, Danmark","Country":"DNK","State":"Syddanmark","County":"Varde","City":"Nørre Nebel","PostalCode":"6830","AdditionalData":[{"value":"Danmark","key":"CountryName"},{"value":"Syddanmark","key":"StateName"},{"value":"Varde","key":"CountyName"}]},"MapReference":{"ReferenceId":"34445937","SideOfStreet":"neither","CountryId":"20298369","StateId":"20367950","CountyId":"20368740","CityId":"20368680"}}},{"Relevance":1.0,"Distance":10.5,"MatchLevel":"houseNumber","MatchQuality":{"Country":1.0,"State":1.0,"County":1.0,"City":1.0,"Street":[1.0],"HouseNumber":1.0,"PostalCode":1.0},"MatchType":"interpolated","Location":{"LocationId":"NT_JLkd8A2edpHkvFFyJuYQ3A_xID","LocationType":"point","DisplayPosition":{"Latitude":55.77976,"Longitude":8.28666},"MapView":{"TopLeft":{"Latitude":55.7808842,"Longitude":8.2846611},"BottomRight":{"Latitude":55.7786358,"Longitude":8.2886589}},"Address":{"Label":"Bredgade 12, 6830 Nørre Nebel, Danmark","Country":"DNK","State":"Syddanmark","County":"Varde","City":"Nørre Nebel","Street":"Bredgade","HouseNumber":"12","PostalCode":"6830","AdditionalData":[{"value":"Danmark","key":"CountryName"},{"value":"Syddanmark","key":"StateName"},{"value":"Varde","key":"CountyName"}]},"MapReference":{"ReferenceId":"991628881","Spot":0.43,"SideOfStreet":"left","CountryId":"20298369","StateId":"20367950","CountyId":"20368740","CityId":"20368680","AddressId":"198831331","RoadLinkId":"320251524"}}},{"Relevance":1.0,"Distance":60.0,"MatchLevel":"houseNumber","MatchQuality":{"Country":1.0,"State":1.0,"County":1.0,"City":1.0,"Street":[1.0],"HouseNumber":1.0,"PostalCode":1.0},"MatchType":"interpolated","Location":{"LocationId":"NT_AXwDqZNcMiinPn8lnhNP7B_l_34445902_L_3A","LocationType":"point","DisplayPosition":{"Latitude":55.7802067,"Longitude":8.2871622},"MapView":{"TopLeft":{"Latitude":55.7813309,"Longitude":8.2851633},"BottomRight":{"Latitude":55.7790826,"Longitude":8.2891612}},"Address":{"Label":"Byagervej 7, 6830 Nørre Nebel, Danmark","Country":"DNK","State":"Syddanmark","County":"Varde","City":"Nørre Nebel","Street":"Byagervej","HouseNumber":"7","PostalCode":"6830","AdditionalData":[{"value":"Danmark","key":"CountryName"},{"value":"Syddanmark","key":"StateName"},{"value":"Varde","key":"CountyName"}]},"MapReference":{"ReferenceId":"34445902","Spot":0.56,"SideOfStreet":"left","CountryId":"20298369","StateId":"20367950","CountyId":"20368740","CityId":"20368680"}}},{"Relevance":1.0,"Distance":75.2,"MatchLevel":"houseNumber","MatchQuality":{"Country":1.0,"State":1.0,"County":1.0,"City":1.0,"Street":[1.0],"HouseNumber":1.0,"PostalCode":1.0},"MatchType":"interpolated","Location":{"LocationId":"NT_RPf-ZseiMZ-Bvrz29nhHuB_xQD","LocationType":"point","DisplayPosition":{"Latitude":55.77879,"Longitude":8.28606},"MapView":{"TopLeft":{"Latitude":55.7799142,"Longitude":8.2840611},"BottomRight":{"Latitude":55.7776658,"Longitude":8.2880589}},"Address":{"Label":"Tømmergade 14, 6830 Nørre Nebel, Danmark","Country":"DNK","State":"Syddanmark","County":"Varde","City":"Nørre Nebel","Street":"Tømmergade","HouseNumber":"14","PostalCode":"6830","AdditionalData":[{"value":"Danmark","key":"CountryName"},{"value":"Syddanmark","key":"StateName"},{"value":"Varde","key":"CountyName"}]},"MapReference":{"ReferenceId":"34445965","Spot":0.53,"SideOfStreet":"right","CountryId":"20298369","StateId":"20367950","CountyId":"20368740","CityId":"20368680","AddressId":"200822271","RoadLinkId":"100304982"}}},{"Relevance":1.0,"Distance":102.2,"MatchLevel":"houseNumber","MatchQuality":{"Country":1.0,"State":1.0,"County":1.0,"City":1.0,"Street":[1.0],"HouseNumber":1.0,"PostalCode":1.0},"MatchType":"interpolated","Location":{"LocationId":"NT_JLkd8A2edpHkvFFyJuYQ3A_yID","LocationType":"point","DisplayPosition":{"Latitude":55.77951,"Longitude":8.28806},"MapView":{"TopLeft":{"Latitude":55.7806342,"Longitude":8.2860611},"BottomRight":{"Latitude":55.7783858,"Longitude":8.2900589}},"Address":{"Label":"Bredgade 22, 6830 Nørre Nebel, Danmark","Country":"DNK","State":"Syddanmark","County":"Varde","City":"Nørre Nebel","Street":"Bredgade","HouseNumber":"22","PostalCode":"6830","AdditionalData":[{"value":"Danmark","key":"CountryName"},{"value":"Syddanmark","key":"StateName"},{"value":"Varde","key":"CountyName"}]},"MapReference":{"ReferenceId":"991628880","Spot":0.27,"SideOfStreet":"left","CountryId":"20298369","StateId":"20367950","CountyId":"20368740","CityId":"20368680","AddressId":"201058841","RoadLinkId":"320251523"}}},{"Relevance":1.0,"Distance":111.0,"MatchLevel":"houseNumber","MatchQuality":{"Country":1.0,"State":1.0,"County":1.0,"City":1.0,"Street":[1.0],"HouseNumber":1.0,"PostalCode":1.0},"MatchType":"interpolated","Location":{"LocationId":"NT_gSoSEl1mM7BK4WsWvQAw4B_yA","LocationType":"point","DisplayPosition":{"Latitude":55.7797,"Longitude":8.28824},"MapView":{"TopLeft":{"Latitude":55.7808242,"Longitude":8.2862411},"BottomRight":{"Latitude":55.7785758,"Longitude":8.2902389}},"Address":{"Label":"Torvet 2, 6830 Nørre Nebel, Danmark","Country":"DNK","State":"Syddanmark","County":"Varde","City":"Nørre Nebel","Street":"Torvet","HouseNumber":"2","PostalCode":"6830","AdditionalData":[{"value":"Danmark","key":"CountryName"},{"value":"Syddanmark","key":"StateName"},{"value":"Varde","key":"CountyName"}]},"MapReference":{"ReferenceId":"34445916","Spot":0.44,"SideOfStreet":"right","CountryId":"20298369","StateId":"20367950","CountyId":"20368740","CityId":"20368680","AddressId":"200577256","RoadLinkId":"100443000"}}},{"Relevance":1.0,"Distance":120.2,"MatchLevel":"houseNumber","MatchQuality":{"Country":1.0,"State":1.0,"County":1.0,"City":1.0,"Street":[1.0],"HouseNumber":1.0,"PostalCode":1.0},"MatchType":"interpolated","Location":{"LocationId":"NT_-ON1rnR4Nbvu.-wT1WUfsD_xA","LocationType":"point","DisplayPosition":{"Latitude":55.7801,"Longitude":8.28469},"MapView":{"TopLeft":{"Latitude":55.7812242,"Longitude":8.282691},"BottomRight":{"Latitude":55.7789758,"Longitude":8.286689}},"Address":{"Label":"Vesterhavsvej 1, 6830 Nørre Nebel, Danmark","Country":"DNK","State":"Syddanmark","County":"Varde","City":"Nørre Nebel","Street":"Vesterhavsvej","HouseNumber":"1","PostalCode":"6830","AdditionalData":[{"value":"Danmark","key":"CountryName"},{"value":"Syddanmark","key":"StateName"},{"value":"Varde","key":"CountyName"}]},"MapReference":{"ReferenceId":"34445900","Spot":0.34,"SideOfStreet":"left","CountryId":"20298369","StateId":"20367950","CountyId":"20368740","CityId":"20368680","AddressId":"199692363","RoadLinkId":"99960863"}}},{"Relevance":1.0,"Distance":126.9,"MatchLevel":"houseNumber","MatchQuality":{"Country":1.0,"State":1.0,"County":1.0,"City":1.0,"Street":[1.0],"HouseNumber":1.0,"PostalCode":1.0},"MatchType":"interpolated","Location":{"LocationId":"NT_JLkd8A2edpHkvFFyJuYQ3A_xgjQ","LocationType":"point","DisplayPosition":{"Latitude":55.77948,"Longitude":8.28825},"MapView":{"TopLeft":{"Latitude":55.7806042,"Longitude":8.2862511},"BottomRight":{"Latitude":55.7783558,"Longitude":8.2902489}},"Address":{"Label":"Bredgade 18B, 6830 Nørre Nebel, Danmark","Country":"DNK","State":"Syddanmark","County":"Varde","City":"Nørre Nebel","Street":"Bredgade","HouseNumber":"18B","PostalCode":"6830","AdditionalData":[{"value":"Danmark","key":"CountryName"},{"value":"Syddanmark","key":"StateName"},{"value":"Varde","key":"CountyName"}]},"MapReference":{"ReferenceId":"34445928","Spot":0.9,"SideOfStreet":"left","CountryId":"20298369","StateId":"20367950","CountyId":"20368740","CityId":"20368680","AddressId":"200073725","RoadLinkId":"99901881"}}},{"Relevance":1.0,"Distance":131.2,"MatchLevel":"houseNumber","MatchQuality":{"Country":1.0,"State":1.0,"County":1.0,"City":1.0,"Street":[1.0],"HouseNumber":1.0,"PostalCode":1.0},"MatchType":"interpolated","Location":{"LocationId":"NT_AXwDqZNcMiinPn8lnhNP7B_xkDR","LocationType":"point","DisplayPosition":{"Latitude":55.78086,"Longitude":8.28625},"MapView":{"TopLeft":{"Latitude":55.7819842,"Longitude":8.284251},"BottomRight":{"Latitude":55.7797358,"Longitude":8.288249}},"Address":{"Label":"Byagervej 19D, 6830 Nørre Nebel, Danmark","Country":"DNK","State":"Syddanmark","County":"Varde","City":"Nørre Nebel","Street":"Byagervej","HouseNumber":"19D","PostalCode":"6830","AdditionalData":[{"value":"Danmark","key":"CountryName"},{"value":"Syddanmark","key":"StateName"},{"value":"Varde","key":"CountyName"}]},"MapReference":{"ReferenceId":"573816052","Spot":0.33,"SideOfStreet":"left","CountryId":"20298369","StateId":"20367950","CountyId":"20368740","CityId":"20368680","AddressId":"364366697","RoadLinkId":"100368300"}}},{"Relevance":1.0,"Distance":136.8,"MatchLevel":"houseNumber","MatchQuality":{"Country":1.0,"State":1.0,"County":1.0,"City":1.0,"Street":[1.0],"HouseNumber":1.0,"PostalCode":1.0},"MatchType":"interpolated","Location":{"LocationId":"NT_gSoSEl1mM7BK4WsWvQAw4B_xA","LocationType":"point","DisplayPosition":{"Latitude":55.78024,"Longitude":8.28855},"MapView":{"TopLeft":{"Latitude":55.7813642,"Longitude":8.286551},"BottomRight":{"Latitude":55.7791158,"Longitude":8.290549}},"Address":{"Label":"Torvet 1, 6830 Nørre Nebel, Danmark","Country":"DNK","State":"Syddanmark","County":"Varde","City":"Nørre Nebel","Street":"Torvet","HouseNumber":"1","PostalCode":"6830","AdditionalData":[{"value":"Danmark","key":"CountryName"},{"value":"Syddanmark","key":"StateName"},{"value":"Varde","key":"CountyName"}]},"MapReference":{"ReferenceId":"34445901","Spot":0.15,"SideOfStreet":"left","CountryId":"20298369","StateId":"20367950","CountyId":"20368740","CityId":"20368680","AddressId":"200290844","RoadLinkId":"100347359"}}}]}]}}