{"Response":{"MetaInfo":{"Timestamp":"2020-03-28T09:56:28.436+0000","NextPageInformation":"2"},"View":[{"_type":"SearchResultsViewType","ViewId":0,"Result":[{"Relevance":1.0,"Distance":0.0,"Direction":0.0,"MatchLevel":"district","MatchQuality":{"Country":1.0,"State":1.0,"County":1.0,"City":1.0,"District":1.0,"PostalCode":1.0},"Location":{"LocationId":"NT_6UzjjDFNhygTMm3uc3LrOA","LocationType":"point","DisplayPosition":{"Latitude":55.7202605,"Longitude":21.1340669},"MapView":{"TopLeft":{"Latitude":55.77491,"Longitude":21.07733},"BottomRight":{"Latitude":55.64131,"Longitude":21.23862}},"Address":{"Label":"Klaipėda, Klaipėdos Apskritis, Lietuva","Country":"LTU","State":"Klaipėdos Apskritis","County":"Klaipėdos savivaldybė","City":"Klaipėda","District":"Klaipėda","PostalCode":"91218","AdditionalData":[{"value":"Lietuva","key":"CountryName"},{"value":"Klaipėdos Apskritis","key":"StateName"},{"value":"Klaipėdos savivaldybė","key":"CountyName"}]},"MapReference":{"ReferenceId":"859298959","SideOfStreet":"neither","CountryId":"20633740","StateId":"23291093","CountyId":"23290081","CityId":"23289944","DistrictId":"23291640"}}},{"Relevance":1.0,"Distance":15.9,"MatchLevel":"houseNumber","MatchQuality":{"Country":1.0,"State":1.0,"County":1.0,"City":1.0,"District":1.0,"Street":[1.0],"HouseNumber":1.0,"PostalCode":1.0},"MatchType":"interpolated","Location":{"LocationId":"NT_kr6prQT8VbXKiYxy8cVQgA_xYD","LocationType":"point","DisplayPosition":{"Latitude":55.72055,"Longitude":21.13439},"MapView":{"TopLeft":{"Latitude":55.7216742,"Longitude":21.1323941},"BottomRight":{"Latitude":55.7194258,"Longitude":21.1363859}},"Address":{"Label":"Priestočio gatvė 16, LT-92227 Klaipėda, Lietuva","Country":"LTU","State":"Klaipėdos Apskritis","County":"Klaipėdos savivaldybė","City":"Klaipėda","District":"Klaipėda","Street":"Priestočio gatvė","HouseNumber":"16","PostalCode":"92227","AdditionalData":[{"value":"Lietuva","key":"CountryName"},{"value":"Klaipėdos Apskritis","key":"StateName"},{"value":"Klaipėdos savivaldybė","key":"CountyName"}]},"MapReference":{"ReferenceId":"752610371","Spot":0.48,"SideOfStreet":"left","CountryId":"20633740","StateId":"23291093","CountyId":"23290081","CityId":"23289944","DistrictId":"23291640","AddressId":"667567636","RoadLinkId":"148458102"}}},{"Relevance":1.0,"Distance":39.5,"MatchLevel":"houseNumber","MatchQuality":{"Country":1.0,"State":1.0,"County":1.0,"City":1.0,"District":1.0,"Street":[1.0],"HouseNumber":1.0,"PostalCode":1.0},"MatchType":"interpolated","Location":{"LocationId":"NT_kr6prQT8VbXKiYxy8cVQgA_xQD","LocationType":"point","DisplayPosition":{"Latitude":55.72063,"Longitude":21.13355},"MapView":{"TopLeft":{"Latitude":55.7217542,"Longitude":21.1315541},"BottomRight":{"Latitude":55.7195058,"Longitude":21.1355459}},"Address":{"Label":"Priestočio gatvė 14, LT-92227 Klaipėda, Lietuva","Country":"LTU","State":"Klaipėdos Apskritis","County":"Klaipėdos savivaldybė","City":"Klaipėda","District":"Klaipėda","Street":"Priestočio gatvė","HouseNumber":"14","PostalCode":"92227","AdditionalData":[{"value":"Lietuva","key":"CountryName"},{"value":"Klaipėdos Apskritis","key":"StateName"},{"value":"Klaipėdos savivaldybė","key":"CountyName"}]},"MapReference":{"ReferenceId":"859299310","Spot":0.23,"SideOfStreet":"left","CountryId":"20633740","StateId":"23291093","CountyId":"23290081","CityId":"23289944","DistrictId":"23291640","AddressId":"667602272","RoadLinkId":"234987951"}}},{"Relevance":1.0,"Distance":43.6,"MatchLevel":"street","MatchQuality":{"Country":1.0,"State":1.0,"County":1.0,"City":1.0,"District":1.0,"Street":[1.0],"PostalCode":1.0},"Location":{"LocationId":"NT_XZz1VwxWY08cS2tgB5.XBC_l_777968456_L","LocationType":"point","DisplayPosition":{"Latitude":55.72022,"Longitude":21.13476},"MapView":{"TopLeft":{"Latitude":55.72052,"Longitude":21.13476},"BottomRight":{"Latitude":55.72022,"Longitude":21.1348}},"Address":{"Label":"S. Nėries gatvė, LT-91218 Klaipėda, Lietuva","Country":"LTU","State":"Klaipėdos Apskritis","County":"Klaipėdos savivaldybė","City":"Klaipėda","District":"Klaipėda","Street":"S. Nėries gatvė","PostalCode":"91218","AdditionalData":[{"value":"Lietuva","key":"CountryName"},{"value":"Klaipėdos Apskritis","key":"StateName"},{"value":"Klaipėdos savivaldybė","key":"CountyName"}]},"MapReference":{"ReferenceId":"777968456","Spot":0.0,"SideOfStreet":"left","CountryId":"20633740","StateId":"23291093","CountyId":"23290081","CityId":"23289944","DistrictId":"23291640"}}},{"Relevance":1.0,"Distance":45.0,"MatchLevel":"houseNumber","MatchQuality":{"Country":1.0,"State":1.0,"County":1.0,"City":1.0,"District":1.0,"Street":[1.0],"HouseNumber":1.0,"PostalCode":1.0},"MatchType":"interpolated","Location":{"LocationId":"NT_0eiyK9e2TyUC1cjFhVXs-C_yAD","LocationType":"point","DisplayPosition":{"Latitude":55.72012,"Longitude":21.13474},"MapView":{"TopLeft":{"Latitude":55.7212442,"Longitude":21.1327441},"BottomRight":{"Latitude":55.7189958,"Longitude":21.1367359}},"Address":{"Label":"S. Nėries gatvė 20, LT-92228 Klaipėda, Lietuva","Country":"LTU","State":"Klaipėdos Apskritis","County":"Klaipėdos savivaldybė","City":"Klaipėda","District":"Klaipėda","Street":"S. Nėries gatvė","HouseNumber":"20","PostalCode":"92228","AdditionalData":[{"value":"Lietuva","key":"CountryName"},{"value":"Klaipėdos Apskritis","key":"StateName"},{"value":"Klaipėdos savivaldybė","key":"CountyName"}]},"MapReference":{"ReferenceId":"777968455","Spot":0.74,"SideOfStreet":"right","CountryId":"20633740","StateId":"23291093","CountyId":"23290081","CityId":"23289944","DistrictId":"23291640","AddressId":"667580108","RoadLinkId":"171317455"}}},{"Relevance":1.0,"Distance":50.3,"MatchLevel":"houseNumber","MatchQuality":{"Country":1.0,"State":1.0,"County":1.0,"City":1.0,"District":1.0,"Street":[1.0],"HouseNumber":1.0,"PostalCode":1.0},"MatchType":"interpolated","Location":{"LocationId":"NT_OteZDt1C974UZR6GnrXs1D_xIG","LocationType":"point","DisplayPosition":{"Latitude":55.7207,"Longitude":21.13426},"MapView":{"TopLeft":{"Latitude":55.7218242,"Longitude":21.1322641},"BottomRight":{"Latitude":55.7195758,"Longitude":21.1362559}},"Address":{"Label":"Priestočio gatvė 1b, LT-92228 Klaipėda, Lietuva","Country":"LTU","State":"Klaipėdos Apskritis","County":"Klaipėdos savivaldybė","City":"Klaipėda","District":"Klaipėda","Street":"Priestočio gatvė","HouseNumber":"1b","PostalCode":"92228","AdditionalData":[{"value":"Lietuva","key":"CountryName"},{"value":"Klaipėdos Apskritis","key":"StateName"},{"value":"Klaipėdos savivaldybė","key":"CountyName"}]},"MapReference":{"ReferenceId":"752550015","Spot":0.44,"SideOfStreet":"left","CountryId":"20633740","StateId":"23291093","CountyId":"23290081","CityId":"23289944","DistrictId":"23291640","AddressId":"667540073","RoadLinkId":"148441819"}}},{"Relevance":1.0,"Distance":58.2,"MatchLevel":"houseNumber","MatchQuality":{"Country":1.0,"State":1.0,"County":1.0,"City":1.0,"District":1.0,"Street":[1.0],"HouseNumber":1.0,"PostalCode":1.0},"MatchType":"interpolated","Location":{"LocationId":"NT_-EywU95EotwySDHgfbEsJD_1A","LocationType":"point","DisplayPosition":{"Latitude":55.71973,"Longitude":21.13467},"MapView":{"TopLeft":{"Latitude":55.7208542,"Longitude":21.1326741},"BottomRight":{"Latitude":55.7186058,"Longitude":21.1366659}},"Address":{"Label":"S. Nėries gatvė 5, LT-92227 Klaipėda, Lietuva","Country":"LTU","State":"Klaipėdos Apskritis","County":"Klaipėdos savivaldybė","City":"Klaipėda","District":"Klaipėda","Street":"S. Nėries gatvė","HouseNumber":"5","PostalCode":"92227","AdditionalData":[{"value":"Lietuva","key":"CountryName"},{"value":"Klaipėdos Apskritis","key":"StateName"},{"value":"Klaipėdos savivaldybė","key":"CountyName"}]},"MapReference":{"ReferenceId":"752413671","Spot":0.86,"SideOfStreet":"left","CountryId":"20633740","StateId":"23291093","CountyId":"23290081","CityId":"23289944","DistrictId":"23291640","AddressId":"667468618","RoadLinkId":"148490980"}}},{"Relevance":1.0,"Distance":71.2,"MatchLevel":"houseNumber","MatchQuality":{"Country":1.0,"State":1.0,"County":1.0,"City":1.0,"District":1.0,"Street":[1.0],"HouseNumber":1.0,"PostalCode":1.0},"MatchType":"interpolated","Location":{"LocationId":"NT_OteZDt1C974UZR6GnrXs1D_xEG","LocationType":"point","DisplayPosition":{"Latitude":55.72075,"Longitude":21.1348},"MapView":{"TopLeft":{"Latitude":55.7218742,"Longitude":21.1328041},"BottomRight":{"Latitude":55.7196258,"Longitude":21.1367959}},"Address":{"Label":"Priestočio gatvė 1a, LT-92228 Klaipėda, Lietuva","Country":"LTU","State":"Klaipėdos Apskritis","County":"Klaipėdos savivaldybė","City":"Klaipėda","District":"Klaipėda","Street":"Priestočio gatvė","HouseNumber":"1a","PostalCode":"92228","AdditionalData":[{"value":"Lietuva","key":"CountryName"},{"value":"Klaipėdos Apskritis","key":"StateName"},{"value":"Klaipėdos savivaldybė","key":"CountyName"}]},"MapReference":{"ReferenceId":"752434617","Spot":0.88,"SideOfStreet":"right","CountryId":"20633740","StateId":"23291093","CountyId":"23290081","CityId":"23289944","DistrictId":"23291640","AddressId":"667479295","RoadLinkId":"148321849"}}},{"Relevance":1.0,"Distance":76.5,"MatchLevel":"houseNumber","MatchQuality":{"Country":1.0,"State":1.0,"County":1.0,"City":1.0,"District":1.0,"Street":[1.0],"HouseNumber":1.0,"PostalCode":1.0},"MatchType":"interpolated","Location":{"LocationId":"NT_0eiyK9e2TyUC1cjFhVXs-C_xgD","LocationType":"point","DisplayPosition":{"Latitude":55.71981,"Longitude":21.13499},"MapView":{"TopLeft":{"Latitude":55.7209342,"Longitude":21.1329941},"BottomRight":{"Latitude":55.7186858,"Longitude":21.1369859}},"Address":{"Label":"S. Nėries gatvė 18, LT-92228 Klaipėda, Lietuva","Country":"LTU","State":"Klaipėdos Apskritis","County":"Klaipėdos savivaldybė","City":"Klaipėda","District":"Klaipėda","Street":"S. Nėries gatvė","HouseNumber":"18","PostalCode":"92228","AdditionalData":[{"value":"Lietuva","key":"CountryName"},{"value":"Klaipėdos Apskritis","key":"StateName"},{"value":"Klaipėdos savivaldybė","key":"CountyName"}]},"MapReference":{"ReferenceId":"873097710","Spot":0.89,"SideOfStreet":"left","CountryId":"20633740","StateId":"23291093","CountyId":"23290081","CityId":"23289944","DistrictId":"23291640","AddressId":"667607239","RoadLinkId":"245048348"}}},{"Relevance":1.0,"Distance":97.0,"MatchLevel":"houseNumber","MatchQuality":{"Country":1.0,"State":1.0,"County":1.0,"City":1.0,"District":1.0,"Street":[1.0],"HouseNumber":1.0,"PostalCode":1.0},"MatchType":"interpolated","Location":{"LocationId":"NT_OteZDt1C974UZR6GnrXs1D_yAD","LocationType":"point","DisplayPosition":{"Latitude":55.72043,"Longitude":21.13569},"MapView":{"TopLeft":{"Latitude":55.7215542,"Longitude":21.1336941},"BottomRight":{"Latitude":55.7193058,"Longitude":21.1376859}},"Address":{"Label":"Priestočio gatvė 20, LT-92228 Klaipėda, Lietuva","Country":"LTU","State":"Klaipėdos Apskritis","County":"Klaipėdos savivaldybė","City":"Klaipėda","District":"Klaipėda","Street":"Priestočio gatvė","HouseNumber":"20","PostalCode":"92228","AdditionalData":[{"value":"Lietuva","key":"CountryName"},{"value":"Klaipėdos Apskritis","key":"StateName"},{"value":"Klaipėdos savivaldybė","key":"CountyName"}]},"MapReference":{"ReferenceId":"752426708","Spot":0.01,"SideOfStreet":"left","CountryId":"20633740","StateId":"23291093","CountyId":"23290081","CityId":"23289944","DistrictId":"23291640","AddressId":"667473819","RoadLinkId":"148383380"}}}]}]}}