{"Response":{"MetaInfo":{"Timestamp":"2020-03-28T10:35:42.547+0000","NextPageInformation":"2"},"View":[{"_type":"SearchResultsViewType","ViewId":0,"Result":[{"Relevance":1.0,"Distance":0.0,"Direction":0.0,"MatchLevel":"district","MatchQuality":{"Country":1.0,"State":1.0,"County":1.0,"City":1.0,"District":1.0,"PostalCode":1.0},"Location":{"LocationId":"NT_7OF1Y62p94.cmbZLsdv89C","LocationType":"point","DisplayPosition":{"Latitude":55.8984135,"Longitude":-4.2260928},"MapView":{"TopLeft":{"Latitude":55.92376,"Longitude":-4.24312},"BottomRight":{"Latitude":55.89609,"Longitude":-4.19099}},"Address":{"Label":"Bishopbriggs, Glasgow, Scotland, United Kingdom","Country":"GBR","State":"Scotland","County":"Lanarkshire","City":"Glasgow","District":"Bishopbriggs","PostalCode":"G64 2","AdditionalData":[{"value":"United Kingdom","key":"CountryName"},{"value":"Scotland","key":"StateName"},{"value":"Lanarkshire","key":"CountyName"}]},"MapReference":{"ReferenceId":"19090881","SideOfStreet":"neither","StateId":"20252820","CountyId":"20292362","CityId":"20292375","DistrictId":"20292379"}}},{"Relevance":1.0,"Distance":13.0,"MatchLevel":"street","MatchQuality":{"Country":1.0,"State":1.0,"County":1.0,"City":1.0,"District":1.0,"Street":[1.0],"PostalCode":1.0},"Location":{"LocationId":"NT_79Ifjj2c70nA-EgksGzBIB_l_1265075337_L","LocationType":"point","DisplayPosition":{"Latitude":55.89853,"Longitude":-4.2260928},"MapView":{"TopLeft":{"Latitude":55.89906,"Longitude":-4.22747},"BottomRight":{"Latitude":55.89853,"Longitude":-4.22583}},"Address":{"Label":"Huntershill Village Business Centre, Glasgow, G64 1, United Kingdom","Country":"GBR","State":"Scotland","County":"Lanarkshire","City":"Glasgow","District":"Bishopbriggs","Street":"Huntershill Village Business Centre","PostalCode":"G64 1","AdditionalData":[{"value":"United Kingdom","key":"CountryName"},{"value":"Scotland","key":"StateName"},{"value":"Lanarkshire","key":"CountyName"}]},"MapReference":{"ReferenceId":"1265075337","Spot":0.14,"SideOfStreet":"left","StateId":"20252820","CountyId":"20292362","CityId":"20292375","DistrictId":"20292379"}}},{"Relevance":1.0,"Distance":13.7,"MatchLevel":"houseNumber","MatchQuality":{"Country":1.0,"State":1.0,"County":1.0,"City":1.0,"District":1.0,"Street":[1.0],"HouseNumber":1.0,"PostalCode":1.0},"MatchType":"interpolated","Location":{"LocationId":"NT_EQxhel16NSsPB0zAv00RVC_l_1265065791_L_5YD","LocationType":"point","DisplayPosition":{"Latitude":55.8983604,"Longitude":-4.22576},"MapView":{"TopLeft":{"Latitude":55.8994845,"Longitude":-4.227765},"BottomRight":{"Latitude":55.8972362,"Longitude":-4.223755}},"Address":{"Label":"96 Crowhill Road, Glasgow, G64 1RP, United Kingdom","Country":"GBR","State":"Scotland","County":"Lanarkshire","City":"Glasgow","District":"Bishopbriggs","Street":"Crowhill Road","HouseNumber":"96","PostalCode":"G64 1RP","AdditionalData":[{"value":"United Kingdom","key":"CountryName"},{"value":"Scotland","key":"StateName"},{"value":"Lanarkshire","key":"CountyName"}]},"MapReference":{"ReferenceId":"1265065791","Spot":0.47,"SideOfStreet":"left","StateId":"20252820","CountyId":"20292362","CityId":"20292375","DistrictId":"20292379"}}},{"Relevance":1.0,"Distance":26.7,"MatchLevel":"street","MatchQuality":{"Country":1.0,"State":1.0,"County":1.0,"City":1.0,"District":1.0,"Street":[1.0],"PostalCode":1.0},"Location":{"LocationId":"NT_DU0uZMT5xWRR1JByzu8n.A_l_1265075403_L","LocationType":"point","DisplayPosition":{"Latitude":55.8981739,"Longitude":-4.2260728},"MapView":{"TopLeft":{"Latitude":55.8982,"Longitude":-4.22749},"BottomRight":{"Latitude":55.89811,"Longitude":-4.22576}},"Address":{"Label":"Bishopbriggs Industrial Estate, Glasgow, G64 1, United Kingdom","Country":"GBR","State":"Scotland","County":"Lanarkshire","City":"Glasgow","District":"Bishopbriggs","Street":"Bishopbriggs Industrial Estate","PostalCode":"G64 1","AdditionalData":[{"value":"United Kingdom","key":"CountryName"},{"value":"Scotland","key":"StateName"},{"value":"Lanarkshire","key":"CountyName"}]},"MapReference":{"ReferenceId":"1265075403","Spot":0.82,"SideOfStreet":"left","StateId":"20252820","CountyId":"20292362","CityId":"20292375","DistrictId":"20292379"}}},{"Relevance":1.0,"Distance":39.1,"MatchLevel":"houseNumber","MatchQuality":{"Country":1.0,"State":1.0,"County":1.0,"City":1.0,"District":1.0,"Street":[1.0],"HouseNumber":1.0,"PostalCode":1.0},"MatchType":"interpolated","Location":{"LocationId":"NT_EQxhel16NSsPB0zAv00RVC_l_1265065790_L_xADM","LocationType":"point","DisplayPosition":{"Latitude":55.89808,"Longitude":-4.22576},"MapView":{"TopLeft":{"Latitude":55.8992042,"Longitude":-4.227765},"BottomRight":{"Latitude":55.8969559,"Longitude":-4.223755}},"Address":{"Label":"100 Crowhill Road, Glasgow, G64 1RP, United Kingdom","Country":"GBR","State":"Scotland","County":"Lanarkshire","City":"Glasgow","District":"Bishopbriggs","Street":"Crowhill Road","HouseNumber":"100","PostalCode":"G64 1RP","AdditionalData":[{"value":"United Kingdom","key":"CountryName"},{"value":"Scotland","key":"StateName"},{"value":"Lanarkshire","key":"CountyName"}]},"MapReference":{"ReferenceId":"1265065790","Spot":0.5,"SideOfStreet":"left","StateId":"20252820","CountyId":"20292362","CityId":"20292375","DistrictId":"20292379"}}},{"Relevance":1.0,"Distance":52.7,"MatchLevel":"houseNumber","MatchQuality":{"Country":1.0,"State":1.0,"County":1.0,"City":1.0,"District":1.0,"Street":[1.0],"HouseNumber":1.0,"PostalCode":1.0},"MatchType":"interpolated","Location":{"LocationId":"NT_EQxhel16NSsPB0zAv00RVC_xIDM","LocationType":"point","DisplayPosition":{"Latitude":55.89793,"Longitude":-4.22576},"MapView":{"TopLeft":{"Latitude":55.8990542,"Longitude":-4.227765},"BottomRight":{"Latitude":55.8968058,"Longitude":-4.223755}},"Address":{"Label":"120 Crowhill Road, Glasgow, G64 1RP, United Kingdom","Country":"GBR","State":"Scotland","County":"Lanarkshire","City":"Glasgow","District":"Bishopbriggs","Street":"Crowhill Road","HouseNumber":"120","PostalCode":"G64 1RP","AdditionalData":[{"value":"United Kingdom","key":"CountryName"},{"value":"Scotland","key":"StateName"},{"value":"Lanarkshire","key":"CountyName"}]},"MapReference":{"ReferenceId":"1265650888","Spot":0.92,"SideOfStreet":"left","StateId":"20252820","CountyId":"20292362","CityId":"20292375","DistrictId":"20292379","AddressId":"815411340","RoadLinkId":"591991573"}}},{"Relevance":1.0,"Distance":54.5,"MatchLevel":"street","MatchQuality":{"Country":1.0,"State":1.0,"County":1.0,"City":1.0,"District":1.0,"Street":[1.0],"PostalCode":1.0},"Location":{"LocationId":"NT_v-tpTwEdH9-R6t0id6kEEA_l_1265504056_R","LocationType":"point","DisplayPosition":{"Latitude":55.89796,"Longitude":-4.22576},"MapView":{"TopLeft":{"Latitude":55.89796,"Longitude":-4.22576},"BottomRight":{"Latitude":55.89794,"Longitude":-4.22508}},"Address":{"Label":"Huntershill Way, Glasgow, G64 1, United Kingdom","Country":"GBR","State":"Scotland","County":"Lanarkshire","City":"Glasgow","District":"Bishopbriggs","Street":"Huntershill Way","PostalCode":"G64 1","AdditionalData":[{"value":"United Kingdom","key":"CountryName"},{"value":"Scotland","key":"StateName"},{"value":"Lanarkshire","key":"CountyName"}]},"MapReference":{"ReferenceId":"1265504056","Spot":1.0,"SideOfStreet":"right","StateId":"20252820","CountyId":"20292362","CityId":"20292375","DistrictId":"20292379"}}},{"Relevance":1.0,"Distance":67.7,"MatchLevel":"postalCode","MatchQuality":{"PostalCode":1.0},"MatchType":"interpolated","Location":{"LocationId":"NT_EQxhel16NSsPB0zAv00RVC_l_1265065790_L_xADM","LocationType":"point","DisplayPosition":{"Latitude":55.89902,"Longitude":-4.22619},"MapView":{"TopLeft":{"Latitude":55.9080132,"Longitude":-4.2422306},"BottomRight":{"Latitude":55.8900268,"Longitude":-4.2101494}},"Address":{"Label":"G64 1RP, Glasgow, Scotland, United Kingdom","Country":"GBR","State":"Scotland","County":"Lanarkshire","City":"Glasgow","PostalCode":"G64 1RP","AdditionalData":[{"value":"United Kingdom","key":"CountryName"},{"value":"Scotland","key":"StateName"},{"value":"Lanarkshire","key":"CountyName"}]},"MapReference":{"ReferenceId":"1265065790","Spot":0.5,"SideOfStreet":"neither","StateId":"20252820","CountyId":"20292362","CityId":"20292375"}}},{"Relevance":1.0,"Distance":68.7,"MatchLevel":"houseNumber","MatchQuality":{"Country":1.0,"State":1.0,"County":1.0,"City":1.0,"District":1.0,"Street":[1.0],"HouseNumber":1.0,"PostalCode":1.0},"MatchType":"interpolated","Location":{"LocationId":"NT_DU0uZMT5xWRR1JByzu8n.A_xYD","LocationType":"point","DisplayPosition":{"Latitude":55.89833,"Longitude":-4.22747},"MapView":{"TopLeft":{"Latitude":55.8994542,"Longitude":-4.229475},"BottomRight":{"Latitude":55.8972058,"Longitude":-4.225465}},"Address":{"Label":"16 Bishopbriggs Industrial Estate, Glasgow, G64 1, United Kingdom","Country":"GBR","State":"Scotland","County":"Lanarkshire","City":"Glasgow","District":"Bishopbriggs","Street":"Bishopbriggs Industrial Estate","HouseNumber":"16","PostalCode":"G64 1","AdditionalData":[{"value":"United Kingdom","key":"CountryName"},{"value":"Scotland","key":"StateName"},{"value":"Lanarkshire","key":"CountyName"}],"Building":"Unit"},"MapReference":{"ReferenceId":"1265075426","Spot":0.27,"SideOfStreet":"right","StateId":"20252820","CountyId":"20292362","CityId":"20292375","DistrictId":"20292379","AddressId":"815411401","RoadLinkId":"591268782"}}},{"Relevance":1.0,"Distance":92.8,"MatchLevel":"houseNumber","MatchQuality":{"Country":1.0,"State":1.0,"County":1.0,"City":1.0,"District":1.0,"Street":[1.0],"HouseNumber":1.0,"PostalCode":1.0},"MatchType":"interpolated","Location":{"LocationId":"NT_v-tpTwEdH9-R6t0id6kEEA_0A","LocationType":"point","DisplayPosition":{"Latitude":55.898,"Longitude":-4.2248},"MapView":{"TopLeft":{"Latitude":55.8991242,"Longitude":-4.226805},"BottomRight":{"Latitude":55.8968758,"Longitude":-4.222795}},"Address":{"Label":"4 Huntershill Way, Glasgow, G64 1XP, United Kingdom","Country":"GBR","State":"Scotland","County":"Lanarkshire","City":"Glasgow","District":"Bishopbriggs","Street":"Huntershill Way","HouseNumber":"4","PostalCode":"G64 1XP","AdditionalData":[{"value":"United Kingdom","key":"CountryName"},{"value":"Scotland","key":"StateName"},{"value":"Lanarkshire","key":"CountyName"}],"Building":"Unit"},"MapReference":{"ReferenceId":"1265504057","Spot":0.28,"SideOfStreet":"right","StateId":"20252820","CountyId":"20292362","CityId":"20292375","DistrictId":"20292379","AddressId":"815411229","RoadLinkId":"591803813"}}}]}]}}