{"Response":{"MetaInfo":{"Timestamp":"2020-03-28T11:19:01.767+0000","NextPageInformation":"2"},"View":[{"_type":"SearchResultsViewType","ViewId":0,"Result":[{"Relevance":1.0,"Distance":0.0,"Direction":0.0,"MatchLevel":"district","MatchQuality":{"Country":1.0,"State":1.0,"County":1.0,"City":1.0,"District":1.0,"PostalCode":1.0},"Location":{"LocationId":"NT_.-uJyZw8PG3Lbq7mForJ4B","LocationType":"point","DisplayPosition":{"Latitude":55.8491558,"Longitude":-4.1759207},"MapView":{"TopLeft":{"Latitude":55.86287,"Longitude":-4.20132},"BottomRight":{"Latitude":55.84379,"Longitude":-4.16926}},"Address":{"Label":"Tollcross Park, Glasgow, Scotland, United Kingdom","Country":"GBR","State":"Scotland","County":"Lanarkshire","City":"Glasgow","District":"Tollcross Park","PostalCode":"G32 7","AdditionalData":[{"value":"United Kingdom","key":"CountryName"},{"value":"Scotland","key":"StateName"},{"value":"Lanarkshire","key":"CountyName"}]},"MapReference":{"ReferenceId":"1212628837","SideOfStreet":"neither","StateId":"20252820","CountyId":"20292362","CityId":"20292375"}}},{"Relevance":1.0,"Distance":14.2,"MatchLevel":"landmark","MatchQuality":{"Country":1.0,"State":1.0,"County":1.0,"City":1.0,"District":1.0,"Street":[1.0],"PostalCode":1.0,"Name":1.0},"Location":{"LocationId":"NT_KJXTkO-YOMSB8ss4ml.mVA_p_sM-D9uHn0vxr3I-k4BhrZD","LocationType":"park","Name":"Tollcross Park","DisplayPosition":{"Latitude":55.84549,"Longitude":-4.18279},"MapView":{"TopLeft":{"Latitude":55.85154,"Longitude":-4.18598},"BottomRight":{"Latitude":55.84413,"Longitude":-4.1749}},"Address":{"Label":"Tollcross Road, Glasgow, G32 8, United Kingdom","Country":"GBR","State":"Scotland","County":"Lanarkshire","City":"Glasgow","District":"Tollcross Park","Street":"Tollcross Road","PostalCode":"G32 8","AdditionalData":[{"value":"United Kingdom","key":"CountryName"},{"value":"Scotland","key":"StateName"},{"value":"Lanarkshire","key":"CountyName"}]},"MapReference":{"StateId":"20252820","CountyId":"20292362","CityId":"20292375","PlaceId":"19209447"}}},{"Relevance":1.0,"Distance":24.8,"MatchLevel":"street","MatchQuality":{"Country":1.0,"State":1.0,"County":1.0,"City":1.0,"District":1.0,"PostalCode":1.0},"Location":{"LocationId":"NT_vN4ksn7Z5mdXLNS1u3MLZB_l_1212413747_R","LocationType":"point","DisplayPosition":{"Latitude":55.84896,"Longitude":-4.17573},"MapView":{"TopLeft":{"Latitude":55.84896,"Longitude":-4.17573},"BottomRight":{"Latitude":55.84883,"Longitude":-4.1747}},"Address":{"Label":"Glasgow, G32 7, United Kingdom","Country":"GBR","State":"Scotland","County":"Lanarkshire","City":"Glasgow","District":"Tollcross Park","PostalCode":"G32 7","AdditionalData":[{"value":"United Kingdom","key":"CountryName"},{"value":"Scotland","key":"StateName"},{"value":"Lanarkshire","key":"CountyName"}]},"MapReference":{"ReferenceId":"1212413747","Spot":1.0,"SideOfStreet":"right","StateId":"20252820","CountyId":"20292362","CityId":"20292375"}}},{"Relevance":1.0,"Distance":32.2,"MatchLevel":"houseNumber","MatchQuality":{"Country":1.0,"State":1.0,"County":1.0,"City":1.0,"District":1.0,"Street":[1.0],"HouseNumber":1.0,"PostalCode":1.0},"MatchType":"interpolated","Location":{"LocationId":"NT_82pRT-KLPC3J985yyVlaZC_l_19114480_L_0ED","LocationType":"point","DisplayPosition":{"Latitude":55.8495761,"Longitude":-4.1758201},"MapView":{"TopLeft":{"Latitude":55.8507003,"Longitude":-4.1778226},"BottomRight":{"Latitude":55.8484519,"Longitude":-4.1738176}},"Address":{"Label":"41 Ardlui Street, Glasgow, G32 7AY, United Kingdom","Country":"GBR","State":"Scotland","County":"Lanarkshire","City":"Glasgow","District":"Tollcross Park","Street":"Ardlui Street","HouseNumber":"41","PostalCode":"G32 7AY","AdditionalData":[{"value":"United Kingdom","key":"CountryName"},{"value":"Scotland","key":"StateName"},{"value":"Lanarkshire","key":"CountyName"}]},"MapReference":{"ReferenceId":"19114480","Spot":0.65,"SideOfStreet":"left","StateId":"20252820","CountyId":"20292362","CityId":"20292375"}}},{"Relevance":1.0,"Distance":41.9,"MatchLevel":"postalCode","MatchQuality":{"PostalCode":1.0},"MatchType":"interpolated","Location":{"LocationId":"NT_82pRT-KLPC3J985yyVlaZC_l_19114480_L_0ED","LocationType":"point","DisplayPosition":{"Latitude":55.84951,"Longitude":-4.17569},"MapView":{"TopLeft":{"Latitude":55.8585032,"Longitude":-4.1917102},"BottomRight":{"Latitude":55.8405168,"Longitude":-4.1596698}},"Address":{"Label":"G32 7AY, Glasgow, Scotland, United Kingdom","Country":"GBR","State":"Scotland","County":"Lanarkshire","City":"Glasgow","PostalCode":"G32 7AY","AdditionalData":[{"value":"United Kingdom","key":"CountryName"},{"value":"Scotland","key":"StateName"},{"value":"Lanarkshire","key":"CountyName"}]},"MapReference":{"ReferenceId":"19114480","Spot":0.65,"SideOfStreet":"neither","StateId":"20252820","CountyId":"20292362","CityId":"20292375"}}},{"Relevance":1.0,"Distance":50.7,"MatchLevel":"street","MatchQuality":{"Country":1.0,"State":1.0,"County":1.0,"City":1.0,"District":1.0,"Street":[1.0],"PostalCode":1.0},"Location":{"LocationId":"NT_4qSPytmSNeAG1k7DsoFhLD_l_19114448_R","LocationType":"point","DisplayPosition":{"Latitude":55.84943,"Longitude":-4.17657},"MapView":{"TopLeft":{"Latitude":55.84968,"Longitude":-4.17657},"BottomRight":{"Latitude":55.84943,"Longitude":-4.17655}},"Address":{"Label":"Edrom Street, Glasgow, G32 7, United Kingdom","Country":"GBR","State":"Scotland","County":"Lanarkshire","City":"Glasgow","District":"Tollcross Park","Street":"Edrom Street","PostalCode":"G32 7","AdditionalData":[{"value":"United Kingdom","key":"CountryName"},{"value":"Scotland","key":"StateName"},{"value":"Lanarkshire","key":"CountyName"}]},"MapReference":{"ReferenceId":"19114448","Spot":0.0,"SideOfStreet":"right","StateId":"20252820","CountyId":"20292362","CityId":"20292375"}}},{"Relevance":1.0,"Distance":60.1,"MatchLevel":"postalCode","MatchQuality":{"PostalCode":1.0},"MatchType":"interpolated","Location":{"LocationId":"NT_esmXFEebnfOdvXFGktyadC_l_1209820460_L_xUDN","LocationType":"point","DisplayPosition":{"Latitude":55.84884,"Longitude":-4.17514},"MapView":{"TopLeft":{"Latitude":55.8578332,"Longitude":-4.1911599},"BottomRight":{"Latitude":55.8398468,"Longitude":-4.1591201}},"Address":{"Label":"G32 7AX, Glasgow, Scotland, United Kingdom","Country":"GBR","State":"Scotland","County":"Lanarkshire","City":"Glasgow","PostalCode":"G32 7AX","AdditionalData":[{"value":"United Kingdom","key":"CountryName"},{"value":"Scotland","key":"StateName"},{"value":"Lanarkshire","key":"CountyName"}]},"MapReference":{"ReferenceId":"1209820460","Spot":0.53,"SideOfStreet":"neither","StateId":"20252820","CountyId":"20292362","CityId":"20292375"}}},{"Relevance":1.0,"Distance":64.5,"MatchLevel":"houseNumber","MatchQuality":{"Country":1.0,"State":1.0,"County":1.0,"City":1.0,"District":1.0,"Street":[1.0],"HouseNumber":1.0,"PostalCode":1.0},"MatchType":"interpolated","Location":{"LocationId":"NT_jutz15CVxVsvAALySvZxFB_l_923420831_R_xAD","LocationType":"point","DisplayPosition":{"Latitude":55.84946,"Longitude":-4.1768002},"MapView":{"TopLeft":{"Latitude":55.8505842,"Longitude":-4.1788027},"BottomRight":{"Latitude":55.8483359,"Longitude":-4.1747977}},"Address":{"Label":"10 Enterkin Street, Glasgow, G32 7BA, United Kingdom","Country":"GBR","State":"Scotland","County":"Lanarkshire","City":"Glasgow","District":"Tollcross Park","Street":"Enterkin Street","HouseNumber":"10","PostalCode":"G32 7BA","AdditionalData":[{"value":"United Kingdom","key":"CountryName"},{"value":"Scotland","key":"StateName"},{"value":"Lanarkshire","key":"CountyName"}]},"MapReference":{"ReferenceId":"923420831","Spot":0.15,"SideOfStreet":"right","StateId":"20252820","CountyId":"20292362","CityId":"20292375"}}},{"Relevance":1.0,"Distance":67.5,"MatchLevel":"houseNumber","MatchQuality":{"Country":1.0,"State":1.0,"County":1.0,"City":1.0,"District":1.0,"Street":[1.0],"HouseNumber":1.0,"PostalCode":1.0},"MatchType":"interpolated","Location":{"LocationId":"NT_esmXFEebnfOdvXFGktyadC_l_1212413746_L_xUDM","LocationType":"point","DisplayPosition":{"Latitude":55.8490034,"Longitude":-4.1746376},"MapView":{"TopLeft":{"Latitude":55.8501275,"Longitude":-4.1766401},"BottomRight":{"Latitude":55.8478792,"Longitude":-4.1726351}},"Address":{"Label":"150 Wellshot Road, Glasgow, G32 7, United Kingdom","Country":"GBR","State":"Scotland","County":"Lanarkshire","City":"Glasgow","District":"Tollcross Park","Street":"Wellshot Road","HouseNumber":"150","PostalCode":"G32 7","AdditionalData":[{"value":"United Kingdom","key":"CountryName"},{"value":"Scotland","key":"StateName"},{"value":"Lanarkshire","key":"CountyName"}]},"MapReference":{"ReferenceId":"1212413746","Spot":0.51,"SideOfStreet":"left","StateId":"20252820","CountyId":"20292362","CityId":"20292375"}}},{"Relevance":1.0,"Distance":73.9,"MatchLevel":"houseNumber","MatchQuality":{"Country":1.0,"State":1.0,"County":1.0,"City":1.0,"District":1.0,"Street":[1.0],"HouseNumber":1.0,"PostalCode":1.0},"MatchType":"interpolated","Location":{"LocationId":"NT_esmXFEebnfOdvXFGktyadC_l_1212413745_L_xUjM","LocationType":"point","DisplayPosition":{"Latitude":55.8487064,"Longitude":-4.1747428},"MapView":{"TopLeft":{"Latitude":55.8498306,"Longitude":-4.1767453},"BottomRight":{"Latitude":55.8475823,"Longitude":-4.1727403}},"Address":{"Label":"152 Wellshot Road, Glasgow, G32 7AX, United Kingdom","Country":"GBR","State":"Scotland","County":"Lanarkshire","City":"Glasgow","District":"Tollcross Park","Street":"Wellshot Road","HouseNumber":"152","PostalCode":"G32 7AX","AdditionalData":[{"value":"United Kingdom","key":"CountryName"},{"value":"Scotland","key":"StateName"},{"value":"Lanarkshire","key":"CountyName"}]},"MapReference":{"ReferenceId":"1212413745","Spot":0.52,"SideOfStreet":"left","StateId":"20252820","CountyId":"20292362","CityId":"20292375"}}}]}]}}