{"Response":{"MetaInfo":{"Timestamp":"2020-03-28T10:34:33.652+0000","NextPageInformation":"2"},"View":[{"_type":"SearchResultsViewType","ViewId":0,"Result":[{"Relevance":1.0,"Distance":0.0,"Direction":0.0,"MatchLevel":"district","MatchQuality":{"Country":1.0,"State":1.0,"County":1.0,"City":1.0,"District":1.0,"PostalCode":1.0},"Location":{"LocationId":"NT_tP00PK9L3rFoNkQLzzjouD","LocationType":"point","DisplayPosition":{"Latitude":55.8867422,"Longitude":-4.234189},"MapView":{"TopLeft":{"Latitude":55.89693,"Longitude":-4.26042},"BottomRight":{"Latitude":55.88617,"Longitude":-4.23149}},"Address":{"Label":"Ashfield, Glasgow, Scotland, United Kingdom","Country":"GBR","State":"Scotland","County":"Lanarkshire","City":"Glasgow","District":"Ashfield","PostalCode":"G22 6","AdditionalData":[{"value":"United Kingdom","key":"CountryName"},{"value":"Scotland","key":"StateName"},{"value":"Lanarkshire","key":"CountyName"}]},"MapReference":{"ReferenceId":"19095243","SideOfStreet":"neither","StateId":"20252820","CountyId":"20292362","CityId":"20292375"}}},{"Relevance":1.0,"Distance":21.8,"MatchLevel":"houseNumber","MatchQuality":{"Country":1.0,"State":1.0,"County":1.0,"City":1.0,"District":1.0,"Street":[1.0],"HouseNumber":1.0,"PostalCode":1.0},"MatchType":"interpolated","Location":{"LocationId":"NT_Ev7-BQgAum8JciMaaOmwaD_l_19096384_L_3A","LocationType":"point","DisplayPosition":{"Latitude":55.886875,"Longitude":-4.23382},"MapView":{"TopLeft":{"Latitude":55.8879992,"Longitude":-4.2358245},"BottomRight":{"Latitude":55.8857509,"Longitude":-4.2318156}},"Address":{"Label":"7 Carron Street, Glasgow, G22 6BE, United Kingdom","Country":"GBR","State":"Scotland","County":"Lanarkshire","City":"Glasgow","District":"Ashfield","Street":"Carron Street","HouseNumber":"7","PostalCode":"G22 6BE","AdditionalData":[{"value":"United Kingdom","key":"CountryName"},{"value":"Scotland","key":"StateName"},{"value":"Lanarkshire","key":"CountyName"}]},"MapReference":{"ReferenceId":"19096384","Spot":0.5,"SideOfStreet":"left","StateId":"20252820","CountyId":"20292362","CityId":"20292375"}}},{"Relevance":1.0,"Distance":23.8,"MatchLevel":"houseNumber","MatchQuality":{"Country":1.0,"State":1.0,"County":1.0,"City":1.0,"District":1.0,"Street":[1.0],"HouseNumber":1.0,"PostalCode":1.0},"MatchType":"interpolated","Location":{"LocationId":"NT_TmqMCQQ9ccoA-GVMmlSefB_l_19096554_R_xkDN","LocationType":"point","DisplayPosition":{"Latitude":55.886645,"Longitude":-4.234535},"MapView":{"TopLeft":{"Latitude":55.8877692,"Longitude":-4.2365394},"BottomRight":{"Latitude":55.8855209,"Longitude":-4.2325306}},"Address":{"Label":"194 Fernbank Street, Glasgow, G22 6BD, United Kingdom","Country":"GBR","State":"Scotland","County":"Lanarkshire","City":"Glasgow","District":"Ashfield","Street":"Fernbank Street","HouseNumber":"194","PostalCode":"G22 6BD","AdditionalData":[{"value":"United Kingdom","key":"CountryName"},{"value":"Scotland","key":"StateName"},{"value":"Lanarkshire","key":"CountyName"}]},"MapReference":{"ReferenceId":"19096554","Spot":0.5,"SideOfStreet":"right","StateId":"20252820","CountyId":"20292362","CityId":"20292375"}}},{"Relevance":1.0,"Distance":26.8,"MatchLevel":"postalCode","MatchQuality":{"PostalCode":1.0},"MatchType":"interpolated","Location":{"LocationId":"NT_Ev7-BQgAum8JciMaaOmwaD_l_19096384_L_3A","LocationType":"point","DisplayPosition":{"Latitude":55.88695,"Longitude":-4.23397},"MapView":{"TopLeft":{"Latitude":55.8959432,"Longitude":-4.2500056},"BottomRight":{"Latitude":55.8779568,"Longitude":-4.2179344}},"Address":{"Label":"G22 6BE, Glasgow, Scotland, United Kingdom","Country":"GBR","State":"Scotland","County":"Lanarkshire","City":"Glasgow","PostalCode":"G22 6BE","AdditionalData":[{"value":"United Kingdom","key":"CountryName"},{"value":"Scotland","key":"StateName"},{"value":"Lanarkshire","key":"CountyName"}]},"MapReference":{"ReferenceId":"19096384","Spot":0.5,"SideOfStreet":"neither","StateId":"20252820","CountyId":"20292362","CityId":"20292375"}}},{"Relevance":1.0,"Distance":34.8,"MatchLevel":"houseNumber","MatchQuality":{"Country":1.0,"State":1.0,"County":1.0,"City":1.0,"District":1.0,"Street":[1.0],"HouseNumber":1.0,"PostalCode":1.0},"MatchType":"interpolated","Location":{"LocationId":"NT_kJzN-LfkztCki2a3T8aQBD_l_19096596_R_3UTN","LocationType":"point","DisplayPosition":{"Latitude":55.8862959,"Longitude":-4.234256},"MapView":{"TopLeft":{"Latitude":55.8874201,"Longitude":-4.2362604},"BottomRight":{"Latitude":55.8851718,"Longitude":-4.2322516}},"Address":{"Label":"755 Hawthorn Street, Glasgow, G22 6, United Kingdom","Country":"GBR","State":"Scotland","County":"Lanarkshire","City":"Glasgow","District":"Ashfield","Street":"Hawthorn Street","HouseNumber":"755","PostalCode":"G22 6","AdditionalData":[{"value":"United Kingdom","key":"CountryName"},{"value":"Scotland","key":"StateName"},{"value":"Lanarkshire","key":"CountyName"}]},"MapReference":{"ReferenceId":"19096596","Spot":0.5,"SideOfStreet":"right","StateId":"20252820","CountyId":"20292362","CityId":"20292375"}}},{"Relevance":1.0,"Distance":38.4,"MatchLevel":"postalCode","MatchQuality":{"PostalCode":1.0},"MatchType":"interpolated","Location":{"LocationId":"NT_TmqMCQQ9ccoA-GVMmlSefB_l_19096554_R_xkDN","LocationType":"point","DisplayPosition":{"Latitude":55.88695,"Longitude":-4.23468},"MapView":{"TopLeft":{"Latitude":55.8959432,"Longitude":-4.2507156},"BottomRight":{"Latitude":55.8779568,"Longitude":-4.2186444}},"Address":{"Label":"G22 6BD, Glasgow, Scotland, United Kingdom","Country":"GBR","State":"Scotland","County":"Lanarkshire","City":"Glasgow","PostalCode":"G22 6BD","AdditionalData":[{"value":"United Kingdom","key":"CountryName"},{"value":"Scotland","key":"StateName"},{"value":"Lanarkshire","key":"CountyName"}]},"MapReference":{"ReferenceId":"19096554","Spot":0.5,"SideOfStreet":"neither","StateId":"20252820","CountyId":"20292362","CityId":"20292375"}}},{"Relevance":1.0,"Distance":51.1,"MatchLevel":"houseNumber","MatchQuality":{"Country":1.0,"State":1.0,"County":1.0,"City":1.0,"District":1.0,"Street":[1.0],"HouseNumber":1.0,"PostalCode":1.0},"MatchType":"interpolated","Location":{"LocationId":"NT_N2abQJ3wP8Ogkl.VUzmLEB_l_1032676992_R_2YzM","LocationType":"point","DisplayPosition":{"Latitude":55.88638,"Longitude":-4.2349301},"MapView":{"TopLeft":{"Latitude":55.8875042,"Longitude":-4.2369345},"BottomRight":{"Latitude":55.8852559,"Longitude":-4.2329257}},"Address":{"Label":"663 Hawthorn Street, Glasgow, G22 6AZ, United Kingdom","Country":"GBR","State":"Scotland","County":"Lanarkshire","City":"Glasgow","District":"Ashfield","Street":"Hawthorn Street","HouseNumber":"663","PostalCode":"G22 6AZ","AdditionalData":[{"value":"United Kingdom","key":"CountryName"},{"value":"Scotland","key":"StateName"},{"value":"Lanarkshire","key":"CountyName"}]},"MapReference":{"ReferenceId":"1032676992","Spot":0.41,"SideOfStreet":"right","StateId":"20252820","CountyId":"20292362","CityId":"20292375"}}},{"Relevance":1.0,"Distance":54.2,"MatchLevel":"houseNumber","MatchQuality":{"Country":1.0,"State":1.0,"County":1.0,"City":1.0,"District":1.0,"Street":[1.0],"HouseNumber":1.0,"PostalCode":1.0},"MatchType":"interpolated","Location":{"LocationId":"NT_Ev7-BQgAum8JciMaaOmwaD_l_19096315_L_zMD","LocationType":"point","DisplayPosition":{"Latitude":55.8870508,"Longitude":-4.2349799},"MapView":{"TopLeft":{"Latitude":55.8881749,"Longitude":-4.2369844},"BottomRight":{"Latitude":55.8859266,"Longitude":-4.2329755}},"Address":{"Label":"33 Carron Street, Glasgow, G22 6BB, United Kingdom","Country":"GBR","State":"Scotland","County":"Lanarkshire","City":"Glasgow","District":"Ashfield","Street":"Carron Street","HouseNumber":"33","PostalCode":"G22 6BB","AdditionalData":[{"value":"United Kingdom","key":"CountryName"},{"value":"Scotland","key":"StateName"},{"value":"Lanarkshire","key":"CountyName"}]},"MapReference":{"ReferenceId":"19096315","Spot":0.5,"SideOfStreet":"left","StateId":"20252820","CountyId":"20292362","CityId":"20292375"}}},{"Relevance":1.0,"Distance":56.7,"MatchLevel":"postalCode","MatchQuality":{"PostalCode":1.0},"MatchType":"interpolated","Location":{"LocationId":"NT_TmqMCQQ9ccoA-GVMmlSefB_l_19096314_L_xkTN","LocationType":"point","DisplayPosition":{"Latitude":55.88725,"Longitude":-4.23428},"MapView":{"TopLeft":{"Latitude":55.8962432,"Longitude":-4.2503157},"BottomRight":{"Latitude":55.8782568,"Longitude":-4.2182443}},"Address":{"Label":"G22 6BQ, Glasgow, Scotland, United Kingdom","Country":"GBR","State":"Scotland","County":"Lanarkshire","City":"Glasgow","PostalCode":"G22 6BQ","AdditionalData":[{"value":"United Kingdom","key":"CountryName"},{"value":"Scotland","key":"StateName"},{"value":"Lanarkshire","key":"CountyName"}]},"MapReference":{"ReferenceId":"19096314","Spot":0.51,"SideOfStreet":"neither","StateId":"20252820","CountyId":"20292362","CityId":"20292375"}}},{"Relevance":1.0,"Distance":58.0,"MatchLevel":"houseNumber","MatchQuality":{"Country":1.0,"State":1.0,"County":1.0,"City":1.0,"District":1.0,"Street":[1.0],"HouseNumber":1.0,"PostalCode":1.0},"MatchType":"interpolated","Location":{"LocationId":"NT_TmqMCQQ9ccoA-GVMmlSefB_l_19096314_L_xkTN","LocationType":"point","DisplayPosition":{"Latitude":55.8872629,"Longitude":-4.2342298},"MapView":{"TopLeft":{"Latitude":55.888387,"Longitude":-4.2362343},"BottomRight":{"Latitude":55.8861387,"Longitude":-4.2322254}},"Address":{"Label":"195 Fernbank Street, Glasgow, G22 6BQ, United Kingdom","Country":"GBR","State":"Scotland","County":"Lanarkshire","City":"Glasgow","District":"Ashfield","Street":"Fernbank Street","HouseNumber":"195","PostalCode":"G22 6BQ","AdditionalData":[{"value":"United Kingdom","key":"CountryName"},{"value":"Scotland","key":"StateName"},{"value":"Lanarkshire","key":"CountyName"}]},"MapReference":{"ReferenceId":"19096314","Spot":0.51,"SideOfStreet":"left","StateId":"20252820","CountyId":"20292362","CityId":"20292375"}}}]}]}}