{"Response":{"MetaInfo":{"Timestamp":"2020-03-28T10:40:58.071+0000","NextPageInformation":"2"},"View":[{"_type":"SearchResultsViewType","ViewId":0,"Result":[{"Relevance":1.0,"Distance":0.0,"Direction":0.0,"MatchLevel":"district","MatchQuality":{"Country":1.0,"State":1.0,"County":1.0,"City":1.0,"District":1.0,"PostalCode":1.0},"Location":{"LocationId":"NT_aeaM6VIBPGLQjdupJvSLJB","LocationType":"point","DisplayPosition":{"Latitude":55.869677,"Longitude":-4.0437114},"MapView":{"TopLeft":{"Latitude":55.87846,"Longitude":-4.06985},"BottomRight":{"Latitude":55.8401,"Longitude":-4.00986}},"Address":{"Label":"Coatbridge, Scotland, United Kingdom","Country":"GBR","State":"Scotland","County":"Lanarkshire","City":"Coatbridge","District":"Coatbridge","PostalCode":"ML5 1","AdditionalData":[{"value":"United Kingdom","key":"CountryName"},{"value":"Scotland","key":"StateName"},{"value":"Lanarkshire","key":"CountyName"}]},"MapReference":{"ReferenceId":"1020558184","SideOfStreet":"neither","StateId":"20252820","CountyId":"20292362","CityId":"20292373","DistrictId":"20292374"}}},{"Relevance":1.0,"Distance":29.7,"MatchLevel":"houseNumber","MatchQuality":{"Country":1.0,"State":1.0,"County":1.0,"City":1.0,"District":1.0,"Street":[1.0],"HouseNumber":1.0,"PostalCode":1.0},"MatchType":"interpolated","Location":{"LocationId":"NT_tNrISWcxkGOMI7.ITzbbIB_l_19103442_R_yA","LocationType":"point","DisplayPosition":{"Latitude":55.8700601,"Longitude":-4.0439298},"MapView":{"TopLeft":{"Latitude":55.8711842,"Longitude":-4.0459334},"BottomRight":{"Latitude":55.8689359,"Longitude":-4.0419262}},"Address":{"Label":"2 Colt Avenue, Coatbridge, ML5 2JW, United Kingdom","Country":"GBR","State":"Scotland","County":"Lanarkshire","City":"Coatbridge","District":"Coatbridge","Street":"Colt Avenue","HouseNumber":"2","PostalCode":"ML5 2JW","AdditionalData":[{"value":"United Kingdom","key":"CountryName"},{"value":"Scotland","key":"StateName"},{"value":"Lanarkshire","key":"CountyName"}]},"MapReference":{"ReferenceId":"19103442","Spot":0.19,"SideOfStreet":"right","StateId":"20252820","CountyId":"20292362","CityId":"20292373","DistrictId":"20292374"}}},{"Relevance":1.0,"Distance":31.6,"MatchLevel":"street","MatchQuality":{"Country":1.0,"State":1.0,"County":1.0,"City":1.0,"District":1.0,"Street":[1.0],"PostalCode":1.0},"Location":{"LocationId":"NT_aRuTMLc3bpro4D9SoPS0QB_l_19103876_R","LocationType":"point","DisplayPosition":{"Latitude":55.869541,"Longitude":-4.0441558},"MapView":{"TopLeft":{"Latitude":55.86996,"Longitude":-4.04437},"BottomRight":{"Latitude":55.86913,"Longitude":-4.04403}},"Address":{"Label":"Lomond Road, Coatbridge, ML5 2, United Kingdom","Country":"GBR","State":"Scotland","County":"Lanarkshire","City":"Coatbridge","District":"Coatbridge","Street":"Lomond Road","PostalCode":"ML5 2","AdditionalData":[{"value":"United Kingdom","key":"CountryName"},{"value":"Scotland","key":"StateName"},{"value":"Lanarkshire","key":"CountyName"}]},"MapReference":{"ReferenceId":"19103876","Spot":0.48,"SideOfStreet":"right","StateId":"20252820","CountyId":"20292362","CityId":"20292373","DistrictId":"20292374"}}},{"Relevance":1.0,"Distance":43.4,"MatchLevel":"houseNumber","MatchQuality":{"Country":1.0,"State":1.0,"County":1.0,"City":1.0,"District":1.0,"Street":[1.0],"HouseNumber":1.0,"PostalCode":1.0},"MatchType":"interpolated","Location":{"LocationId":"NT_aRuTMLc3bpro4D9SoPS0QB_l_19103833_L_xED","LocationType":"point","DisplayPosition":{"Latitude":55.8696298,"Longitude":-4.0444013},"MapView":{"TopLeft":{"Latitude":55.8707539,"Longitude":-4.0464049},"BottomRight":{"Latitude":55.8685056,"Longitude":-4.0423978}},"Address":{"Label":"11 Lomond Road, Coatbridge, ML5 2JL, United Kingdom","Country":"GBR","State":"Scotland","County":"Lanarkshire","City":"Coatbridge","District":"Coatbridge","Street":"Lomond Road","HouseNumber":"11","PostalCode":"ML5 2JL","AdditionalData":[{"value":"United Kingdom","key":"CountryName"},{"value":"Scotland","key":"StateName"},{"value":"Lanarkshire","key":"CountyName"}]},"MapReference":{"ReferenceId":"19103833","Spot":0.3,"SideOfStreet":"left","StateId":"20252820","CountyId":"20292362","CityId":"20292373","DistrictId":"20292374"}}},{"Relevance":1.0,"Distance":45.2,"MatchLevel":"street","MatchQuality":{"Country":1.0,"State":1.0,"County":1.0,"City":1.0,"District":1.0,"Street":[1.0],"PostalCode":1.0},"Location":{"LocationId":"NT_tNrISWcxkGOMI7.ITzbbIB_l_19103473_R","LocationType":"point","DisplayPosition":{"Latitude":55.87,"Longitude":-4.04415},"MapView":{"TopLeft":{"Latitude":55.87,"Longitude":-4.04437},"BottomRight":{"Latitude":55.86996,"Longitude":-4.04415}},"Address":{"Label":"Colt Avenue, Coatbridge, ML5 2, United Kingdom","Country":"GBR","State":"Scotland","County":"Lanarkshire","City":"Coatbridge","District":"Coatbridge","Street":"Colt Avenue","PostalCode":"ML5 2","AdditionalData":[{"value":"United Kingdom","key":"CountryName"},{"value":"Scotland","key":"StateName"},{"value":"Lanarkshire","key":"CountyName"}]},"MapReference":{"ReferenceId":"19103473","Spot":1.0,"SideOfStreet":"right","StateId":"20252820","CountyId":"20292362","CityId":"20292373","DistrictId":"20292374"}}},{"Relevance":1.0,"Distance":51.8,"MatchLevel":"street","MatchQuality":{"Country":1.0,"State":1.0,"County":1.0,"City":1.0,"District":1.0,"Street":[1.0],"PostalCode":1.0},"Location":{"LocationId":"NT_aRuTMLc3bpro4D9SoPS0QB_l_19103474_R","LocationType":"point","DisplayPosition":{"Latitude":55.86996,"Longitude":-4.04437},"MapView":{"TopLeft":{"Latitude":55.87053,"Longitude":-4.04529},"BottomRight":{"Latitude":55.86996,"Longitude":-4.04437}},"Address":{"Label":"Lomond Road, Coatbridge, ML5 2, United Kingdom","Country":"GBR","State":"Scotland","County":"Lanarkshire","City":"Coatbridge","District":"Coatbridge","Street":"Lomond Road","PostalCode":"ML5 2","AdditionalData":[{"value":"United Kingdom","key":"CountryName"},{"value":"Scotland","key":"StateName"},{"value":"Lanarkshire","key":"CountyName"}]},"MapReference":{"ReferenceId":"19103474","Spot":0.0,"SideOfStreet":"right","StateId":"20252820","CountyId":"20292362","CityId":"20292373","DistrictId":"20292374"}}},{"Relevance":1.0,"Distance":58.5,"MatchLevel":"houseNumber","MatchQuality":{"Country":1.0,"State":1.0,"County":1.0,"City":1.0,"District":1.0,"Street":[1.0],"HouseNumber":1.0,"PostalCode":1.0},"MatchType":"interpolated","Location":{"LocationId":"NT_hoLlKXpFIacu16k666cnPC_l_1020546332_R_xAjM","LocationType":"point","DisplayPosition":{"Latitude":55.8690173,"Longitude":-4.0436529},"MapView":{"TopLeft":{"Latitude":55.8701415,"Longitude":-4.0456564},"BottomRight":{"Latitude":55.8678932,"Longitude":-4.0416493}},"Address":{"Label":"102 Gartsherrie Road, Coatbridge, ML5 2EU, United Kingdom","Country":"GBR","State":"Scotland","County":"Lanarkshire","City":"Coatbridge","District":"Coatbridge","Street":"Gartsherrie Road","HouseNumber":"102","PostalCode":"ML5 2EU","AdditionalData":[{"value":"United Kingdom","key":"CountryName"},{"value":"Scotland","key":"StateName"},{"value":"Lanarkshire","key":"CountyName"}]},"MapReference":{"ReferenceId":"1020546332","Spot":0.51,"SideOfStreet":"right","StateId":"20252820","CountyId":"20292362","CityId":"20292373","DistrictId":"20292374"}}},{"Relevance":1.0,"Distance":59.4,"MatchLevel":"houseNumber","MatchQuality":{"Country":1.0,"State":1.0,"County":1.0,"City":1.0,"District":1.0,"Street":[1.0],"HouseNumber":1.0,"PostalCode":1.0},"MatchType":"interpolated","Location":{"LocationId":"NT_aRuTMLc3bpro4D9SoPS0QB_l_19103443_R_yA","LocationType":"point","DisplayPosition":{"Latitude":55.8701101,"Longitude":-4.0442701},"MapView":{"TopLeft":{"Latitude":55.8712342,"Longitude":-4.0462737},"BottomRight":{"Latitude":55.8689859,"Longitude":-4.0422665}},"Address":{"Label":"2 Lomond Road, Coatbridge, ML5 2JN, United Kingdom","Country":"GBR","State":"Scotland","County":"Lanarkshire","City":"Coatbridge","District":"Coatbridge","Street":"Lomond Road","HouseNumber":"2","PostalCode":"ML5 2JN","AdditionalData":[{"value":"United Kingdom","key":"CountryName"},{"value":"Scotland","key":"StateName"},{"value":"Lanarkshire","key":"CountyName"}]},"MapReference":{"ReferenceId":"19103443","Spot":0.11,"SideOfStreet":"right","StateId":"20252820","CountyId":"20292362","CityId":"20292373","DistrictId":"20292374"}}},{"Relevance":1.0,"Distance":64.0,"MatchLevel":"street","MatchQuality":{"Country":1.0,"State":1.0,"County":1.0,"City":1.0,"District":1.0,"PostalCode":1.0},"Location":{"LocationId":"NT_irHMfnpbwntv4fSGIp2NJD_l_19103914_L","LocationType":"point","DisplayPosition":{"Latitude":55.86913,"Longitude":-4.04403},"MapView":{"TopLeft":{"Latitude":55.86914,"Longitude":-4.04434},"BottomRight":{"Latitude":55.86905,"Longitude":-4.04403}},"Address":{"Label":"Coatbridge, ML5 2, United Kingdom","Country":"GBR","State":"Scotland","County":"Lanarkshire","City":"Coatbridge","District":"Coatbridge","PostalCode":"ML5 2","AdditionalData":[{"value":"United Kingdom","key":"CountryName"},{"value":"Scotland","key":"StateName"},{"value":"Lanarkshire","key":"CountyName"}]},"MapReference":{"ReferenceId":"19103914","Spot":1.0,"SideOfStreet":"left","StateId":"20252820","CountyId":"20292362","CityId":"20292373","DistrictId":"20292374"}}},{"Relevance":1.0,"Distance":65.7,"MatchLevel":"street","MatchQuality":{"Country":1.0,"State":1.0,"County":1.0,"City":1.0,"District":1.0,"PostalCode":1.0},"Location":{"LocationId":"NT_irHMfnpbwntv4fSGIp2NJD_l_19103938_R","LocationType":"point","DisplayPosition":{"Latitude":55.8691008,"Longitude":-4.0439419},"MapView":{"TopLeft":{"Latitude":55.86913,"Longitude":-4.04403},"BottomRight":{"Latitude":55.86903,"Longitude":-4.04386}},"Address":{"Label":"Coatbridge, ML5 2, United Kingdom","Country":"GBR","State":"Scotland","County":"Lanarkshire","City":"Coatbridge","District":"Coatbridge","PostalCode":"ML5 2","AdditionalData":[{"value":"United Kingdom","key":"CountryName"},{"value":"Scotland","key":"StateName"},{"value":"Lanarkshire","key":"CountyName"}]},"MapReference":{"ReferenceId":"19103938","Spot":0.54,"SideOfStreet":"right","StateId":"20252820","CountyId":"20292362","CityId":"20292373","DistrictId":"20292374"}}}]}]}}