{"Response":{"MetaInfo":{"Timestamp":"2020-03-28T10:44:46.322+0000","NextPageInformation":"2"},"View":[{"_type":"SearchResultsViewType","ViewId":0,"Result":[{"Relevance":1.0,"Distance":0.0,"Direction":0.0,"MatchLevel":"city","MatchQuality":{"Country":1.0,"County":1.0,"City":1.0,"PostalCode":1.0},"Location":{"LocationId":"NT_JotIO6HoK5PYFjFhcwAdqD","LocationType":"point","DisplayPosition":{"Latitude":55.8669328,"Longitude":26.5240416},"MapView":{"TopLeft":{"Latitude":55.95669,"Longitude":26.43829},"BottomRight":{"Latitude":55.8351,"Longitude":26.63519}},"Address":{"Label":"Daugavpils, Latvija","Country":"LVA","County":"Daugavpils","City":"Daugavpils","PostalCode":"5421","AdditionalData":[{"value":"Latvija","key":"CountryName"},{"value":"Daugavpils","key":"CountyName"}]},"MapReference":{"ReferenceId":"750736397","SideOfStreet":"neither","CountryId":"20633737","CountyId":"23274914","CityId":"23274212"}}},{"Relevance":1.0,"Distance":2.8,"MatchLevel":"houseNumber","MatchQuality":{"Country":1.0,"County":1.0,"City":1.0,"Street":[1.0],"HouseNumber":1.0,"PostalCode":1.0},"MatchType":"interpolated","Location":{"LocationId":"NT_UId8sfPH5m.3fBk6ORpSxD_l_1218288712_L_1A","LocationType":"point","DisplayPosition":{"Latitude":55.8670586,"Longitude":26.5242014},"MapView":{"TopLeft":{"Latitude":55.8681828,"Longitude":26.5221979},"BottomRight":{"Latitude":55.8659345,"Longitude":26.5262048}},"Address":{"Label":"Cietokšņa iela 5, Daugavpils, LV-5401, Latvija","Country":"LVA","County":"Daugavpils","City":"Daugavpils","Street":"Cietokšņa iela","HouseNumber":"5","PostalCode":"5401","AdditionalData":[{"value":"Latvija","key":"CountryName"},{"value":"Daugavpils","key":"CountyName"}]},"MapReference":{"ReferenceId":"1218288712","Spot":0.55,"SideOfStreet":"left","CountryId":"20633737","CountyId":"23274914","CityId":"23274212"}}},{"Relevance":1.0,"Distance":15.7,"MatchLevel":"houseNumber","MatchQuality":{"Country":1.0,"County":1.0,"City":1.0,"Street":[1.0],"HouseNumber":1.0,"PostalCode":1.0},"MatchType":"interpolated","Location":{"LocationId":"NT_UId8sfPH5m.3fBk6ORpSxD_4IG","LocationType":"point","DisplayPosition":{"Latitude":55.86702,"Longitude":26.52424},"MapView":{"TopLeft":{"Latitude":55.8681442,"Longitude":26.5222366},"BottomRight":{"Latitude":55.8658958,"Longitude":26.5262434}},"Address":{"Label":"Cietokšņa iela 8b, Daugavpils, LV-5401, Latvija","Country":"LVA","County":"Daugavpils","City":"Daugavpils","Street":"Cietokšņa iela","HouseNumber":"8b","PostalCode":"5401","AdditionalData":[{"value":"Latvija","key":"CountryName"},{"value":"Daugavpils","key":"CountyName"}]},"MapReference":{"ReferenceId":"906801314","Spot":1.0,"SideOfStreet":"right","CountryId":"20633737","CountyId":"23274914","CityId":"23274212","AddressId":"325239609","RoadLinkId":"267445207"}}},{"Relevance":1.0,"Distance":15.7,"MatchLevel":"street","MatchQuality":{"Country":1.0,"County":1.0,"City":1.0,"PostalCode":1.0},"Location":{"LocationId":"NT_f-QjVtQdOeA9s6LtO5wIbD_l_906801316_R","LocationType":"point","DisplayPosition":{"Latitude":55.86702,"Longitude":26.52424},"MapView":{"TopLeft":{"Latitude":55.86715,"Longitude":26.52424},"BottomRight":{"Latitude":55.86702,"Longitude":26.52456}},"Address":{"Label":"Daugavpils, LV-5401, Latvija","Country":"LVA","County":"Daugavpils","City":"Daugavpils","PostalCode":"5401","AdditionalData":[{"value":"Latvija","key":"CountryName"},{"value":"Daugavpils","key":"CountyName"}]},"MapReference":{"ReferenceId":"906801316","Spot":0.0,"SideOfStreet":"right","CountryId":"20633737","CountyId":"23274914","CityId":"23274212"}}},{"Relevance":1.0,"Distance":28.4,"MatchLevel":"street","MatchQuality":{"Country":1.0,"County":1.0,"City":1.0,"Street":[1.0],"PostalCode":1.0},"Location":{"LocationId":"NT_UId8sfPH5m.3fBk6ORpSxD_l_1216295934_L","LocationType":"point","DisplayPosition":{"Latitude":55.86682,"Longitude":26.52445},"MapView":{"TopLeft":{"Latitude":55.86682,"Longitude":26.52445},"BottomRight":{"Latitude":55.86671,"Longitude":26.52455}},"Address":{"Label":"Cietokšņa iela, Daugavpils, LV-5401, Latvija","Country":"LVA","County":"Daugavpils","City":"Daugavpils","Street":"Cietokšņa iela","PostalCode":"5401","AdditionalData":[{"value":"Latvija","key":"CountryName"},{"value":"Daugavpils","key":"CountyName"}]},"MapReference":{"ReferenceId":"1216295934","Spot":1.0,"SideOfStreet":"left","CountryId":"20633737","CountyId":"23274914","CityId":"23274212"}}},{"Relevance":1.0,"Distance":34.4,"MatchLevel":"houseNumber","MatchQuality":{"Country":1.0,"County":1.0,"City":1.0,"Street":[1.0],"HouseNumber":1.0,"PostalCode":1.0},"MatchType":"interpolated","Location":{"LocationId":"NT_jVqKO7tVcyxLOq5nrtbaDC_yED","LocationType":"point","DisplayPosition":{"Latitude":55.8669,"Longitude":26.52459},"MapView":{"TopLeft":{"Latitude":55.8680242,"Longitude":26.5225866},"BottomRight":{"Latitude":55.8657758,"Longitude":26.5265934}},"Address":{"Label":"18. novembra iela 21, Daugavpils, LV-5401, Latvija","Country":"LVA","County":"Daugavpils","City":"Daugavpils","Street":"18. novembra iela","HouseNumber":"21","PostalCode":"5401","AdditionalData":[{"value":"Latvija","key":"CountryName"},{"value":"Daugavpils","key":"CountyName"}]},"MapReference":{"ReferenceId":"906801325","Spot":0.11,"SideOfStreet":"right","CountryId":"20633737","CountyId":"23274914","CityId":"23274212","AddressId":"378663118","RoadLinkId":"281113717"}}},{"Relevance":1.0,"Distance":35.4,"MatchLevel":"houseNumber","MatchQuality":{"Country":1.0,"County":1.0,"City":1.0,"Street":[1.0],"HouseNumber":1.0,"PostalCode":1.0},"MatchType":"interpolated","Location":{"LocationId":"NT_UId8sfPH5m.3fBk6ORpSxD_zEG","LocationType":"point","DisplayPosition":{"Latitude":55.86725,"Longitude":26.52399},"MapView":{"TopLeft":{"Latitude":55.8683742,"Longitude":26.5219866},"BottomRight":{"Latitude":55.8661258,"Longitude":26.5259934}},"Address":{"Label":"Cietokšņa iela 3a, Daugavpils, LV-5401, Latvija","Country":"LVA","County":"Daugavpils","City":"Daugavpils","Street":"Cietokšņa iela","HouseNumber":"3a","PostalCode":"5401","AdditionalData":[{"value":"Latvija","key":"CountryName"},{"value":"Daugavpils","key":"CountyName"}]},"MapReference":{"ReferenceId":"1218288713","Spot":0.29,"SideOfStreet":"left","CountryId":"20633737","CountyId":"23274914","CityId":"23274212","AddressId":"325233990","RoadLinkId":"534901827"}}},{"Relevance":1.0,"Distance":36.3,"MatchLevel":"houseNumber","MatchQuality":{"Country":1.0,"County":1.0,"City":1.0,"Street":[1.0],"HouseNumber":1.0,"PostalCode":1.0},"MatchType":"interpolated","Location":{"LocationId":"NT_jVqKO7tVcyxLOq5nrtbaDC_xcD","LocationType":"point","DisplayPosition":{"Latitude":55.86665,"Longitude":26.52375},"MapView":{"TopLeft":{"Latitude":55.8677742,"Longitude":26.5217466},"BottomRight":{"Latitude":55.8655258,"Longitude":26.5257534}},"Address":{"Label":"18. novembra iela 17, Daugavpils, LV-5401, Latvija","Country":"LVA","County":"Daugavpils","City":"Daugavpils","Street":"18. novembra iela","HouseNumber":"17","PostalCode":"5401","AdditionalData":[{"value":"Latvija","key":"CountryName"},{"value":"Daugavpils","key":"CountyName"}]},"MapReference":{"ReferenceId":"906801332","Spot":0.0,"SideOfStreet":"left","CountryId":"20633737","CountyId":"23274914","CityId":"23274212","AddressId":"378645819","RoadLinkId":"281113755"}}},{"Relevance":1.0,"Distance":40.2,"MatchLevel":"street","MatchQuality":{"Country":1.0,"County":1.0,"City":1.0,"Street":[1.0],"PostalCode":1.0},"Location":{"LocationId":"NT_UId8sfPH5m.3fBk6ORpSxD_l_1216295933_L","LocationType":"point","DisplayPosition":{"Latitude":55.86671,"Longitude":26.52455},"MapView":{"TopLeft":{"Latitude":55.86671,"Longitude":26.52455},"BottomRight":{"Latitude":55.86663,"Longitude":26.52463}},"Address":{"Label":"Cietokšņa iela, Daugavpils, LV-5401, Latvija","Country":"LVA","County":"Daugavpils","City":"Daugavpils","Street":"Cietokšņa iela","PostalCode":"5401","AdditionalData":[{"value":"Latvija","key":"CountryName"},{"value":"Daugavpils","key":"CountyName"}]},"MapReference":{"ReferenceId":"1216295933","Spot":1.0,"SideOfStreet":"left","CountryId":"20633737","CountyId":"23274914","CityId":"23274212"}}},{"Relevance":1.0,"Distance":40.4,"MatchLevel":"street","MatchQuality":{"Country":1.0,"County":1.0,"City":1.0,"PostalCode":1.0},"Location":{"LocationId":"NT_f-QjVtQdOeA9s6LtO5wIbD_l_906801327_L","LocationType":"point","DisplayPosition":{"Latitude":55.86715,"Longitude":26.52456},"MapView":{"TopLeft":{"Latitude":55.86736,"Longitude":26.52456},"BottomRight":{"Latitude":55.86715,"Longitude":26.52505}},"Address":{"Label":"Daugavpils, LV-5401, Latvija","Country":"LVA","County":"Daugavpils","City":"Daugavpils","PostalCode":"5401","AdditionalData":[{"value":"Latvija","key":"CountryName"},{"value":"Daugavpils","key":"CountyName"}]},"MapReference":{"ReferenceId":"906801327","Spot":0.0,"SideOfStreet":"left","CountryId":"20633737","CountyId":"23274914","CityId":"23274212"}}}]}]}}