{"Response":{"MetaInfo":{"Timestamp":"2020-03-28T10:39:10.519+0000","NextPageInformation":"2"},"View":[{"_type":"SearchResultsViewType","ViewId":0,"Result":[{"Relevance":1.0,"Distance":0.0,"Direction":0.0,"MatchLevel":"district","MatchQuality":{"Country":1.0,"State":1.0,"County":1.0,"City":1.0,"District":1.0,"PostalCode":1.0},"Location":{"LocationId":"NT_7rTqp423WWDhYCIoEwyr5C","LocationType":"point","DisplayPosition":{"Latitude":55.8082044,"Longitude":-4.1327514},"MapView":{"TopLeft":{"Latitude":55.82891,"Longitude":-4.19251},"BottomRight":{"Latitude":55.80341,"Longitude":-4.11505}},"Address":{"Label":"Cambuslang, Glasgow, Scotland, United Kingdom","Country":"GBR","State":"Scotland","County":"Lanarkshire","City":"Glasgow","District":"Cambuslang","PostalCode":"G72 8","AdditionalData":[{"value":"United Kingdom","key":"CountryName"},{"value":"Scotland","key":"StateName"},{"value":"Lanarkshire","key":"CountyName"}]},"MapReference":{"ReferenceId":"1220833770","SideOfStreet":"neither","StateId":"20252820","CountyId":"20292362","CityId":"20292375","DistrictId":"20340102"}}},{"Relevance":1.0,"Distance":27.6,"MatchLevel":"street","MatchQuality":{"Country":1.0,"State":1.0,"County":1.0,"City":1.0,"District":1.0,"Street":[1.0],"PostalCode":1.0},"Location":{"LocationId":"NT_O5Px8NdPu7O-iySg9y8KyD_l_1220790395_L","LocationType":"point","DisplayPosition":{"Latitude":55.8084,"Longitude":-4.13248},"MapView":{"TopLeft":{"Latitude":55.8084,"Longitude":-4.13248},"BottomRight":{"Latitude":55.80787,"Longitude":-4.13179}},"Address":{"Label":"Hallside Court, Glasgow, G72 7, United Kingdom","Country":"GBR","State":"Scotland","County":"Lanarkshire","City":"Glasgow","District":"Cambuslang","Street":"Hallside Court","PostalCode":"G72 7","AdditionalData":[{"value":"United Kingdom","key":"CountryName"},{"value":"Scotland","key":"StateName"},{"value":"Lanarkshire","key":"CountyName"}]},"MapReference":{"ReferenceId":"1220790395","Spot":1.0,"SideOfStreet":"left","StateId":"20252820","CountyId":"20292362","CityId":"20292375","DistrictId":"20340102"}}},{"Relevance":1.0,"Distance":34.5,"MatchLevel":"postalCode","MatchQuality":{"PostalCode":1.0},"Location":{"LocationId":"NT_4enh0c0IVrio68EBzJucoB_l_773790693_R","LocationType":"point","DisplayPosition":{"Latitude":55.80799,"Longitude":-4.13315},"MapView":{"TopLeft":{"Latitude":55.8169832,"Longitude":-4.1491531},"BottomRight":{"Latitude":55.7989968,"Longitude":-4.1171469}},"Address":{"Label":"G72 7FB, Glasgow, Scotland, United Kingdom","Country":"GBR","State":"Scotland","County":"Lanarkshire","City":"Glasgow","PostalCode":"G72 7FB","AdditionalData":[{"value":"United Kingdom","key":"CountryName"},{"value":"Scotland","key":"StateName"},{"value":"Lanarkshire","key":"CountyName"}]},"MapReference":{"ReferenceId":"773790693","Spot":0.0,"SideOfStreet":"neither","StateId":"20252820","CountyId":"20292362","CityId":"20292375"}}},{"Relevance":1.0,"Distance":42.8,"MatchLevel":"street","MatchQuality":{"Country":1.0,"State":1.0,"County":1.0,"City":1.0,"District":1.0,"Street":[1.0],"PostalCode":1.0},"Location":{"LocationId":"NT_4enh0c0IVrio68EBzJucoB_l_773790693_R","LocationType":"point","DisplayPosition":{"Latitude":55.80784,"Longitude":-4.13297},"MapView":{"TopLeft":{"Latitude":55.80827,"Longitude":-4.13367},"BottomRight":{"Latitude":55.80784,"Longitude":-4.13297}},"Address":{"Label":"Hamilton Road, Glasgow, G72 7, United Kingdom","Country":"GBR","State":"Scotland","County":"Lanarkshire","City":"Glasgow","District":"Cambuslang","Street":"Hamilton Road","PostalCode":"G72 7","AdditionalData":[{"value":"United Kingdom","key":"CountryName"},{"value":"Scotland","key":"StateName"},{"value":"Lanarkshire","key":"CountyName"}]},"MapReference":{"ReferenceId":"773790693","Spot":0.0,"SideOfStreet":"right","StateId":"20252820","CountyId":"20292362","CityId":"20292375","DistrictId":"20340102"}}},{"Relevance":1.0,"Distance":44.2,"MatchLevel":"street","MatchQuality":{"Country":1.0,"State":1.0,"County":1.0,"City":1.0,"District":1.0,"Street":[1.0],"PostalCode":1.0},"Location":{"LocationId":"NT_4enh0c0IVrio68EBzJucoB_l_19309162_R","LocationType":"point","DisplayPosition":{"Latitude":55.807818,"Longitude":-4.1329194},"MapView":{"TopLeft":{"Latitude":55.80784,"Longitude":-4.13297},"BottomRight":{"Latitude":55.80759,"Longitude":-4.13233}},"Address":{"Label":"Hamilton Road, Glasgow, G72 7, United Kingdom","Country":"GBR","State":"Scotland","County":"Lanarkshire","City":"Glasgow","District":"Cambuslang","Street":"Hamilton Road","PostalCode":"G72 7","AdditionalData":[{"value":"United Kingdom","key":"CountryName"},{"value":"Scotland","key":"StateName"},{"value":"Lanarkshire","key":"CountyName"}]},"MapReference":{"ReferenceId":"19309162","Spot":0.92,"SideOfStreet":"right","StateId":"20252820","CountyId":"20292362","CityId":"20292375","DistrictId":"20340102"}}},{"Relevance":1.0,"Distance":49.2,"MatchLevel":"landmark","MatchQuality":{"Country":1.0,"State":1.0,"County":1.0,"City":1.0,"District":1.0,"PostalCode":1.0,"Name":1.0},"Location":{"LocationId":"NT_Pa5uj1sxdZE5oCLjQ0pi4B","LocationType":"industrialComplex","Name":"Flemington Industrial Estate","DisplayPosition":{"Latitude":55.80982,"Longitude":-4.13515},"MapView":{"TopLeft":{"Latitude":55.81136,"Longitude":-4.13704},"BottomRight":{"Latitude":55.80827,"Longitude":-4.13287}},"Address":{"Label":"Glasgow, G72 8, United Kingdom","Country":"GBR","State":"Scotland","County":"Lanarkshire","City":"Glasgow","District":"Cambuslang","PostalCode":"G72 8","AdditionalData":[{"value":"United Kingdom","key":"CountryName"},{"value":"Scotland","key":"StateName"},{"value":"Lanarkshire","key":"CountyName"}]},"MapReference":{"StateId":"20252820","CountyId":"20292362","CityId":"20292375","DistrictId":"20340102","PlaceId":"1407186370"}}},{"Relevance":1.0,"Distance":57.9,"MatchLevel":"street","MatchQuality":{"Country":1.0,"State":1.0,"County":1.0,"City":1.0,"District":1.0,"Street":[1.0],"PostalCode":1.0},"Location":{"LocationId":"NT_4enh0c0IVrio68EBzJucoB_l_773790694_R","LocationType":"point","DisplayPosition":{"Latitude":55.80827,"Longitude":-4.13367},"MapView":{"TopLeft":{"Latitude":55.80839,"Longitude":-4.13383},"BottomRight":{"Latitude":55.80827,"Longitude":-4.13367}},"Address":{"Label":"Hamilton Road, Glasgow, G72 7, United Kingdom","Country":"GBR","State":"Scotland","County":"Lanarkshire","City":"Glasgow","District":"Cambuslang","Street":"Hamilton Road","PostalCode":"G72 7","AdditionalData":[{"value":"United Kingdom","key":"CountryName"},{"value":"Scotland","key":"StateName"},{"value":"Lanarkshire","key":"CountyName"}]},"MapReference":{"ReferenceId":"773790694","Spot":0.0,"SideOfStreet":"right","StateId":"20252820","CountyId":"20292362","CityId":"20292375","DistrictId":"20340102"}}},{"Relevance":1.0,"Distance":63.1,"MatchLevel":"street","MatchQuality":{"Country":1.0,"State":1.0,"County":1.0,"City":1.0,"District":1.0,"Street":[1.0],"PostalCode":1.0},"Location":{"LocationId":"NT_cH5iw373GVU-C-75XD2btC_l_736426859_L","LocationType":"point","DisplayPosition":{"Latitude":55.80855,"Longitude":-4.13195},"MapView":{"TopLeft":{"Latitude":55.80855,"Longitude":-4.13195},"BottomRight":{"Latitude":55.80834,"Longitude":-4.13137}},"Address":{"Label":"Larch Court, Glasgow, G72 7, United Kingdom","Country":"GBR","State":"Scotland","County":"Lanarkshire","City":"Glasgow","District":"Cambuslang","Street":"Larch Court","PostalCode":"G72 7","AdditionalData":[{"value":"United Kingdom","key":"CountryName"},{"value":"Scotland","key":"StateName"},{"value":"Lanarkshire","key":"CountyName"}]},"MapReference":{"ReferenceId":"736426859","Spot":1.0,"SideOfStreet":"left","StateId":"20252820","CountyId":"20292362","CityId":"20292375","DistrictId":"20340102"}}},{"Relevance":1.0,"Distance":70.3,"MatchLevel":"street","MatchQuality":{"Country":1.0,"State":1.0,"County":1.0,"City":1.0,"District":1.0,"Street":[1.0],"PostalCode":1.0},"Location":{"LocationId":"NT_PYHmPWPRC4IO7CSPW-0i.C_l_802436620_R","LocationType":"point","DisplayPosition":{"Latitude":55.8088,"Longitude":-4.13313},"MapView":{"TopLeft":{"Latitude":55.8088,"Longitude":-4.13339},"BottomRight":{"Latitude":55.80868,"Longitude":-4.13313}},"Address":{"Label":"Strathclyde Gardens, Glasgow, G72 7, United Kingdom","Country":"GBR","State":"Scotland","County":"Lanarkshire","City":"Glasgow","District":"Cambuslang","Street":"Strathclyde Gardens","PostalCode":"G72 7","AdditionalData":[{"value":"United Kingdom","key":"CountryName"},{"value":"Scotland","key":"StateName"},{"value":"Lanarkshire","key":"CountyName"}]},"MapReference":{"ReferenceId":"802436620","Spot":1.0,"SideOfStreet":"right","StateId":"20252820","CountyId":"20292362","CityId":"20292375","DistrictId":"20340102"}}},{"Relevance":1.0,"Distance":70.3,"MatchLevel":"street","MatchQuality":{"Country":1.0,"State":1.0,"County":1.0,"City":1.0,"District":1.0,"Street":[1.0],"PostalCode":1.0},"Location":{"LocationId":"NT_PYHmPWPRC4IO7CSPW-0i.C_l_802436621_L","LocationType":"point","DisplayPosition":{"Latitude":55.8088,"Longitude":-4.13313},"MapView":{"TopLeft":{"Latitude":55.80891,"Longitude":-4.13327},"BottomRight":{"Latitude":55.8088,"Longitude":-4.13313}},"Address":{"Label":"Strathclyde Gardens, Glasgow, G72 7, United Kingdom","Country":"GBR","State":"Scotland","County":"Lanarkshire","City":"Glasgow","District":"Cambuslang","Street":"Strathclyde Gardens","PostalCode":"G72 7","AdditionalData":[{"value":"United Kingdom","key":"CountryName"},{"value":"Scotland","key":"StateName"},{"value":"Lanarkshire","key":"CountyName"}]},"MapReference":{"ReferenceId":"802436621","Spot":0.0,"SideOfStreet":"left","StateId":"20252820","CountyId":"20292362","CityId":"20292375","DistrictId":"20340102"}}}]}]}}