{"Response":{"MetaInfo":{"Timestamp":"2020-03-28T10:41:27.289+0000","NextPageInformation":"2"},"View":[{"_type":"SearchResultsViewType","ViewId":0,"Result":[{"Relevance":1.0,"Distance":0.0,"Direction":0.0,"MatchLevel":"district","MatchQuality":{"Country":1.0,"State":1.0,"County":1.0,"City":1.0,"District":1.0,"PostalCode":1.0},"Location":{"LocationId":"NT_oC7S3yybz9jfuCy74TWnBA","LocationType":"point","DisplayPosition":{"Latitude":55.8496722,"Longitude":-3.5794127},"MapView":{"TopLeft":{"Latitude":55.854,"Longitude":-3.58655},"BottomRight":{"Latitude":55.84502,"Longitude":-3.55815}},"Address":{"Label":"West Calder, Scotland, United Kingdom","Country":"GBR","State":"Scotland","County":"West Lothian","City":"West Calder","District":"West Calder","PostalCode":"EH55 8","AdditionalData":[{"value":"United Kingdom","key":"CountryName"},{"value":"Scotland","key":"StateName"},{"value":"West Lothian","key":"CountyName"}]},"MapReference":{"ReferenceId":"809333196","SideOfStreet":"neither","StateId":"20252820","CountyId":"20292763","CityId":"20292787","DistrictId":"20292788"}}},{"Relevance":1.0,"Distance":35.8,"MatchLevel":"postalCode","MatchQuality":{"PostalCode":1.0},"Location":{"LocationId":"NT_LOEOu6s9iRNzznrJmvHoND_l_1061375631_L","LocationType":"point","DisplayPosition":{"Latitude":55.84943,"Longitude":-3.57979},"MapView":{"TopLeft":{"Latitude":55.8584232,"Longitude":-3.5958101},"BottomRight":{"Latitude":55.8404368,"Longitude":-3.5637699}},"Address":{"Label":"EH55 8FB, West Calder, Scotland, United Kingdom","Country":"GBR","State":"Scotland","County":"West Lothian","City":"West Calder","PostalCode":"EH55 8FB","AdditionalData":[{"value":"United Kingdom","key":"CountryName"},{"value":"Scotland","key":"StateName"},{"value":"West Lothian","key":"CountyName"}]},"MapReference":{"ReferenceId":"1061375631","Spot":0.78,"SideOfStreet":"neither","StateId":"20252820","CountyId":"20292763","CityId":"20292787"}}},{"Relevance":1.0,"Distance":36.5,"MatchLevel":"street","MatchQuality":{"Country":1.0,"State":1.0,"County":1.0,"City":1.0,"District":1.0,"Street":[1.0],"PostalCode":1.0},"Location":{"LocationId":"NT_LOEOu6s9iRNzznrJmvHoND_l_1061375631_L","LocationType":"point","DisplayPosition":{"Latitude":55.8493636,"Longitude":-3.5796111},"MapView":{"TopLeft":{"Latitude":55.84963,"Longitude":-3.58069},"BottomRight":{"Latitude":55.84897,"Longitude":-3.57928}},"Address":{"Label":"Burngrange Crescent, West Calder, EH55 8, United Kingdom","Country":"GBR","State":"Scotland","County":"West Lothian","City":"West Calder","District":"West Calder","Street":"Burngrange Crescent","PostalCode":"EH55 8","AdditionalData":[{"value":"United Kingdom","key":"CountryName"},{"value":"Scotland","key":"StateName"},{"value":"West Lothian","key":"CountyName"}]},"MapReference":{"ReferenceId":"1061375631","Spot":0.78,"SideOfStreet":"left","StateId":"20252820","CountyId":"20292763","CityId":"20292787","DistrictId":"20292788"}}},{"Relevance":1.0,"Distance":74.7,"MatchLevel":"street","MatchQuality":{"Country":1.0,"State":1.0,"County":1.0,"City":1.0,"District":1.0,"Street":[1.0],"PostalCode":1.0},"Location":{"LocationId":"NT_nDNp3WLuKvnK6oiyB2YbLD_l_1182117337_L","LocationType":"point","DisplayPosition":{"Latitude":55.8490153,"Longitude":-3.5791615},"MapView":{"TopLeft":{"Latitude":55.84934,"Longitude":-3.57928},"BottomRight":{"Latitude":55.84897,"Longitude":-3.57823}},"Address":{"Label":"West End, West Calder, EH55 8, United Kingdom","Country":"GBR","State":"Scotland","County":"West Lothian","City":"West Calder","District":"West Calder","Street":"West End","PostalCode":"EH55 8","AdditionalData":[{"value":"United Kingdom","key":"CountryName"},{"value":"Scotland","key":"StateName"},{"value":"West Lothian","key":"CountyName"}]},"MapReference":{"ReferenceId":"1182117337","Spot":0.11,"SideOfStreet":"left","StateId":"20252820","CountyId":"20292763","CityId":"20292787","DistrictId":"20292788"}}},{"Relevance":1.0,"Distance":74.9,"MatchLevel":"street","MatchQuality":{"Country":1.0,"State":1.0,"County":1.0,"City":1.0,"District":1.0,"Street":[1.0],"PostalCode":1.0},"Location":{"LocationId":"NT_4fNDH3Q-rQRowIVJ1AkUUB_l_704594856_R","LocationType":"point","DisplayPosition":{"Latitude":55.85021,"Longitude":-3.57869},"MapView":{"TopLeft":{"Latitude":55.85033,"Longitude":-3.57869},"BottomRight":{"Latitude":55.85021,"Longitude":-3.57832}},"Address":{"Label":"Munro Court, West Calder, EH55 8, United Kingdom","Country":"GBR","State":"Scotland","County":"West Lothian","City":"West Calder","District":"West Calder","Street":"Munro Court","PostalCode":"EH55 8","AdditionalData":[{"value":"United Kingdom","key":"CountryName"},{"value":"Scotland","key":"StateName"},{"value":"West Lothian","key":"CountyName"}]},"MapReference":{"ReferenceId":"704594856","Spot":0.0,"SideOfStreet":"right","StateId":"20252820","CountyId":"20292763","CityId":"20292787","DistrictId":"20292788"}}},{"Relevance":1.0,"Distance":78.5,"MatchLevel":"street","MatchQuality":{"Country":1.0,"State":1.0,"County":1.0,"City":1.0,"District":1.0,"Street":[1.0],"PostalCode":1.0},"Location":{"LocationId":"NT_Bl3B-JX1uhH5FIneJZi7zB_l_1061375629_L","LocationType":"point","DisplayPosition":{"Latitude":55.84897,"Longitude":-3.57928},"MapView":{"TopLeft":{"Latitude":55.84897,"Longitude":-3.57986},"BottomRight":{"Latitude":55.84874,"Longitude":-3.57928}},"Address":{"Label":"West End, West Calder, EH55 8, United Kingdom","Country":"GBR","State":"Scotland","County":"West Lothian","City":"West Calder","District":"West Calder","Street":"West End","PostalCode":"EH55 8","AdditionalData":[{"value":"United Kingdom","key":"CountryName"},{"value":"Scotland","key":"StateName"},{"value":"West Lothian","key":"CountyName"}]},"MapReference":{"ReferenceId":"1061375629","Spot":1.0,"SideOfStreet":"left","StateId":"20252820","CountyId":"20292763","CityId":"20292787","DistrictId":"20292788"}}},{"Relevance":1.0,"Distance":80.1,"MatchLevel":"postalCode","MatchQuality":{"PostalCode":1.0},"Location":{"LocationId":"NT_4fNDH3Q-rQRowIVJ1AkUUB_l_704594856_R","LocationType":"point","DisplayPosition":{"Latitude":55.8502,"Longitude":-3.57854},"MapView":{"TopLeft":{"Latitude":55.8591932,"Longitude":-3.5945605},"BottomRight":{"Latitude":55.8412068,"Longitude":-3.5625195}},"Address":{"Label":"EH55 8DU, West Calder, Scotland, United Kingdom","Country":"GBR","State":"Scotland","County":"West Lothian","City":"West Calder","PostalCode":"EH55 8DU","AdditionalData":[{"value":"United Kingdom","key":"CountryName"},{"value":"Scotland","key":"StateName"},{"value":"West Lothian","key":"CountyName"}]},"MapReference":{"ReferenceId":"704594856","Spot":0.0,"SideOfStreet":"neither","StateId":"20252820","CountyId":"20292763","CityId":"20292787"}}},{"Relevance":1.0,"Distance":82.6,"MatchLevel":"street","MatchQuality":{"Country":1.0,"State":1.0,"County":1.0,"City":1.0,"District":1.0,"Street":[1.0],"PostalCode":1.0},"Location":{"LocationId":"NT_nDNp3WLuKvnK6oiyB2YbLD_l_1182117338_L","LocationType":"point","DisplayPosition":{"Latitude":55.84934,"Longitude":-3.57823},"MapView":{"TopLeft":{"Latitude":55.8496,"Longitude":-3.57823},"BottomRight":{"Latitude":55.84934,"Longitude":-3.57737}},"Address":{"Label":"West End, West Calder, EH55 8, United Kingdom","Country":"GBR","State":"Scotland","County":"West Lothian","City":"West Calder","District":"West Calder","Street":"West End","PostalCode":"EH55 8","AdditionalData":[{"value":"United Kingdom","key":"CountryName"},{"value":"Scotland","key":"StateName"},{"value":"West Lothian","key":"CountyName"}]},"MapReference":{"ReferenceId":"1182117338","Spot":0.0,"SideOfStreet":"left","StateId":"20252820","CountyId":"20292763","CityId":"20292787","DistrictId":"20292788"}}},{"Relevance":1.0,"Distance":95.7,"MatchLevel":"postalCode","MatchQuality":{"PostalCode":1.0},"Location":{"LocationId":"NT_nDNp3WLuKvnK6oiyB2YbLD_l_1182117338_L","LocationType":"point","DisplayPosition":{"Latitude":55.84991,"Longitude":-3.57794},"MapView":{"TopLeft":{"Latitude":55.8589032,"Longitude":-3.5939603},"BottomRight":{"Latitude":55.8409168,"Longitude":-3.5619197}},"Address":{"Label":"EH55 8EJ, West Calder, Scotland, United Kingdom","Country":"GBR","State":"Scotland","County":"West Lothian","City":"West Calder","PostalCode":"EH55 8EJ","AdditionalData":[{"value":"United Kingdom","key":"CountryName"},{"value":"Scotland","key":"StateName"},{"value":"West Lothian","key":"CountyName"}]},"MapReference":{"ReferenceId":"1182117338","Spot":0.0,"SideOfStreet":"neither","StateId":"20252820","CountyId":"20292763","CityId":"20292787"}}},{"Relevance":1.0,"Distance":100.0,"MatchLevel":"street","MatchQuality":{"Country":1.0,"State":1.0,"County":1.0,"City":1.0,"District":1.0,"Street":[1.0],"PostalCode":1.0},"Location":{"LocationId":"NT_4fNDH3Q-rQRowIVJ1AkUUB_l_704594861_L","LocationType":"point","DisplayPosition":{"Latitude":55.85033,"Longitude":-3.57832},"MapView":{"TopLeft":{"Latitude":55.85033,"Longitude":-3.57832},"BottomRight":{"Latitude":55.84993,"Longitude":-3.57784}},"Address":{"Label":"Munro Court, West Calder, EH55 8, United Kingdom","Country":"GBR","State":"Scotland","County":"West Lothian","City":"West Calder","District":"West Calder","Street":"Munro Court","PostalCode":"EH55 8","AdditionalData":[{"value":"United Kingdom","key":"CountryName"},{"value":"Scotland","key":"StateName"},{"value":"West Lothian","key":"CountyName"}]},"MapReference":{"ReferenceId":"704594861","Spot":1.0,"SideOfStreet":"left","StateId":"20252820","CountyId":"20292763","CityId":"20292787","DistrictId":"20292788"}}}]}]}}