{"Response":{"MetaInfo":{"Timestamp":"2020-03-28T10:32:21.214+0000","NextPageInformation":"2"},"View":[{"_type":"SearchResultsViewType","ViewId":0,"Result":[{"Relevance":1.0,"Distance":0.0,"Direction":0.0,"MatchLevel":"district","MatchQuality":{"Country":1.0,"State":1.0,"County":1.0,"City":1.0,"District":1.0,"PostalCode":1.0},"Location":{"LocationId":"NT_UMbwS0e31ELO2NGJcd4D8B","LocationType":"point","DisplayPosition":{"Latitude":55.88532,"Longitude":-3.7596618},"MapView":{"TopLeft":{"Latitude":55.88927,"Longitude":-3.78018},"BottomRight":{"Latitude":55.87718,"Longitude":-3.74782}},"Address":{"Label":"Blackridge, Bathgate, Scotland, United Kingdom","Country":"GBR","State":"Scotland","County":"West Lothian","City":"Bathgate","District":"Blackridge","PostalCode":"EH48 3","AdditionalData":[{"value":"United Kingdom","key":"CountryName"},{"value":"Scotland","key":"StateName"},{"value":"West Lothian","key":"CountyName"}]},"MapReference":{"ReferenceId":"19311392","SideOfStreet":"neither","StateId":"20252820","CountyId":"20292763","CityId":"20292764","DistrictId":"20340609"}}},{"Relevance":1.0,"Distance":18.4,"MatchLevel":"houseNumber","MatchQuality":{"Country":1.0,"State":1.0,"County":1.0,"City":1.0,"District":1.0,"Street":[1.0],"HouseNumber":1.0,"PostalCode":1.0},"MatchType":"interpolated","Location":{"LocationId":"NT_mZhkB2cZyPfRONB.SyNgHC_l_19099615_L_xAD","LocationType":"point","DisplayPosition":{"Latitude":55.88503,"Longitude":-3.759535},"MapView":{"TopLeft":{"Latitude":55.8861542,"Longitude":-3.7615393},"BottomRight":{"Latitude":55.8839059,"Longitude":-3.7575306}},"Address":{"Label":"10 Craiginn Terrace, Bathgate, EH48 3SR, United Kingdom","Country":"GBR","State":"Scotland","County":"West Lothian","City":"Bathgate","District":"Blackridge","Street":"Craiginn Terrace","HouseNumber":"10","PostalCode":"EH48 3SR","AdditionalData":[{"value":"United Kingdom","key":"CountryName"},{"value":"Scotland","key":"StateName"},{"value":"West Lothian","key":"CountyName"}]},"MapReference":{"ReferenceId":"19099615","Spot":0.5,"SideOfStreet":"left","StateId":"20252820","CountyId":"20292763","CityId":"20292764","DistrictId":"20340609"}}},{"Relevance":1.0,"Distance":23.1,"MatchLevel":"houseNumber","MatchQuality":{"Country":1.0,"State":1.0,"County":1.0,"City":1.0,"District":1.0,"Street":[1.0],"HouseNumber":1.0,"PostalCode":1.0},"MatchType":"interpolated","Location":{"LocationId":"NT_SXMt1yE0PJJkrGMuF5M4XA_l_19099548_L_1A","LocationType":"point","DisplayPosition":{"Latitude":55.885414,"Longitude":-3.759144},"MapView":{"TopLeft":{"Latitude":55.8865382,"Longitude":-3.7611484},"BottomRight":{"Latitude":55.8842899,"Longitude":-3.7571396}},"Address":{"Label":"5 Fleming Place, Bathgate, EH48 3SS, United Kingdom","Country":"GBR","State":"Scotland","County":"West Lothian","City":"Bathgate","District":"Blackridge","Street":"Fleming Place","HouseNumber":"5","PostalCode":"EH48 3SS","AdditionalData":[{"value":"United Kingdom","key":"CountryName"},{"value":"Scotland","key":"StateName"},{"value":"West Lothian","key":"CountyName"}]},"MapReference":{"ReferenceId":"19099548","Spot":0.61,"SideOfStreet":"left","StateId":"20252820","CountyId":"20292763","CityId":"20292764","DistrictId":"20340609"}}},{"Relevance":1.0,"Distance":38.8,"MatchLevel":"postalCode","MatchQuality":{"PostalCode":1.0},"MatchType":"interpolated","Location":{"LocationId":"NT_SXMt1yE0PJJkrGMuF5M4XA_l_19099548_L_1A","LocationType":"point","DisplayPosition":{"Latitude":55.88551,"Longitude":-3.75914},"MapView":{"TopLeft":{"Latitude":55.8945032,"Longitude":-3.775175},"BottomRight":{"Latitude":55.8765168,"Longitude":-3.743105}},"Address":{"Label":"EH48 3SS, Bathgate, Scotland, United Kingdom","Country":"GBR","State":"Scotland","County":"West Lothian","City":"Bathgate","PostalCode":"EH48 3SS","AdditionalData":[{"value":"United Kingdom","key":"CountryName"},{"value":"Scotland","key":"StateName"},{"value":"West Lothian","key":"CountyName"}]},"MapReference":{"ReferenceId":"19099548","Spot":0.61,"SideOfStreet":"neither","StateId":"20252820","CountyId":"20292763","CityId":"20292764"}}},{"Relevance":1.0,"Distance":45.2,"MatchLevel":"postalCode","MatchQuality":{"PostalCode":1.0},"MatchType":"interpolated","Location":{"LocationId":"NT_mZhkB2cZyPfRONB.SyNgHC_l_19099615_L_xAD","LocationType":"point","DisplayPosition":{"Latitude":55.88498,"Longitude":-3.76006},"MapView":{"TopLeft":{"Latitude":55.8939732,"Longitude":-3.7760948},"BottomRight":{"Latitude":55.8759868,"Longitude":-3.7440252}},"Address":{"Label":"EH48 3SR, Bathgate, Scotland, United Kingdom","Country":"GBR","State":"Scotland","County":"West Lothian","City":"Bathgate","PostalCode":"EH48 3SR","AdditionalData":[{"value":"United Kingdom","key":"CountryName"},{"value":"Scotland","key":"StateName"},{"value":"West Lothian","key":"CountyName"}]},"MapReference":{"ReferenceId":"19099615","Spot":0.5,"SideOfStreet":"neither","StateId":"20252820","CountyId":"20292763","CityId":"20292764"}}},{"Relevance":1.0,"Distance":48.2,"MatchLevel":"street","MatchQuality":{"Country":1.0,"State":1.0,"County":1.0,"City":1.0,"District":1.0,"Street":[1.0],"PostalCode":1.0},"Location":{"LocationId":"NT_MsclN19nwCeYXiXV85WTYA_l_844971804_L","LocationType":"point","DisplayPosition":{"Latitude":55.88515,"Longitude":-3.75895},"MapView":{"TopLeft":{"Latitude":55.88531,"Longitude":-3.75895},"BottomRight":{"Latitude":55.88515,"Longitude":-3.75814}},"Address":{"Label":"A89, Bathgate, EH48 3, United Kingdom","Country":"GBR","State":"Scotland","County":"West Lothian","City":"Bathgate","District":"Blackridge","Street":"A89","PostalCode":"EH48 3","AdditionalData":[{"value":"United Kingdom","key":"CountryName"},{"value":"Scotland","key":"StateName"},{"value":"West Lothian","key":"CountyName"}]},"MapReference":{"ReferenceId":"844971804","Spot":0.0,"SideOfStreet":"left","StateId":"20252820","CountyId":"20292763","CityId":"20292764","DistrictId":"20340609"}}},{"Relevance":1.0,"Distance":64.4,"MatchLevel":"houseNumber","MatchQuality":{"Country":1.0,"State":1.0,"County":1.0,"City":1.0,"District":1.0,"Street":[1.0],"HouseNumber":1.0,"PostalCode":1.0},"MatchType":"interpolated","Location":{"LocationId":"NT_mZhkB2cZyPfRONB.SyNgHC_l_565850832_L_2A","LocationType":"point","DisplayPosition":{"Latitude":55.8848467,"Longitude":-3.7604733},"MapView":{"TopLeft":{"Latitude":55.8859708,"Longitude":-3.7624777},"BottomRight":{"Latitude":55.8837225,"Longitude":-3.758469}},"Address":{"Label":"6 Craiginn Terrace, Bathgate, EH48 3SR, United Kingdom","Country":"GBR","State":"Scotland","County":"West Lothian","City":"Bathgate","District":"Blackridge","Street":"Craiginn Terrace","HouseNumber":"6","PostalCode":"EH48 3SR","AdditionalData":[{"value":"United Kingdom","key":"CountryName"},{"value":"Scotland","key":"StateName"},{"value":"West Lothian","key":"CountyName"}]},"MapReference":{"ReferenceId":"565850832","Spot":0.58,"SideOfStreet":"left","StateId":"20252820","CountyId":"20292763","CityId":"20292764","DistrictId":"20340609"}}},{"Relevance":1.0,"Distance":87.6,"MatchLevel":"postalCode","MatchQuality":{"PostalCode":1.0},"Location":{"LocationId":"NT_1p5GT2s.U5TzB8D1-AIv5C_l_844971806_L","LocationType":"point","DisplayPosition":{"Latitude":55.88546,"Longitude":-3.75828},"MapView":{"TopLeft":{"Latitude":55.8944532,"Longitude":-3.774315},"BottomRight":{"Latitude":55.8764668,"Longitude":-3.742245}},"Address":{"Label":"EH48 3TQ, Bathgate, Scotland, United Kingdom","Country":"GBR","State":"Scotland","County":"West Lothian","City":"Bathgate","PostalCode":"EH48 3TQ","AdditionalData":[{"value":"United Kingdom","key":"CountryName"},{"value":"Scotland","key":"StateName"},{"value":"West Lothian","key":"CountyName"}]},"MapReference":{"ReferenceId":"844971806","Spot":1.0,"SideOfStreet":"neither","StateId":"20252820","CountyId":"20292763","CityId":"20292764"}}},{"Relevance":1.0,"Distance":89.1,"MatchLevel":"street","MatchQuality":{"Country":1.0,"State":1.0,"County":1.0,"City":1.0,"District":1.0,"Street":[1.0],"PostalCode":1.0},"Location":{"LocationId":"NT_1p5GT2s.U5TzB8D1-AIv5C_l_844971806_L","LocationType":"point","DisplayPosition":{"Latitude":55.88558,"Longitude":-3.75831},"MapView":{"TopLeft":{"Latitude":55.88558,"Longitude":-3.75831},"BottomRight":{"Latitude":55.88531,"Longitude":-3.75814}},"Address":{"Label":"Parkville Court, Bathgate, EH48 3, United Kingdom","Country":"GBR","State":"Scotland","County":"West Lothian","City":"Bathgate","District":"Blackridge","Street":"Parkville Court","PostalCode":"EH48 3","AdditionalData":[{"value":"United Kingdom","key":"CountryName"},{"value":"Scotland","key":"StateName"},{"value":"West Lothian","key":"CountyName"}]},"MapReference":{"ReferenceId":"844971806","Spot":1.0,"SideOfStreet":"left","StateId":"20252820","CountyId":"20292763","CityId":"20292764","DistrictId":"20340609"}}},{"Relevance":1.0,"Distance":92.4,"MatchLevel":"postalCode","MatchQuality":{"PostalCode":1.0},"Location":{"LocationId":"NT_pf566W8KByKYmY8ci8nATC_l_565850837_R","LocationType":"point","DisplayPosition":{"Latitude":55.885,"Longitude":-3.76103},"MapView":{"TopLeft":{"Latitude":55.8939932,"Longitude":-3.7770648},"BottomRight":{"Latitude":55.8760068,"Longitude":-3.7449952}},"Address":{"Label":"EH48 3TG, Bathgate, Scotland, United Kingdom","Country":"GBR","State":"Scotland","County":"West Lothian","City":"Bathgate","PostalCode":"EH48 3TG","AdditionalData":[{"value":"United Kingdom","key":"CountryName"},{"value":"Scotland","key":"StateName"},{"value":"West Lothian","key":"CountyName"}]},"MapReference":{"ReferenceId":"565850837","Spot":0.0,"SideOfStreet":"neither","StateId":"20252820","CountyId":"20292763","CityId":"20292764"}}}]}]}}