{"Response":{"MetaInfo":{"Timestamp":"2020-03-28T09:51:36.064+0000","NextPageInformation":"2"},"View":[{"_type":"SearchResultsViewType","ViewId":0,"Result":[{"Relevance":1.0,"Distance":0.0,"Direction":0.0,"MatchLevel":"district","MatchQuality":{"Country":1.0,"State":1.0,"County":1.0,"City":1.0,"District":1.0,"PostalCode":1.0},"Location":{"LocationId":"NT_nCnNFN8W-V4B-9phet0-XB","LocationType":"point","DisplayPosition":{"Latitude":55.908389,"Longitude":-3.1631534},"MapView":{"TopLeft":{"Latitude":55.94663,"Longitude":-3.19269},"BottomRight":{"Latitude":55.89872,"Longitude":-3.11172}},"Address":{"Label":"EH16, Edinburgh, Scotland, United Kingdom","Country":"GBR","State":"Scotland","County":"Midlothian","City":"Edinburgh","District":"EH16","PostalCode":"EH16 4","AdditionalData":[{"value":"United Kingdom","key":"CountryName"},{"value":"Scotland","key":"StateName"},{"value":"Midlothian","key":"CountyName"}]},"MapReference":{"ReferenceId":"1220480740","SideOfStreet":"neither","StateId":"20252820","CountyId":"20292408","CityId":"20292413","DistrictId":"20292421"}}},{"Relevance":1.0,"Distance":23.5,"MatchLevel":"street","MatchQuality":{"Country":1.0,"State":1.0,"County":1.0,"City":1.0,"District":1.0,"PostalCode":1.0},"Location":{"LocationId":"NT_RR28qjZfet7XFqCekDB5QC_l_1214947508_L","LocationType":"point","DisplayPosition":{"Latitude":55.90844,"Longitude":-3.16352},"MapView":{"TopLeft":{"Latitude":55.90845,"Longitude":-3.16409},"BottomRight":{"Latitude":55.90844,"Longitude":-3.16352}},"Address":{"Label":"Edinburgh, EH16 6, United Kingdom","Country":"GBR","State":"Scotland","County":"Midlothian","City":"Edinburgh","District":"EH16","PostalCode":"EH16 6","AdditionalData":[{"value":"United Kingdom","key":"CountryName"},{"value":"Scotland","key":"StateName"},{"value":"Midlothian","key":"CountyName"}]},"MapReference":{"ReferenceId":"1214947508","Spot":0.0,"SideOfStreet":"left","StateId":"20252820","CountyId":"20292408","CityId":"20292413","DistrictId":"20292421"}}},{"Relevance":1.0,"Distance":24.7,"MatchLevel":"street","MatchQuality":{"Country":1.0,"State":1.0,"County":1.0,"City":1.0,"District":1.0,"Street":[1.0],"PostalCode":1.0},"Location":{"LocationId":"NT_R-muKWwoAL3pjIjVOPTC0A_l_926460975_R","LocationType":"point","DisplayPosition":{"Latitude":55.9084897,"Longitude":-3.1635058},"MapView":{"TopLeft":{"Latitude":55.90877,"Longitude":-3.16352},"BottomRight":{"Latitude":55.90844,"Longitude":-3.16344}},"Address":{"Label":"Liberton Gardens, Edinburgh, EH16 6, United Kingdom","Country":"GBR","State":"Scotland","County":"Midlothian","City":"Edinburgh","District":"EH16","Street":"Liberton Gardens","PostalCode":"EH16 6","AdditionalData":[{"value":"United Kingdom","key":"CountryName"},{"value":"Scotland","key":"StateName"},{"value":"Midlothian","key":"CountyName"}]},"MapReference":{"ReferenceId":"926460975","Spot":0.15,"SideOfStreet":"right","StateId":"20252820","CountyId":"20292408","CityId":"20292413","DistrictId":"20292421"}}},{"Relevance":1.0,"Distance":30.5,"MatchLevel":"houseNumber","MatchQuality":{"Country":1.0,"State":1.0,"County":1.0,"City":1.0,"District":1.0,"Street":[1.0],"HouseNumber":1.0,"PostalCode":1.0},"MatchType":"interpolated","Location":{"LocationId":"NT_R-muKWwoAL3pjIjVOPTC0A_l_926599367_R_2UD","LocationType":"point","DisplayPosition":{"Latitude":55.9082023,"Longitude":-3.1635779},"MapView":{"TopLeft":{"Latitude":55.9093265,"Longitude":-3.1655835},"BottomRight":{"Latitude":55.9070782,"Longitude":-3.1615724}},"Address":{"Label":"65 Liberton Gardens, Edinburgh, EH16 6JT, United Kingdom","Country":"GBR","State":"Scotland","County":"Midlothian","City":"Edinburgh","District":"EH16","Street":"Liberton Gardens","HouseNumber":"65","PostalCode":"EH16 6JT","AdditionalData":[{"value":"United Kingdom","key":"CountryName"},{"value":"Scotland","key":"StateName"},{"value":"Midlothian","key":"CountyName"}]},"MapReference":{"ReferenceId":"926599367","Spot":0.51,"SideOfStreet":"right","StateId":"20252820","CountyId":"20292408","CityId":"20292413","DistrictId":"20292421"}}},{"Relevance":1.0,"Distance":41.0,"MatchLevel":"street","MatchQuality":{"Country":1.0,"State":1.0,"County":1.0,"City":1.0,"District":1.0,"PostalCode":1.0},"Location":{"LocationId":"NT_RR28qjZfet7XFqCekDB5QC_l_926599368_L","LocationType":"point","DisplayPosition":{"Latitude":55.90804,"Longitude":-3.16294},"MapView":{"TopLeft":{"Latitude":55.90804,"Longitude":-3.16366},"BottomRight":{"Latitude":55.90792,"Longitude":-3.16294}},"Address":{"Label":"Edinburgh, EH16 6, United Kingdom","Country":"GBR","State":"Scotland","County":"Midlothian","City":"Edinburgh","District":"EH16","PostalCode":"EH16 6","AdditionalData":[{"value":"United Kingdom","key":"CountryName"},{"value":"Scotland","key":"StateName"},{"value":"Midlothian","key":"CountyName"}]},"MapReference":{"ReferenceId":"926599368","Spot":1.0,"SideOfStreet":"left","StateId":"20252820","CountyId":"20292408","CityId":"20292413","DistrictId":"20292421"}}},{"Relevance":1.0,"Distance":51.8,"MatchLevel":"houseNumber","MatchQuality":{"Country":1.0,"State":1.0,"County":1.0,"City":1.0,"District":1.0,"Street":[1.0],"HouseNumber":1.0,"PostalCode":1.0},"MatchType":"interpolated","Location":{"LocationId":"NT_cXy1.oTEXBDvgJVuyESpDB_l_1220492273_R_2ED","LocationType":"point","DisplayPosition":{"Latitude":55.9089,"Longitude":-3.1634},"MapView":{"TopLeft":{"Latitude":55.9100242,"Longitude":-3.1654056},"BottomRight":{"Latitude":55.9077759,"Longitude":-3.1613944}},"Address":{"Label":"61 Liberton Gardens, Edinburgh, EH16 6JT, United Kingdom","Country":"GBR","State":"Scotland","County":"Midlothian","City":"Edinburgh","District":"EH16","Street":"Liberton Gardens","HouseNumber":"61","PostalCode":"EH16 6JT","AdditionalData":[{"value":"United Kingdom","key":"CountryName"},{"value":"Scotland","key":"StateName"},{"value":"Midlothian","key":"CountyName"}]},"MapReference":{"ReferenceId":"1220492273","Spot":0.41,"SideOfStreet":"right","StateId":"20252820","CountyId":"20292408","CityId":"20292413","DistrictId":"20292421"}}},{"Relevance":1.0,"Distance":57.2,"MatchLevel":"street","MatchQuality":{"Country":1.0,"State":1.0,"County":1.0,"City":1.0,"District":1.0,"Street":[1.0],"PostalCode":1.0},"Location":{"LocationId":"NT_R-muKWwoAL3pjIjVOPTC0A_l_926599366_R","LocationType":"point","DisplayPosition":{"Latitude":55.90796,"Longitude":-3.16366},"MapView":{"TopLeft":{"Latitude":55.90796,"Longitude":-3.1637},"BottomRight":{"Latitude":55.90788,"Longitude":-3.16366}},"Address":{"Label":"Liberton Gardens, Edinburgh, EH16 6, United Kingdom","Country":"GBR","State":"Scotland","County":"Midlothian","City":"Edinburgh","District":"EH16","Street":"Liberton Gardens","PostalCode":"EH16 6","AdditionalData":[{"value":"United Kingdom","key":"CountryName"},{"value":"Scotland","key":"StateName"},{"value":"Midlothian","key":"CountyName"}]},"MapReference":{"ReferenceId":"926599366","Spot":1.0,"SideOfStreet":"right","StateId":"20252820","CountyId":"20292408","CityId":"20292413","DistrictId":"20292421"}}},{"Relevance":1.0,"Distance":58.8,"MatchLevel":"street","MatchQuality":{"Country":1.0,"State":1.0,"County":1.0,"City":1.0,"District":1.0,"PostalCode":1.0},"Location":{"LocationId":"NT_RR28qjZfet7XFqCekDB5QC_l_1214947509_R","LocationType":"point","DisplayPosition":{"Latitude":55.90845,"Longitude":-3.16409},"MapView":{"TopLeft":{"Latitude":55.90868,"Longitude":-3.16485},"BottomRight":{"Latitude":55.90845,"Longitude":-3.16409}},"Address":{"Label":"Edinburgh, EH16 6, United Kingdom","Country":"GBR","State":"Scotland","County":"Midlothian","City":"Edinburgh","District":"EH16","PostalCode":"EH16 6","AdditionalData":[{"value":"United Kingdom","key":"CountryName"},{"value":"Scotland","key":"StateName"},{"value":"Midlothian","key":"CountyName"}]},"MapReference":{"ReferenceId":"1214947509","Spot":0.0,"SideOfStreet":"right","StateId":"20252820","CountyId":"20292408","CityId":"20292413","DistrictId":"20292421"}}},{"Relevance":1.0,"Distance":58.8,"MatchLevel":"street","MatchQuality":{"Country":1.0,"State":1.0,"County":1.0,"City":1.0,"District":1.0,"Street":[1.0],"PostalCode":1.0},"Location":{"LocationId":"NT_n7onxx8tikq.OapX7N6GFA_l_1214947510_R","LocationType":"point","DisplayPosition":{"Latitude":55.90874,"Longitude":-3.16386},"MapView":{"TopLeft":{"Latitude":55.9102,"Longitude":-3.16786},"BottomRight":{"Latitude":55.90845,"Longitude":-3.16382}},"Address":{"Label":"Coulter Crescent, Edinburgh, EH16 6, United Kingdom","Country":"GBR","State":"Scotland","County":"Midlothian","City":"Edinburgh","District":"EH16","Street":"Coulter Crescent","PostalCode":"EH16 6","AdditionalData":[{"value":"United Kingdom","key":"CountryName"},{"value":"Scotland","key":"StateName"},{"value":"Midlothian","key":"CountyName"}]},"MapReference":{"ReferenceId":"1214947510","Spot":0.08,"SideOfStreet":"right","StateId":"20252820","CountyId":"20292408","CityId":"20292413","DistrictId":"20292421"}}},{"Relevance":1.0,"Distance":66.1,"MatchLevel":"street","MatchQuality":{"Country":1.0,"State":1.0,"County":1.0,"City":1.0,"District":1.0,"Street":[1.0],"PostalCode":1.0},"Location":{"LocationId":"NT_R-muKWwoAL3pjIjVOPTC0A_l_926460981_R","LocationType":"point","DisplayPosition":{"Latitude":55.90788,"Longitude":-3.1637},"MapView":{"TopLeft":{"Latitude":55.90788,"Longitude":-3.16422},"BottomRight":{"Latitude":55.907,"Longitude":-3.1637}},"Address":{"Label":"Liberton Gardens, Edinburgh, EH16 6, United Kingdom","Country":"GBR","State":"Scotland","County":"Midlothian","City":"Edinburgh","District":"EH16","Street":"Liberton Gardens","PostalCode":"EH16 6","AdditionalData":[{"value":"United Kingdom","key":"CountryName"},{"value":"Scotland","key":"StateName"},{"value":"Midlothian","key":"CountyName"}]},"MapReference":{"ReferenceId":"926460981","Spot":1.0,"SideOfStreet":"right","StateId":"20252820","CountyId":"20292408","CityId":"20292413","DistrictId":"20292421"}}}]}]}}