{"Response":{"MetaInfo":{"Timestamp":"2020-03-28T09:51:09.248+0000","NextPageInformation":"2"},"View":[{"_type":"SearchResultsViewType","ViewId":0,"Result":[{"Relevance":1.0,"Distance":-5.2,"MatchLevel":"landmark","MatchQuality":{"Country":1.0,"State":1.0,"County":1.0,"City":1.0,"District":1.0,"PostalCode":1.0,"Name":1.0},"Location":{"LocationId":"NT_awhOk9MWc0p6wFN8o0BvOD","LocationType":"sportsComplex","Name":"Gracemount Leisure Centre","DisplayPosition":{"Latitude":55.90348,"Longitude":-3.15446},"MapView":{"TopLeft":{"Latitude":55.9043,"Longitude":-3.15574},"BottomRight":{"Latitude":55.90265,"Longitude":-3.15314}},"Address":{"Label":"Edinburgh, EH16 4, United Kingdom","Country":"GBR","State":"Scotland","County":"Midlothian","City":"Edinburgh","District":"EH16","PostalCode":"EH16 4","AdditionalData":[{"value":"United Kingdom","key":"CountryName"},{"value":"Scotland","key":"StateName"},{"value":"Midlothian","key":"CountyName"}]},"MapReference":{"StateId":"20252820","CountyId":"20292408","CityId":"20292413","DistrictId":"20292421","PlaceId":"1446733454"}}},{"Relevance":1.0,"Distance":0.0,"Direction":0.0,"MatchLevel":"district","MatchQuality":{"Country":1.0,"State":1.0,"County":1.0,"City":1.0,"District":1.0,"PostalCode":1.0},"Location":{"LocationId":"NT_yQUOOrNwxGNYiGCG87F-EA","LocationType":"point","DisplayPosition":{"Latitude":55.9038703,"Longitude":-3.1554566},"MapView":{"TopLeft":{"Latitude":55.92336,"Longitude":-3.16891},"BottomRight":{"Latitude":55.89799,"Longitude":-3.11541}},"Address":{"Label":"Gilmerton, Edinburgh, Scotland, United Kingdom","Country":"GBR","State":"Scotland","County":"Midlothian","City":"Edinburgh","District":"Gilmerton","PostalCode":"EH17 8","AdditionalData":[{"value":"United Kingdom","key":"CountryName"},{"value":"Scotland","key":"StateName"},{"value":"Midlothian","key":"CountyName"}]},"MapReference":{"ReferenceId":"873388964","SideOfStreet":"neither","StateId":"20252820","CountyId":"20292408","CityId":"20292413"}}},{"Relevance":1.0,"Distance":65.5,"MatchLevel":"street","MatchQuality":{"Country":1.0,"State":1.0,"County":1.0,"City":1.0,"District":1.0,"Street":[1.0],"PostalCode":1.0},"Location":{"LocationId":"NT_PShRUr9oq17YkAEvn9NOLD_l_1187246319_R","LocationType":"point","DisplayPosition":{"Latitude":55.90418,"Longitude":-3.15635},"MapView":{"TopLeft":{"Latitude":55.90508,"Longitude":-3.15689},"BottomRight":{"Latitude":55.90351,"Longitude":-3.15604}},"Address":{"Label":"Mansion Lane, Edinburgh, EH16 6, United Kingdom","Country":"GBR","State":"Scotland","County":"Midlothian","City":"Edinburgh","District":"EH16","Street":"Mansion Lane","PostalCode":"EH16 6","AdditionalData":[{"value":"United Kingdom","key":"CountryName"},{"value":"Scotland","key":"StateName"},{"value":"Midlothian","key":"CountyName"}]},"MapReference":{"ReferenceId":"1187246319","Spot":0.47,"SideOfStreet":"right","StateId":"20252820","CountyId":"20292408","CityId":"20292413","DistrictId":"20292421"}}},{"Relevance":1.0,"Distance":72.6,"MatchLevel":"houseNumber","MatchQuality":{"Country":1.0,"State":1.0,"County":1.0,"City":1.0,"District":1.0,"Street":[1.0],"HouseNumber":1.0,"PostalCode":1.0},"MatchType":"interpolated","Location":{"LocationId":"NT_R8kj7UkB7dODEj-7N.gYHA_l_1187235782_R_zAD","LocationType":"point","DisplayPosition":{"Latitude":55.9032762,"Longitude":-3.1563451},"MapView":{"TopLeft":{"Latitude":55.9044003,"Longitude":-3.1583504},"BottomRight":{"Latitude":55.902152,"Longitude":-3.1543398}},"Address":{"Label":"30 Gracemount Drive, Edinburgh, EH16 6RN, United Kingdom","Country":"GBR","State":"Scotland","County":"Midlothian","City":"Edinburgh","District":"EH16","Street":"Gracemount Drive","HouseNumber":"30","PostalCode":"EH16 6RN","AdditionalData":[{"value":"United Kingdom","key":"CountryName"},{"value":"Scotland","key":"StateName"},{"value":"Midlothian","key":"CountyName"}]},"MapReference":{"ReferenceId":"1187235782","Spot":0.38,"SideOfStreet":"right","StateId":"20252820","CountyId":"20292408","CityId":"20292413","DistrictId":"20292421"}}},{"Relevance":1.0,"Distance":77.0,"MatchLevel":"postalCode","MatchQuality":{"PostalCode":1.0},"MatchType":"interpolated","Location":{"LocationId":"NT_R8kj7UkB7dODEj-7N.gYHA_l_19038639_R_yID","LocationType":"point","DisplayPosition":{"Latitude":55.90383,"Longitude":-3.15669},"MapView":{"TopLeft":{"Latitude":55.9128232,"Longitude":-3.1727326},"BottomRight":{"Latitude":55.8948368,"Longitude":-3.1406474}},"Address":{"Label":"EH16 6RN, Edinburgh, Scotland, United Kingdom","Country":"GBR","State":"Scotland","County":"Midlothian","City":"Edinburgh","PostalCode":"EH16 6RN","AdditionalData":[{"value":"United Kingdom","key":"CountryName"},{"value":"Scotland","key":"StateName"},{"value":"Midlothian","key":"CountyName"}]},"MapReference":{"ReferenceId":"19038639","Spot":0.73,"SideOfStreet":"neither","StateId":"20252820","CountyId":"20292408","CityId":"20292413"}}},{"Relevance":1.0,"Distance":78.1,"MatchLevel":"postalCode","MatchQuality":{"PostalCode":1.0},"Location":{"LocationId":"NT_PShRUr9oq17YkAEvn9NOLD_l_1187246319_R","LocationType":"point","DisplayPosition":{"Latitude":55.90444,"Longitude":-3.15619},"MapView":{"TopLeft":{"Latitude":55.9134332,"Longitude":-3.1722328},"BottomRight":{"Latitude":55.8954468,"Longitude":-3.1401472}},"Address":{"Label":"EH16 6FE, Edinburgh, Scotland, United Kingdom","Country":"GBR","State":"Scotland","County":"Midlothian","City":"Edinburgh","PostalCode":"EH16 6FE","AdditionalData":[{"value":"United Kingdom","key":"CountryName"},{"value":"Scotland","key":"StateName"},{"value":"Midlothian","key":"CountyName"}]},"MapReference":{"ReferenceId":"1187246319","Spot":0.47,"SideOfStreet":"neither","StateId":"20252820","CountyId":"20292408","CityId":"20292413"}}},{"Relevance":1.0,"Distance":84.9,"MatchLevel":"houseNumber","MatchQuality":{"Country":1.0,"State":1.0,"County":1.0,"City":1.0,"District":1.0,"Street":[1.0],"HouseNumber":1.0,"PostalCode":1.0},"MatchType":"interpolated","Location":{"LocationId":"NT_R8kj7UkB7dODEj-7N.gYHA_l_1158093869_R_yYD","LocationType":"point","DisplayPosition":{"Latitude":55.9030205,"Longitude":-3.1559659},"MapView":{"TopLeft":{"Latitude":55.9041447,"Longitude":-3.1579712},"BottomRight":{"Latitude":55.9018964,"Longitude":-3.1539606}},"Address":{"Label":"26 Gracemount Drive, Edinburgh, EH16 6RP, United Kingdom","Country":"GBR","State":"Scotland","County":"Midlothian","City":"Edinburgh","District":"EH16","Street":"Gracemount Drive","HouseNumber":"26","PostalCode":"EH16 6RP","AdditionalData":[{"value":"United Kingdom","key":"CountryName"},{"value":"Scotland","key":"StateName"},{"value":"Midlothian","key":"CountyName"}]},"MapReference":{"ReferenceId":"1158093869","Spot":0.54,"SideOfStreet":"right","StateId":"20252820","CountyId":"20292408","CityId":"20292413","DistrictId":"20292421"}}},{"Relevance":1.0,"Distance":97.9,"MatchLevel":"street","MatchQuality":{"Country":1.0,"State":1.0,"County":1.0,"City":1.0,"District":1.0,"Street":[1.0],"PostalCode":1.0},"Location":{"LocationId":"NT_R8kj7UkB7dODEj-7N.gYHA_l_1187235783_R","LocationType":"point","DisplayPosition":{"Latitude":55.90351,"Longitude":-3.15689},"MapView":{"TopLeft":{"Latitude":55.90352,"Longitude":-3.15692},"BottomRight":{"Latitude":55.90351,"Longitude":-3.15689}},"Address":{"Label":"Gracemount Drive, Edinburgh, EH16 6, United Kingdom","Country":"GBR","State":"Scotland","County":"Midlothian","City":"Edinburgh","District":"EH16","Street":"Gracemount Drive","PostalCode":"EH16 6","AdditionalData":[{"value":"United Kingdom","key":"CountryName"},{"value":"Scotland","key":"StateName"},{"value":"Midlothian","key":"CountyName"}]},"MapReference":{"ReferenceId":"1187235783","Spot":0.0,"SideOfStreet":"right","StateId":"20252820","CountyId":"20292408","CityId":"20292413","DistrictId":"20292421"}}},{"Relevance":1.0,"Distance":99.2,"MatchLevel":"street","MatchQuality":{"Country":1.0,"State":1.0,"County":1.0,"City":1.0,"District":1.0,"Street":[1.0],"PostalCode":1.0},"Location":{"LocationId":"NT_.6kZ-fwF2UBG63vQ.e.pTB_l_19038410_R","LocationType":"point","DisplayPosition":{"Latitude":55.90352,"Longitude":-3.15692},"MapView":{"TopLeft":{"Latitude":55.90352,"Longitude":-3.15744},"BottomRight":{"Latitude":55.90304,"Longitude":-3.15692}},"Address":{"Label":"Balmwell Avenue, Edinburgh, EH16 6, United Kingdom","Country":"GBR","State":"Scotland","County":"Midlothian","City":"Edinburgh","District":"EH16","Street":"Balmwell Avenue","PostalCode":"EH16 6","AdditionalData":[{"value":"United Kingdom","key":"CountryName"},{"value":"Scotland","key":"StateName"},{"value":"Midlothian","key":"CountyName"}]},"MapReference":{"ReferenceId":"19038410","Spot":1.0,"SideOfStreet":"right","StateId":"20252820","CountyId":"20292408","CityId":"20292413","DistrictId":"20292421"}}},{"Relevance":1.0,"Distance":102.0,"MatchLevel":"houseNumber","MatchQuality":{"Country":1.0,"State":1.0,"County":1.0,"City":1.0,"District":1.0,"Street":[1.0],"HouseNumber":1.0,"PostalCode":1.0},"MatchType":"interpolated","Location":{"LocationId":"NT_R8kj7UkB7dODEj-7N.gYHA_l_1158093868_R_yQD","LocationType":"point","DisplayPosition":{"Latitude":55.9028447,"Longitude":-3.1557895},"MapView":{"TopLeft":{"Latitude":55.9039689,"Longitude":-3.1577948},"BottomRight":{"Latitude":55.9017206,"Longitude":-3.1537842}},"Address":{"Label":"24 Gracemount Drive, Edinburgh, EH16 6RN, United Kingdom","Country":"GBR","State":"Scotland","County":"Midlothian","City":"Edinburgh","District":"EH16","Street":"Gracemount Drive","HouseNumber":"24","PostalCode":"EH16 6RN","AdditionalData":[{"value":"United Kingdom","key":"CountryName"},{"value":"Scotland","key":"StateName"},{"value":"Midlothian","key":"CountyName"}]},"MapReference":{"ReferenceId":"1158093868","Spot":0.52,"SideOfStreet":"right","StateId":"20252820","CountyId":"20292408","CityId":"20292413","DistrictId":"20292421"}}}]}]}}