{"Response":{"MetaInfo":{"Timestamp":"2020-03-28T10:39:21.209+0000","NextPageInformation":"2"},"View":[{"_type":"SearchResultsViewType","ViewId":0,"Result":[{"Relevance":1.0,"Distance":0.0,"Direction":0.0,"MatchLevel":"district","MatchQuality":{"Country":1.0,"State":1.0,"County":1.0,"City":1.0,"District":1.0,"PostalCode":1.0},"Location":{"LocationId":"NT_FyqNXMt0hgeHrOi-LSLJDD","LocationType":"point","DisplayPosition":{"Latitude":55.9384646,"Longitude":-3.2267945},"MapView":{"TopLeft":{"Latitude":55.94555,"Longitude":-3.31291},"BottomRight":{"Latitude":55.91628,"Longitude":-3.21287}},"Address":{"Label":"EH11, Edinburgh, Scotland, United Kingdom","Country":"GBR","State":"Scotland","County":"Midlothian","City":"Edinburgh","District":"EH11","PostalCode":"EH11 3","AdditionalData":[{"value":"United Kingdom","key":"CountryName"},{"value":"Scotland","key":"StateName"},{"value":"Midlothian","key":"CountyName"}]},"MapReference":{"ReferenceId":"759997754","SideOfStreet":"neither","StateId":"20252820","CountyId":"20292408","CityId":"20292413","DistrictId":"20292416"}}},{"Relevance":1.0,"Distance":14.2,"MatchLevel":"houseNumber","MatchQuality":{"Country":1.0,"State":1.0,"County":1.0,"City":1.0,"District":1.0,"Street":[1.0],"HouseNumber":1.0,"PostalCode":1.0},"MatchType":"interpolated","Location":{"LocationId":"NT_fpzd.MpxGJDZpRw.dHwWzC_l_19029534_L_0UD","LocationType":"point","DisplayPosition":{"Latitude":55.93854,"Longitude":-3.22639},"MapView":{"TopLeft":{"Latitude":55.9396642,"Longitude":-3.2283971},"BottomRight":{"Latitude":55.9374159,"Longitude":-3.2243829}},"Address":{"Label":"45 Ardmillan Terrace, Edinburgh, EH11 2, United Kingdom","Country":"GBR","State":"Scotland","County":"Midlothian","City":"Edinburgh","District":"EH11","Street":"Ardmillan Terrace","HouseNumber":"45","PostalCode":"EH11 2","AdditionalData":[{"value":"United Kingdom","key":"CountryName"},{"value":"Scotland","key":"StateName"},{"value":"Midlothian","key":"CountyName"}]},"MapReference":{"ReferenceId":"19029534","Spot":0.17,"SideOfStreet":"left","StateId":"20252820","CountyId":"20292408","CityId":"20292413","DistrictId":"20292416"}}},{"Relevance":1.0,"Distance":24.7,"MatchLevel":"street","MatchQuality":{"Country":1.0,"State":1.0,"County":1.0,"City":1.0,"District":1.0,"PostalCode":1.0},"Location":{"LocationId":"NT_fSWZUyE.l5tCUgwMltNLAD_l_19029544_R","LocationType":"point","DisplayPosition":{"Latitude":55.93841,"Longitude":-3.22641},"MapView":{"TopLeft":{"Latitude":55.93841,"Longitude":-3.22641},"BottomRight":{"Latitude":55.93839,"Longitude":-3.22573}},"Address":{"Label":"Edinburgh, EH11 2, United Kingdom","Country":"GBR","State":"Scotland","County":"Midlothian","City":"Edinburgh","District":"EH11","PostalCode":"EH11 2","AdditionalData":[{"value":"United Kingdom","key":"CountryName"},{"value":"Scotland","key":"StateName"},{"value":"Midlothian","key":"CountyName"}]},"MapReference":{"ReferenceId":"19029544","Spot":1.0,"SideOfStreet":"right","StateId":"20252820","CountyId":"20292408","CityId":"20292413","DistrictId":"20292416"}}},{"Relevance":1.0,"Distance":43.4,"MatchLevel":"postalCode","MatchQuality":{"PostalCode":1.0},"MatchType":"interpolated","Location":{"LocationId":"NT_fpzd.MpxGJDZpRw.dHwWzC_l_19029534_L_0UD","LocationType":"point","DisplayPosition":{"Latitude":55.93875,"Longitude":-3.22632},"MapView":{"TopLeft":{"Latitude":55.9477432,"Longitude":-3.2423771},"BottomRight":{"Latitude":55.9297568,"Longitude":-3.2102629}},"Address":{"Label":"EH11 2JN, Edinburgh, Scotland, United Kingdom","Country":"GBR","State":"Scotland","County":"Midlothian","City":"Edinburgh","PostalCode":"EH11 2JN","AdditionalData":[{"value":"United Kingdom","key":"CountryName"},{"value":"Scotland","key":"StateName"},{"value":"Midlothian","key":"CountyName"}]},"MapReference":{"ReferenceId":"19029534","Spot":0.17,"SideOfStreet":"neither","StateId":"20252820","CountyId":"20292408","CityId":"20292413"}}},{"Relevance":1.0,"Distance":45.2,"MatchLevel":"houseNumber","MatchQuality":{"Country":1.0,"State":1.0,"County":1.0,"City":1.0,"District":1.0,"Street":[1.0],"HouseNumber":1.0,"PostalCode":1.0},"MatchType":"interpolated","Location":{"LocationId":"NT_fpzd.MpxGJDZpRw.dHwWzC_l_1220450633_L_zUD","LocationType":"point","DisplayPosition":{"Latitude":55.9380545,"Longitude":-3.2264417},"MapView":{"TopLeft":{"Latitude":55.9391787,"Longitude":-3.2284488},"BottomRight":{"Latitude":55.9369304,"Longitude":-3.2244346}},"Address":{"Label":"35 Ardmillan Terrace, Edinburgh, EH11 2JL, United Kingdom","Country":"GBR","State":"Scotland","County":"Midlothian","City":"Edinburgh","District":"EH11","Street":"Ardmillan Terrace","HouseNumber":"35","PostalCode":"EH11 2JL","AdditionalData":[{"value":"United Kingdom","key":"CountryName"},{"value":"Scotland","key":"StateName"},{"value":"Midlothian","key":"CountyName"}]},"MapReference":{"ReferenceId":"1220450633","Spot":0.5,"SideOfStreet":"left","StateId":"20252820","CountyId":"20292408","CityId":"20292413","DistrictId":"20292416"}}},{"Relevance":1.0,"Distance":52.1,"MatchLevel":"postalCode","MatchQuality":{"PostalCode":1.0},"MatchType":"interpolated","Location":{"LocationId":"NT_fpzd.MpxGJDZpRw.dHwWzC_l_1220450633_L_zUD","LocationType":"point","DisplayPosition":{"Latitude":55.93803,"Longitude":-3.22648},"MapView":{"TopLeft":{"Latitude":55.9470232,"Longitude":-3.2425368},"BottomRight":{"Latitude":55.9290368,"Longitude":-3.2104232}},"Address":{"Label":"EH11 2JL, Edinburgh, Scotland, United Kingdom","Country":"GBR","State":"Scotland","County":"Midlothian","City":"Edinburgh","PostalCode":"EH11 2JL","AdditionalData":[{"value":"United Kingdom","key":"CountryName"},{"value":"Scotland","key":"StateName"},{"value":"Midlothian","key":"CountyName"}]},"MapReference":{"ReferenceId":"1220450633","Spot":0.5,"SideOfStreet":"neither","StateId":"20252820","CountyId":"20292408","CityId":"20292413"}}},{"Relevance":1.0,"Distance":54.2,"MatchLevel":"houseNumber","MatchQuality":{"Country":1.0,"State":1.0,"County":1.0,"City":1.0,"District":1.0,"Street":[1.0],"HouseNumber":1.0,"PostalCode":1.0},"MatchType":"interpolated","Location":{"LocationId":"NT_m.VepzPBVIktyi0vUyI6XC_l_565838141_R_5A","LocationType":"point","DisplayPosition":{"Latitude":55.939066,"Longitude":-3.2270659},"MapView":{"TopLeft":{"Latitude":55.9401902,"Longitude":-3.2290731},"BottomRight":{"Latitude":55.9379419,"Longitude":-3.2250588}},"Address":{"Label":"9 Gorgie Road, Edinburgh, EH11 2, United Kingdom","Country":"GBR","State":"Scotland","County":"Midlothian","City":"Edinburgh","District":"EH11","Street":"Gorgie Road","HouseNumber":"9","PostalCode":"EH11 2","AdditionalData":[{"value":"United Kingdom","key":"CountryName"},{"value":"Scotland","key":"StateName"},{"value":"Midlothian","key":"CountyName"}]},"MapReference":{"ReferenceId":"565838141","Spot":0.65,"SideOfStreet":"right","StateId":"20252820","CountyId":"20292408","CityId":"20292413","DistrictId":"20292416"}}},{"Relevance":1.0,"Distance":71.2,"MatchLevel":"houseNumber","MatchQuality":{"Country":1.0,"State":1.0,"County":1.0,"City":1.0,"District":1.0,"Street":[1.0],"HouseNumber":1.0,"PostalCode":1.0},"MatchType":"interpolated","Location":{"LocationId":"NT_D2YFa0t61Rf.gR2bMW2y5C_l_19328070_L_xA","LocationType":"point","DisplayPosition":{"Latitude":55.93898,"Longitude":-3.22765},"MapView":{"TopLeft":{"Latitude":55.9401042,"Longitude":-3.2296572},"BottomRight":{"Latitude":55.9378559,"Longitude":-3.2256429}},"Address":{"Label":"1 Murieston Lane, Edinburgh, EH11 2, United Kingdom","Country":"GBR","State":"Scotland","County":"Midlothian","City":"Edinburgh","District":"EH11","Street":"Murieston Lane","HouseNumber":"1","PostalCode":"EH11 2","AdditionalData":[{"value":"United Kingdom","key":"CountryName"},{"value":"Scotland","key":"StateName"},{"value":"Midlothian","key":"CountyName"}]},"MapReference":{"ReferenceId":"19328070","Spot":0.0,"SideOfStreet":"left","StateId":"20252820","CountyId":"20292408","CityId":"20292413","DistrictId":"20292416"}}},{"Relevance":1.0,"Distance":72.9,"MatchLevel":"street","MatchQuality":{"Country":1.0,"State":1.0,"County":1.0,"City":1.0,"District":1.0,"Street":[1.0],"PostalCode":1.0},"Location":{"LocationId":"NT_m.VepzPBVIktyi0vUyI6XC_l_565838140_R","LocationType":"point","DisplayPosition":{"Latitude":55.93912,"Longitude":-3.22675},"MapView":{"TopLeft":{"Latitude":55.93918,"Longitude":-3.22675},"BottomRight":{"Latitude":55.93912,"Longitude":-3.22627}},"Address":{"Label":"Gorgie Road, Edinburgh, EH11 2, United Kingdom","Country":"GBR","State":"Scotland","County":"Midlothian","City":"Edinburgh","District":"EH11","Street":"Gorgie Road","PostalCode":"EH11 2","AdditionalData":[{"value":"United Kingdom","key":"CountryName"},{"value":"Scotland","key":"StateName"},{"value":"Midlothian","key":"CountyName"}]},"MapReference":{"ReferenceId":"565838140","Spot":0.0,"SideOfStreet":"right","StateId":"20252820","CountyId":"20292408","CityId":"20292413","DistrictId":"20292416"}}},{"Relevance":1.0,"Distance":75.0,"MatchLevel":"postalCode","MatchQuality":{"PostalCode":1.0},"MatchType":"interpolated","Location":{"LocationId":"NT_m.VepzPBVIktyi0vUyI6XC_l_565838141_R_5A","LocationType":"point","DisplayPosition":{"Latitude":55.9391,"Longitude":-3.2272},"MapView":{"TopLeft":{"Latitude":55.9480932,"Longitude":-3.2432572},"BottomRight":{"Latitude":55.9301068,"Longitude":-3.2111428}},"Address":{"Label":"EH11 2LZ, Edinburgh, Scotland, United Kingdom","Country":"GBR","State":"Scotland","County":"Midlothian","City":"Edinburgh","PostalCode":"EH11 2LZ","AdditionalData":[{"value":"United Kingdom","key":"CountryName"},{"value":"Scotland","key":"StateName"},{"value":"Midlothian","key":"CountyName"}]},"MapReference":{"ReferenceId":"565838141","Spot":0.65,"SideOfStreet":"neither","StateId":"20252820","CountyId":"20292408","CityId":"20292413"}}}]}]}}