{"Response":{"MetaInfo":{"Timestamp":"2020-03-28T11:20:07.562+0000","NextPageInformation":"2"},"View":[{"_type":"SearchResultsViewType","ViewId":0,"Result":[{"Relevance":1.0,"Distance":0.0,"Direction":0.0,"MatchLevel":"district","MatchQuality":{"Country":1.0,"State":1.0,"County":1.0,"City":1.0,"District":1.0,"PostalCode":1.0},"Location":{"LocationId":"NT_vLKFWZkd47sm5ukcoLzUCA","LocationType":"point","DisplayPosition":{"Latitude":55.9933252,"Longitude":-4.5933446},"MapView":{"TopLeft":{"Latitude":56.01164,"Longitude":-4.59815},"BottomRight":{"Latitude":55.9614,"Longitude":-4.55643}},"Address":{"Label":"Alexandria, Scotland, United Kingdom","Country":"GBR","State":"Scotland","County":"Dunbartonshire","City":"Alexandria","District":"Alexandria","PostalCode":"G83 0","AdditionalData":[{"value":"United Kingdom","key":"CountryName"},{"value":"Scotland","key":"StateName"},{"value":"Dunbartonshire","key":"CountyName"}]},"MapReference":{"ReferenceId":"19072306","SideOfStreet":"neither","StateId":"20252820","CountyId":"20292018","CityId":"20292019","DistrictId":"20292020"}}},{"Relevance":1.0,"Distance":43.6,"MatchLevel":"street","MatchQuality":{"Country":1.0,"State":1.0,"County":1.0,"City":1.0,"District":1.0,"PostalCode":1.0},"Location":{"LocationId":"NT_96fokYTbrON78BIymOFxFC_l_19071458_L","LocationType":"point","DisplayPosition":{"Latitude":55.9931397,"Longitude":-4.5927261},"MapView":{"TopLeft":{"Latitude":55.99347,"Longitude":-4.59275},"BottomRight":{"Latitude":55.99187,"Longitude":-4.59069}},"Address":{"Label":"Alexandria, G83 0, United Kingdom","Country":"GBR","State":"Scotland","County":"Dunbartonshire","City":"Alexandria","District":"Alexandria","PostalCode":"G83 0","AdditionalData":[{"value":"United Kingdom","key":"CountryName"},{"value":"Scotland","key":"StateName"},{"value":"Dunbartonshire","key":"CountyName"}]},"MapReference":{"ReferenceId":"19071458","Spot":0.62,"SideOfStreet":"left","StateId":"20252820","CountyId":"20292018","CityId":"20292019","DistrictId":"20292020"}}},{"Relevance":1.0,"Distance":55.3,"MatchLevel":"houseNumber","MatchQuality":{"Country":1.0,"State":1.0,"County":1.0,"City":1.0,"District":1.0,"Street":[1.0],"HouseNumber":1.0,"PostalCode":1.0},"MatchType":"interpolated","Location":{"LocationId":"NT_jZFKCjgO65C3H97VlEsbAD_l_19071082_R_xA","LocationType":"point","DisplayPosition":{"Latitude":55.9939501,"Longitude":-4.5932498},"MapView":{"TopLeft":{"Latitude":55.9950742,"Longitude":-4.5952598},"BottomRight":{"Latitude":55.9928259,"Longitude":-4.5912398}},"Address":{"Label":"1 McColl Place, Alexandria, G83 0HS, United Kingdom","Country":"GBR","State":"Scotland","County":"Dunbartonshire","City":"Alexandria","District":"Alexandria","Street":"McColl Place","HouseNumber":"1","PostalCode":"G83 0HS","AdditionalData":[{"value":"United Kingdom","key":"CountryName"},{"value":"Scotland","key":"StateName"},{"value":"Dunbartonshire","key":"CountyName"}]},"MapReference":{"ReferenceId":"19071082","Spot":0.3,"SideOfStreet":"right","StateId":"20252820","CountyId":"20292018","CityId":"20292019","DistrictId":"20292020"}}},{"Relevance":1.0,"Distance":58.8,"MatchLevel":"postalCode","MatchQuality":{"PostalCode":1.0},"MatchType":"interpolated","Location":{"LocationId":"NT_jZFKCjgO65C3H97VlEsbAD_l_19071082_R_xA","LocationType":"point","DisplayPosition":{"Latitude":55.99385,"Longitude":-4.59346},"MapView":{"TopLeft":{"Latitude":56.0028432,"Longitude":-4.6095399},"BottomRight":{"Latitude":55.9848568,"Longitude":-4.5773801}},"Address":{"Label":"G83 0HS, Alexandria, Scotland, United Kingdom","Country":"GBR","State":"Scotland","County":"Dunbartonshire","City":"Alexandria","PostalCode":"G83 0HS","AdditionalData":[{"value":"United Kingdom","key":"CountryName"},{"value":"Scotland","key":"StateName"},{"value":"Dunbartonshire","key":"CountyName"}]},"MapReference":{"ReferenceId":"19071082","Spot":0.3,"SideOfStreet":"neither","StateId":"20252820","CountyId":"20292018","CityId":"20292019"}}},{"Relevance":1.0,"Distance":67.8,"MatchLevel":"street","MatchQuality":{"Country":1.0,"State":1.0,"County":1.0,"City":1.0,"District":1.0,"Street":[1.0],"PostalCode":1.0},"Location":{"LocationId":"NT_GdEIDpzCoXK4Noc5vm7hFB_l_1148738705_R","LocationType":"point","DisplayPosition":{"Latitude":55.9928402,"Longitude":-4.5940047},"MapView":{"TopLeft":{"Latitude":55.99681,"Longitude":-4.5962},"BottomRight":{"Latitude":55.98504,"Longitude":-4.58726}},"Address":{"Label":"A82, Alexandria, G83 0, United Kingdom","Country":"GBR","State":"Scotland","County":"Dunbartonshire","City":"Alexandria","District":"Alexandria","Street":"A82","PostalCode":"G83 0","AdditionalData":[{"value":"United Kingdom","key":"CountryName"},{"value":"Scotland","key":"StateName"},{"value":"Dunbartonshire","key":"CountyName"}]},"MapReference":{"ReferenceId":"1148738705","Spot":0.7,"SideOfStreet":"right","StateId":"20252820","CountyId":"20292018","CityId":"20292019","DistrictId":"20292020"}}},{"Relevance":1.0,"Distance":82.8,"MatchLevel":"street","MatchQuality":{"Country":1.0,"State":1.0,"County":1.0,"City":1.0,"District":1.0,"Street":[1.0],"PostalCode":1.0},"Location":{"LocationId":"NT_GdEIDpzCoXK4Noc5vm7hFB_l_1163122875_R","LocationType":"point","DisplayPosition":{"Latitude":55.9927391,"Longitude":-4.5941651},"MapView":{"TopLeft":{"Latitude":55.99678,"Longitude":-4.59637},"BottomRight":{"Latitude":55.98826,"Longitude":-4.58949}},"Address":{"Label":"A82, Alexandria, G83 0, United Kingdom","Country":"GBR","State":"Scotland","County":"Dunbartonshire","City":"Alexandria","District":"Alexandria","Street":"A82","PostalCode":"G83 0","AdditionalData":[{"value":"United Kingdom","key":"CountryName"},{"value":"Scotland","key":"StateName"},{"value":"Dunbartonshire","key":"CountyName"}]},"MapReference":{"ReferenceId":"1163122875","Spot":0.58,"SideOfStreet":"right","StateId":"20252820","CountyId":"20292018","CityId":"20292019","DistrictId":"20292020"}}},{"Relevance":1.0,"Distance":86.3,"MatchLevel":"postalCode","MatchQuality":{"PostalCode":1.0},"Location":{"LocationId":"NT_96fokYTbrON78BIymOFxFC_l_19071458_L","LocationType":"point","DisplayPosition":{"Latitude":55.99328,"Longitude":-4.59196},"MapView":{"TopLeft":{"Latitude":56.0022732,"Longitude":-4.6080397},"BottomRight":{"Latitude":55.9842868,"Longitude":-4.5758803}},"Address":{"Label":"G83 0UA, Alexandria, Scotland, United Kingdom","Country":"GBR","State":"Scotland","County":"Dunbartonshire","City":"Alexandria","PostalCode":"G83 0UA","AdditionalData":[{"value":"United Kingdom","key":"CountryName"},{"value":"Scotland","key":"StateName"},{"value":"Dunbartonshire","key":"CountyName"}]},"MapReference":{"ReferenceId":"19071458","Spot":0.62,"SideOfStreet":"neither","StateId":"20252820","CountyId":"20292018","CityId":"20292019"}}},{"Relevance":1.0,"Distance":93.2,"MatchLevel":"postalCode","MatchQuality":{"PostalCode":1.0},"MatchType":"interpolated","Location":{"LocationId":"NT_fdJzsxYkbIXmrAi903MccC_l_19071041_L_3ED","LocationType":"point","DisplayPosition":{"Latitude":55.99391,"Longitude":-4.59227},"MapView":{"TopLeft":{"Latitude":56.0029032,"Longitude":-4.60835},"BottomRight":{"Latitude":55.9849168,"Longitude":-4.57619}},"Address":{"Label":"G83 0HZ, Alexandria, Scotland, United Kingdom","Country":"GBR","State":"Scotland","County":"Dunbartonshire","City":"Alexandria","PostalCode":"G83 0HZ","AdditionalData":[{"value":"United Kingdom","key":"CountryName"},{"value":"Scotland","key":"StateName"},{"value":"Dunbartonshire","key":"CountyName"}]},"MapReference":{"ReferenceId":"19071041","Spot":0.27,"SideOfStreet":"neither","StateId":"20252820","CountyId":"20292018","CityId":"20292019"}}},{"Relevance":1.0,"Distance":93.4,"MatchLevel":"houseNumber","MatchQuality":{"Country":1.0,"State":1.0,"County":1.0,"City":1.0,"District":1.0,"Street":[1.0],"HouseNumber":1.0,"PostalCode":1.0},"MatchType":"interpolated","Location":{"LocationId":"NT_fdJzsxYkbIXmrAi903MccC_l_19071041_L_3ED","LocationType":"point","DisplayPosition":{"Latitude":55.99426,"Longitude":-4.5928601},"MapView":{"TopLeft":{"Latitude":55.9953842,"Longitude":-4.5948701},"BottomRight":{"Latitude":55.9931359,"Longitude":-4.59085}},"Address":{"Label":"71 McColl Avenue, Alexandria, G83 0, United Kingdom","Country":"GBR","State":"Scotland","County":"Dunbartonshire","City":"Alexandria","District":"Alexandria","Street":"McColl Avenue","HouseNumber":"71","PostalCode":"G83 0","AdditionalData":[{"value":"United Kingdom","key":"CountryName"},{"value":"Scotland","key":"StateName"},{"value":"Dunbartonshire","key":"CountyName"}]},"MapReference":{"ReferenceId":"19071041","Spot":0.27,"SideOfStreet":"left","StateId":"20252820","CountyId":"20292018","CityId":"20292019","DistrictId":"20292020"}}},{"Relevance":1.0,"Distance":99.4,"MatchLevel":"street","MatchQuality":{"Country":1.0,"State":1.0,"County":1.0,"City":1.0,"District":1.0,"PostalCode":1.0},"Location":{"LocationId":"NT_96fokYTbrON78BIymOFxFC_l_19071076_R","LocationType":"point","DisplayPosition":{"Latitude":55.99415,"Longitude":-4.59273},"MapView":{"TopLeft":{"Latitude":55.99458,"Longitude":-4.59273},"BottomRight":{"Latitude":55.99396,"Longitude":-4.59174}},"Address":{"Label":"Alexandria, G83 0, United Kingdom","Country":"GBR","State":"Scotland","County":"Dunbartonshire","City":"Alexandria","District":"Alexandria","PostalCode":"G83 0","AdditionalData":[{"value":"United Kingdom","key":"CountryName"},{"value":"Scotland","key":"StateName"},{"value":"Dunbartonshire","key":"CountyName"}]},"MapReference":{"ReferenceId":"19071076","Spot":0.0,"SideOfStreet":"right","StateId":"20252820","CountyId":"20292018","CityId":"20292019","DistrictId":"20292020"}}}]}]}}