{"Response":{"MetaInfo":{"Timestamp":"2020-03-28T10:33:24.085+0000","NextPageInformation":"2"},"View":[{"_type":"SearchResultsViewType","ViewId":0,"Result":[{"Relevance":1.0,"Distance":0.0,"Direction":0.0,"MatchLevel":"district","MatchQuality":{"Country":1.0,"State":1.0,"County":1.0,"City":1.0,"District":1.0,"PostalCode":1.0},"Location":{"LocationId":"NT_vzMZlqE.8PqitIylkZtYdC","LocationType":"point","DisplayPosition":{"Latitude":55.9126876,"Longitude":-4.4059622},"MapView":{"TopLeft":{"Latitude":55.93294,"Longitude":-4.47535},"BottomRight":{"Latitude":55.88925,"Longitude":-4.3751}},"Address":{"Label":"Clydebank, Scotland, United Kingdom","Country":"GBR","State":"Scotland","County":"Dunbartonshire","City":"Clydebank","District":"Clydebank","PostalCode":"G81 2","AdditionalData":[{"value":"United Kingdom","key":"CountryName"},{"value":"Scotland","key":"StateName"},{"value":"Dunbartonshire","key":"CountyName"}]},"MapReference":{"ReferenceId":"19088908","SideOfStreet":"neither","StateId":"20252820","CountyId":"20292018","CityId":"20292026","DistrictId":"20292027"}}},{"Relevance":1.0,"Distance":5.2,"MatchLevel":"street","MatchQuality":{"Country":1.0,"State":1.0,"County":1.0,"City":1.0,"District":1.0,"Street":[1.0],"PostalCode":1.0},"Location":{"LocationId":"NT_sA2KdZd0jPmK14srWoxV7B_l_19088445_R","LocationType":"point","DisplayPosition":{"Latitude":55.912641,"Longitude":-4.4059707},"MapView":{"TopLeft":{"Latitude":55.91291,"Longitude":-4.40852},"BottomRight":{"Latitude":55.91259,"Longitude":-4.40569}},"Address":{"Label":"West Thomson Street, Clydebank, G81 2, United Kingdom","Country":"GBR","State":"Scotland","County":"Dunbartonshire","City":"Clydebank","District":"Clydebank","Street":"West Thomson Street","PostalCode":"G81 2","AdditionalData":[{"value":"United Kingdom","key":"CountryName"},{"value":"Scotland","key":"StateName"},{"value":"Dunbartonshire","key":"CountyName"}]},"MapReference":{"ReferenceId":"19088445","Spot":0.1,"SideOfStreet":"right","StateId":"20252820","CountyId":"20292018","CityId":"20292026","DistrictId":"20292027"}}},{"Relevance":1.0,"Distance":19.4,"MatchLevel":"street","MatchQuality":{"Country":1.0,"State":1.0,"County":1.0,"City":1.0,"District":1.0,"Street":[1.0],"PostalCode":1.0},"Location":{"LocationId":"NT_sA2KdZd0jPmK14srWoxV7B_l_19297237_L","LocationType":"point","DisplayPosition":{"Latitude":55.9126083,"Longitude":-4.4056848},"MapView":{"TopLeft":{"Latitude":55.91272,"Longitude":-4.40569},"BottomRight":{"Latitude":55.91259,"Longitude":-4.40546}},"Address":{"Label":"West Thomson Street, Clydebank, G81 2, United Kingdom","Country":"GBR","State":"Scotland","County":"Dunbartonshire","City":"Clydebank","District":"Clydebank","Street":"West Thomson Street","PostalCode":"G81 2","AdditionalData":[{"value":"United Kingdom","key":"CountryName"},{"value":"Scotland","key":"StateName"},{"value":"Dunbartonshire","key":"CountyName"}]},"MapReference":{"ReferenceId":"19297237","Spot":0.05,"SideOfStreet":"left","StateId":"20252820","CountyId":"20292018","CityId":"20292026","DistrictId":"20292027"}}},{"Relevance":1.0,"Distance":20.1,"MatchLevel":"street","MatchQuality":{"Country":1.0,"State":1.0,"County":1.0,"City":1.0,"District":1.0,"Street":[1.0],"PostalCode":1.0},"Location":{"LocationId":"NT_sA2KdZd0jPmK14srWoxV7B_l_19088461_R","LocationType":"point","DisplayPosition":{"Latitude":55.91259,"Longitude":-4.40569},"MapView":{"TopLeft":{"Latitude":55.91259,"Longitude":-4.40569},"BottomRight":{"Latitude":55.91256,"Longitude":-4.40554}},"Address":{"Label":"West Thomson Street, Clydebank, G81 2, United Kingdom","Country":"GBR","State":"Scotland","County":"Dunbartonshire","City":"Clydebank","District":"Clydebank","Street":"West Thomson Street","PostalCode":"G81 2","AdditionalData":[{"value":"United Kingdom","key":"CountryName"},{"value":"Scotland","key":"StateName"},{"value":"Dunbartonshire","key":"CountyName"}]},"MapReference":{"ReferenceId":"19088461","Spot":1.0,"SideOfStreet":"right","StateId":"20252820","CountyId":"20292018","CityId":"20292026","DistrictId":"20292027"}}},{"Relevance":1.0,"Distance":26.7,"MatchLevel":"postalCode","MatchQuality":{"PostalCode":1.0},"Location":{"LocationId":"NT_sA2KdZd0jPmK14srWoxV7B_l_19297237_L","LocationType":"point","DisplayPosition":{"Latitude":55.91277,"Longitude":-4.40556},"MapView":{"TopLeft":{"Latitude":55.9217632,"Longitude":-4.4216063},"BottomRight":{"Latitude":55.9037768,"Longitude":-4.3895137}},"Address":{"Label":"G81 2TQ, Clydebank, Scotland, United Kingdom","Country":"GBR","State":"Scotland","County":"Dunbartonshire","City":"Clydebank","PostalCode":"G81 2TQ","AdditionalData":[{"value":"United Kingdom","key":"CountryName"},{"value":"Scotland","key":"StateName"},{"value":"Dunbartonshire","key":"CountyName"}]},"MapReference":{"ReferenceId":"19297237","Spot":0.05,"SideOfStreet":"neither","StateId":"20252820","CountyId":"20292018","CityId":"20292026"}}},{"Relevance":1.0,"Distance":29.9,"MatchLevel":"street","MatchQuality":{"Country":1.0,"State":1.0,"County":1.0,"City":1.0,"District":1.0,"Street":[1.0],"PostalCode":1.0},"Location":{"LocationId":"NT_sA2KdZd0jPmK14srWoxV7B_l_19297236_L","LocationType":"point","DisplayPosition":{"Latitude":55.91256,"Longitude":-4.40554},"MapView":{"TopLeft":{"Latitude":55.91264,"Longitude":-4.40554},"BottomRight":{"Latitude":55.91256,"Longitude":-4.40546}},"Address":{"Label":"West Thomson Street, Clydebank, G81 2, United Kingdom","Country":"GBR","State":"Scotland","County":"Dunbartonshire","City":"Clydebank","District":"Clydebank","Street":"West Thomson Street","PostalCode":"G81 2","AdditionalData":[{"value":"United Kingdom","key":"CountryName"},{"value":"Scotland","key":"StateName"},{"value":"Dunbartonshire","key":"CountyName"}]},"MapReference":{"ReferenceId":"19297236","Spot":0.0,"SideOfStreet":"left","StateId":"20252820","CountyId":"20292018","CityId":"20292026","DistrictId":"20292027"}}},{"Relevance":1.0,"Distance":29.9,"MatchLevel":"street","MatchQuality":{"Country":1.0,"State":1.0,"County":1.0,"City":1.0,"District":1.0,"Street":[1.0],"PostalCode":1.0},"Location":{"LocationId":"NT_sA2KdZd0jPmK14srWoxV7B_l_19088528_R","LocationType":"point","DisplayPosition":{"Latitude":55.91256,"Longitude":-4.40554},"MapView":{"TopLeft":{"Latitude":55.91256,"Longitude":-4.40554},"BottomRight":{"Latitude":55.91231,"Longitude":-4.40439}},"Address":{"Label":"West Thomson Street, Clydebank, G81 2, United Kingdom","Country":"GBR","State":"Scotland","County":"Dunbartonshire","City":"Clydebank","District":"Clydebank","Street":"West Thomson Street","PostalCode":"G81 2","AdditionalData":[{"value":"United Kingdom","key":"CountryName"},{"value":"Scotland","key":"StateName"},{"value":"Dunbartonshire","key":"CountyName"}]},"MapReference":{"ReferenceId":"19088528","Spot":1.0,"SideOfStreet":"right","StateId":"20252820","CountyId":"20292018","CityId":"20292026","DistrictId":"20292027"}}},{"Relevance":1.0,"Distance":52.1,"MatchLevel":"houseNumber","MatchQuality":{"Country":1.0,"State":1.0,"County":1.0,"City":1.0,"District":1.0,"Street":[1.0],"HouseNumber":1.0,"PostalCode":1.0},"MatchType":"interpolated","Location":{"LocationId":"NT_Z4Gg0SGzxOPsEvKYewJe0A_l_19088285_R_0A","LocationType":"point","DisplayPosition":{"Latitude":55.9131557,"Longitude":-4.4059785},"MapView":{"TopLeft":{"Latitude":55.9142799,"Longitude":-4.4079843},"BottomRight":{"Latitude":55.9120316,"Longitude":-4.4039727}},"Address":{"Label":"4 Young Street, Clydebank, G81 3, United Kingdom","Country":"GBR","State":"Scotland","County":"Dunbartonshire","City":"Clydebank","District":"Clydebank","Street":"Young Street","HouseNumber":"4","PostalCode":"G81 3","AdditionalData":[{"value":"United Kingdom","key":"CountryName"},{"value":"Scotland","key":"StateName"},{"value":"Dunbartonshire","key":"CountyName"}]},"MapReference":{"ReferenceId":"19088285","Spot":0.36,"SideOfStreet":"right","StateId":"20252820","CountyId":"20292018","CityId":"20292026","DistrictId":"20292027"}}},{"Relevance":1.0,"Distance":83.1,"MatchLevel":"postalCode","MatchQuality":{"PostalCode":1.0},"MatchType":"interpolated","Location":{"LocationId":"NT_Z4Gg0SGzxOPsEvKYewJe0A_l_19088285_R_0A","LocationType":"point","DisplayPosition":{"Latitude":55.91323,"Longitude":-4.40688},"MapView":{"TopLeft":{"Latitude":55.9222232,"Longitude":-4.4229265},"BottomRight":{"Latitude":55.9042368,"Longitude":-4.3908335}},"Address":{"Label":"G81 3HP, Clydebank, Scotland, United Kingdom","Country":"GBR","State":"Scotland","County":"Dunbartonshire","City":"Clydebank","PostalCode":"G81 3HP","AdditionalData":[{"value":"United Kingdom","key":"CountryName"},{"value":"Scotland","key":"StateName"},{"value":"Dunbartonshire","key":"CountyName"}]},"MapReference":{"ReferenceId":"19088285","Spot":0.36,"SideOfStreet":"neither","StateId":"20252820","CountyId":"20292018","CityId":"20292026"}}},{"Relevance":1.0,"Distance":83.1,"MatchLevel":"street","MatchQuality":{"Country":1.0,"State":1.0,"County":1.0,"City":1.0,"District":1.0,"Street":[1.0],"PostalCode":1.0},"Location":{"LocationId":"NT_bwbmcuMDJ3q861Q1yJxK3D_l_19088358_L","LocationType":"point","DisplayPosition":{"Latitude":55.91293,"Longitude":-4.4047},"MapView":{"TopLeft":{"Latitude":55.9133,"Longitude":-4.4047},"BottomRight":{"Latitude":55.91293,"Longitude":-4.40287}},"Address":{"Label":"McGhee Street, Clydebank, G81 2, United Kingdom","Country":"GBR","State":"Scotland","County":"Dunbartonshire","City":"Clydebank","District":"Clydebank","Street":"McGhee Street","PostalCode":"G81 2","AdditionalData":[{"value":"United Kingdom","key":"CountryName"},{"value":"Scotland","key":"StateName"},{"value":"Dunbartonshire","key":"CountyName"}]},"MapReference":{"ReferenceId":"19088358","Spot":0.0,"SideOfStreet":"left","StateId":"20252820","CountyId":"20292018","CityId":"20292026","DistrictId":"20292027"}}}]}]}}