{"Response":{"MetaInfo":{"Timestamp":"2020-03-28T10:11:15.940+0000","NextPageInformation":"2"},"View":[{"_type":"SearchResultsViewType","ViewId":0,"Result":[{"Relevance":1.0,"Distance":0.0,"Direction":0.0,"MatchLevel":"district","MatchQuality":{"Country":1.0,"State":1.0,"County":1.0,"City":1.0,"District":1.0,"PostalCode":1.0},"Location":{"LocationId":"NT_PKFSg4uc2PlguIhNoOWR5B","LocationType":"point","DisplayPosition":{"Latitude":56.018682,"Longitude":-3.718001},"MapView":{"TopLeft":{"Latitude":56.02521,"Longitude":-3.75662},"BottomRight":{"Latitude":55.99926,"Longitude":-3.67236}},"Address":{"Label":"Grangemouth, Scotland, United Kingdom","Country":"GBR","State":"Scotland","County":"Stirlingshire","City":"Grangemouth","District":"Grangemouth","PostalCode":"FK3 8","AdditionalData":[{"value":"United Kingdom","key":"CountryName"},{"value":"Scotland","key":"StateName"},{"value":"Stirlingshire","key":"CountyName"}]},"MapReference":{"ReferenceId":"19071083","SideOfStreet":"neither","StateId":"20252820","CountyId":"20292679","CityId":"20292693","DistrictId":"20292694"}}},{"Relevance":1.0,"Distance":3.2,"MatchLevel":"street","MatchQuality":{"Country":1.0,"State":1.0,"County":1.0,"City":1.0,"District":1.0,"Street":[1.0],"PostalCode":1.0},"Location":{"LocationId":"NT_qb21xaEk-rOnkk8UXdnq9A_l_19069722_R","LocationType":"point","DisplayPosition":{"Latitude":56.01869,"Longitude":-3.71805},"MapView":{"TopLeft":{"Latitude":56.01869,"Longitude":-3.71837},"BottomRight":{"Latitude":56.0179,"Longitude":-3.71805}},"Address":{"Label":"Park Road, Grangemouth, FK3 9, United Kingdom","Country":"GBR","State":"Scotland","County":"Stirlingshire","City":"Grangemouth","District":"Grangemouth","Street":"Park Road","PostalCode":"FK3 9","AdditionalData":[{"value":"United Kingdom","key":"CountryName"},{"value":"Scotland","key":"StateName"},{"value":"Stirlingshire","key":"CountyName"}]},"MapReference":{"ReferenceId":"19069722","Spot":1.0,"SideOfStreet":"right","StateId":"20252820","CountyId":"20292679","CityId":"20292693","DistrictId":"20292694"}}},{"Relevance":1.0,"Distance":11.2,"MatchLevel":"street","MatchQuality":{"Country":1.0,"State":1.0,"County":1.0,"City":1.0,"District":1.0,"Street":[1.0],"PostalCode":1.0},"Location":{"LocationId":"NT_MXdx.JJmtIYMzPM6hzgT1A_l_19069588_L","LocationType":"point","DisplayPosition":{"Latitude":56.01878,"Longitude":-3.71804},"MapView":{"TopLeft":{"Latitude":56.01886,"Longitude":-3.71842},"BottomRight":{"Latitude":56.01878,"Longitude":-3.71804}},"Address":{"Label":"Bo'Ness Road, Grangemouth, FK3 8, United Kingdom","Country":"GBR","State":"Scotland","County":"Stirlingshire","City":"Grangemouth","District":"Grangemouth","Street":"Bo'Ness Road","PostalCode":"FK3 8","AdditionalData":[{"value":"United Kingdom","key":"CountryName"},{"value":"Scotland","key":"StateName"},{"value":"Stirlingshire","key":"CountyName"}]},"MapReference":{"ReferenceId":"19069588","Spot":0.0,"SideOfStreet":"left","StateId":"20252820","CountyId":"20292679","CityId":"20292693","DistrictId":"20292694"}}},{"Relevance":1.0,"Distance":20.2,"MatchLevel":"houseNumber","MatchQuality":{"Country":1.0,"State":1.0,"County":1.0,"City":1.0,"District":1.0,"Street":[1.0],"HouseNumber":1.0,"PostalCode":1.0},"MatchType":"interpolated","Location":{"LocationId":"NT_bmFrSpmBCooC5jtgWkR5rC_l_737278929_R_xA","LocationType":"point","DisplayPosition":{"Latitude":56.01891,"Longitude":-3.71797},"MapView":{"TopLeft":{"Latitude":56.0200342,"Longitude":-3.7199813},"BottomRight":{"Latitude":56.0177859,"Longitude":-3.7159587}},"Address":{"Label":"1 Grangeburn Road, Grangemouth, FK3 8, United Kingdom","Country":"GBR","State":"Scotland","County":"Stirlingshire","City":"Grangemouth","District":"Grangemouth","Street":"Grangeburn Road","HouseNumber":"1","PostalCode":"FK3 8","AdditionalData":[{"value":"United Kingdom","key":"CountryName"},{"value":"Scotland","key":"StateName"},{"value":"Stirlingshire","key":"CountyName"}]},"MapReference":{"ReferenceId":"737278929","Spot":0.26,"SideOfStreet":"right","StateId":"20252820","CountyId":"20292679","CityId":"20292693","DistrictId":"20292694"}}},{"Relevance":1.0,"Distance":21.7,"MatchLevel":"houseNumber","MatchQuality":{"Country":1.0,"State":1.0,"County":1.0,"City":1.0,"District":1.0,"Street":[1.0],"HouseNumber":1.0,"PostalCode":1.0},"MatchType":"interpolated","Location":{"LocationId":"NT_BsdQotjNIGYO-D-ucoMRCA_l_737279694_L_3ID","LocationType":"point","DisplayPosition":{"Latitude":56.0187007,"Longitude":-3.7176529},"MapView":{"TopLeft":{"Latitude":56.0198249,"Longitude":-3.7196642},"BottomRight":{"Latitude":56.0175766,"Longitude":-3.7156416}},"Address":{"Label":"72 Bo'Ness Road, Grangemouth, FK3 9BL, United Kingdom","Country":"GBR","State":"Scotland","County":"Stirlingshire","City":"Grangemouth","District":"Grangemouth","Street":"Bo'Ness Road","HouseNumber":"72","PostalCode":"FK3 9BL","AdditionalData":[{"value":"United Kingdom","key":"CountryName"},{"value":"Scotland","key":"StateName"},{"value":"Stirlingshire","key":"CountyName"}]},"MapReference":{"ReferenceId":"737279694","Spot":0.85,"SideOfStreet":"left","StateId":"20252820","CountyId":"20292679","CityId":"20292693","DistrictId":"20292694"}}},{"Relevance":1.0,"Distance":32.7,"MatchLevel":"street","MatchQuality":{"Country":1.0,"State":1.0,"County":1.0,"City":1.0,"District":1.0,"Street":[1.0],"PostalCode":1.0},"Location":{"LocationId":"NT_MJq0PJClQDPw9gsAc2wa6A_l_19325696_R","LocationType":"point","DisplayPosition":{"Latitude":56.01886,"Longitude":-3.71842},"MapView":{"TopLeft":{"Latitude":56.01886,"Longitude":-3.7189},"BottomRight":{"Latitude":56.01777,"Longitude":-3.71842}},"Address":{"Label":"Abbots Road, Grangemouth, FK3 8, United Kingdom","Country":"GBR","State":"Scotland","County":"Stirlingshire","City":"Grangemouth","District":"Grangemouth","Street":"Abbots Road","PostalCode":"FK3 8","AdditionalData":[{"value":"United Kingdom","key":"CountryName"},{"value":"Scotland","key":"StateName"},{"value":"Stirlingshire","key":"CountyName"}]},"MapReference":{"ReferenceId":"19325696","Spot":1.0,"SideOfStreet":"right","StateId":"20252820","CountyId":"20292679","CityId":"20292693","DistrictId":"20292694"}}},{"Relevance":1.0,"Distance":35.4,"MatchLevel":"street","MatchQuality":{"Country":1.0,"State":1.0,"County":1.0,"City":1.0,"District":1.0,"Street":[1.0],"PostalCode":1.0},"Location":{"LocationId":"NT_uGwoWEbMw84eJJqpcmXVYC_l_19272598_R","LocationType":"point","DisplayPosition":{"Latitude":56.0189162,"Longitude":-3.7183858},"MapView":{"TopLeft":{"Latitude":56.01909,"Longitude":-3.71842},"BottomRight":{"Latitude":56.01886,"Longitude":-3.71828}},"Address":{"Label":"South Shore Road, Grangemouth, FK3 8, United Kingdom","Country":"GBR","State":"Scotland","County":"Stirlingshire","City":"Grangemouth","District":"Grangemouth","Street":"South Shore Road","PostalCode":"FK3 8","AdditionalData":[{"value":"United Kingdom","key":"CountryName"},{"value":"Scotland","key":"StateName"},{"value":"Stirlingshire","key":"CountyName"}]},"MapReference":{"ReferenceId":"19272598","Spot":0.24,"SideOfStreet":"right","StateId":"20252820","CountyId":"20292679","CityId":"20292693","DistrictId":"20292694"}}},{"Relevance":1.0,"Distance":42.5,"MatchLevel":"postalCode","MatchQuality":{"PostalCode":1.0},"MatchType":"interpolated","Location":{"LocationId":"NT_xNijLRnEBIph.v4dagDh6B_l_19069586_L_2gD","LocationType":"point","DisplayPosition":{"Latitude":56.01852,"Longitude":-3.71862},"MapView":{"TopLeft":{"Latitude":56.0275132,"Longitude":-3.7347102},"BottomRight":{"Latitude":56.0095268,"Longitude":-3.7025298}},"Address":{"Label":"FK3 8AL, Grangemouth, Scotland, United Kingdom","Country":"GBR","State":"Scotland","County":"Stirlingshire","City":"Grangemouth","PostalCode":"FK3 8AL","AdditionalData":[{"value":"United Kingdom","key":"CountryName"},{"value":"Scotland","key":"StateName"},{"value":"Stirlingshire","key":"CountyName"}]},"MapReference":{"ReferenceId":"19069586","Spot":0.5,"SideOfStreet":"neither","StateId":"20252820","CountyId":"20292679","CityId":"20292693"}}},{"Relevance":1.0,"Distance":46.5,"MatchLevel":"houseNumber","MatchQuality":{"Country":1.0,"State":1.0,"County":1.0,"City":1.0,"District":1.0,"Street":[1.0],"HouseNumber":1.0,"PostalCode":1.0},"MatchType":"interpolated","Location":{"LocationId":"NT_MXdx.JJmtIYMzPM6hzgT1A_l_19325695_R_0kD","LocationType":"point","DisplayPosition":{"Latitude":56.0189,"Longitude":-3.71864},"MapView":{"TopLeft":{"Latitude":56.0200242,"Longitude":-3.7206513},"BottomRight":{"Latitude":56.0177759,"Longitude":-3.7166288}},"Address":{"Label":"49 Bo'Ness Road, Grangemouth, FK3 8AN, United Kingdom","Country":"GBR","State":"Scotland","County":"Stirlingshire","City":"Grangemouth","District":"Grangemouth","Street":"Bo'Ness Road","HouseNumber":"49","PostalCode":"FK3 8AN","AdditionalData":[{"value":"United Kingdom","key":"CountryName"},{"value":"Scotland","key":"StateName"},{"value":"Stirlingshire","key":"CountyName"}]},"MapReference":{"ReferenceId":"19325695","Spot":0.15,"SideOfStreet":"right","StateId":"20252820","CountyId":"20292679","CityId":"20292693","DistrictId":"20292694"}}},{"Relevance":1.0,"Distance":48.6,"MatchLevel":"street","MatchQuality":{"Country":1.0,"State":1.0,"County":1.0,"City":1.0,"District":1.0,"Street":[1.0],"PostalCode":1.0},"Location":{"LocationId":"NT_uGwoWEbMw84eJJqpcmXVYC_l_947161910_R","LocationType":"point","DisplayPosition":{"Latitude":56.01909,"Longitude":-3.71828},"MapView":{"TopLeft":{"Latitude":56.02013,"Longitude":-3.71828},"BottomRight":{"Latitude":56.01909,"Longitude":-3.71793}},"Address":{"Label":"South Shore Road, Grangemouth, FK3 8, United Kingdom","Country":"GBR","State":"Scotland","County":"Stirlingshire","City":"Grangemouth","District":"Grangemouth","Street":"South Shore Road","PostalCode":"FK3 8","AdditionalData":[{"value":"United Kingdom","key":"CountryName"},{"value":"Scotland","key":"StateName"},{"value":"Stirlingshire","key":"CountyName"}]},"MapReference":{"ReferenceId":"947161910","Spot":0.0,"SideOfStreet":"right","StateId":"20252820","CountyId":"20292679","CityId":"20292693","DistrictId":"20292694"}}}]}]}}