{"Response":{"MetaInfo":{"Timestamp":"2020-03-28T10:36:43.694+0000","NextPageInformation":"2"},"View":[{"_type":"SearchResultsViewType","ViewId":0,"Result":[{"Relevance":1.0,"Distance":0.0,"Direction":0.0,"MatchLevel":"district","MatchQuality":{"Country":1.0,"State":1.0,"County":1.0,"City":1.0,"District":1.0,"PostalCode":1.0},"Location":{"LocationId":"NT_xDArOxORXOsrKthuuYzWFA","LocationType":"point","DisplayPosition":{"Latitude":56.0589842,"Longitude":-3.2311536},"MapView":{"TopLeft":{"Latitude":56.06796,"Longitude":-3.24956},"BottomRight":{"Latitude":56.05346,"Longitude":-3.21405}},"Address":{"Label":"Burntisland, Scotland, United Kingdom","Country":"GBR","State":"Scotland","County":"Fife","City":"Burntisland","District":"Burntisland","PostalCode":"KY3 9","AdditionalData":[{"value":"United Kingdom","key":"CountryName"},{"value":"Scotland","key":"StateName"},{"value":"Fife","key":"CountyName"}]},"MapReference":{"ReferenceId":"1161399558","SideOfStreet":"neither","StateId":"20252820","CountyId":"20292057","CityId":"20292064","DistrictId":"20292065"}}},{"Relevance":1.0,"Distance":12.0,"MatchLevel":"postalCode","MatchQuality":{"PostalCode":1.0},"MatchType":"interpolated","Location":{"LocationId":"NT_f1Xwl2l9vKEieny-uR6swD_l_19014213_R_3QD","LocationType":"point","DisplayPosition":{"Latitude":56.05905,"Longitude":-3.231},"MapView":{"TopLeft":{"Latitude":56.0680432,"Longitude":-3.2471071},"BottomRight":{"Latitude":56.0500568,"Longitude":-3.2148929}},"Address":{"Label":"KY3 9DF, Burntisland, Scotland, United Kingdom","Country":"GBR","State":"Scotland","County":"Fife","City":"Burntisland","PostalCode":"KY3 9DF","AdditionalData":[{"value":"United Kingdom","key":"CountryName"},{"value":"Scotland","key":"StateName"},{"value":"Fife","key":"CountyName"}]},"MapReference":{"ReferenceId":"19014213","Spot":0.26,"SideOfStreet":"neither","StateId":"20252820","CountyId":"20292057","CityId":"20292064"}}},{"Relevance":1.0,"Distance":13.9,"MatchLevel":"houseNumber","MatchQuality":{"Country":1.0,"State":1.0,"County":1.0,"City":1.0,"District":1.0,"Street":[1.0],"HouseNumber":1.0,"PostalCode":1.0},"MatchType":"interpolated","Location":{"LocationId":"NT_f1Xwl2l9vKEieny-uR6swD_l_1179912524_R_3ID","LocationType":"point","DisplayPosition":{"Latitude":56.0590013,"Longitude":-3.231375},"MapView":{"TopLeft":{"Latitude":56.0601254,"Longitude":-3.2333884},"BottomRight":{"Latitude":56.0578771,"Longitude":-3.2293616}},"Address":{"Label":"72 Somerville Street, Burntisland, KY3 9DH, United Kingdom","Country":"GBR","State":"Scotland","County":"Fife","City":"Burntisland","District":"Burntisland","Street":"Somerville Street","HouseNumber":"72","PostalCode":"KY3 9DH","AdditionalData":[{"value":"United Kingdom","key":"CountryName"},{"value":"Scotland","key":"StateName"},{"value":"Fife","key":"CountyName"}]},"MapReference":{"ReferenceId":"1179912524","Spot":0.75,"SideOfStreet":"right","StateId":"20252820","CountyId":"20292057","CityId":"20292064","DistrictId":"20292065"}}},{"Relevance":1.0,"Distance":17.7,"MatchLevel":"houseNumber","MatchQuality":{"Country":1.0,"State":1.0,"County":1.0,"City":1.0,"District":1.0,"Street":[1.0],"HouseNumber":1.0,"PostalCode":1.0},"MatchType":"interpolated","Location":{"LocationId":"NT_f1Xwl2l9vKEieny-uR6swD_l_19014213_R_3QD","LocationType":"point","DisplayPosition":{"Latitude":56.0591301,"Longitude":-3.2309098},"MapView":{"TopLeft":{"Latitude":56.0602542,"Longitude":-3.2329232},"BottomRight":{"Latitude":56.0580059,"Longitude":-3.2288964}},"Address":{"Label":"74 Somerville Street, Burntisland, KY3 9DF, United Kingdom","Country":"GBR","State":"Scotland","County":"Fife","City":"Burntisland","District":"Burntisland","Street":"Somerville Street","HouseNumber":"74","PostalCode":"KY3 9DF","AdditionalData":[{"value":"United Kingdom","key":"CountryName"},{"value":"Scotland","key":"StateName"},{"value":"Fife","key":"CountyName"}]},"MapReference":{"ReferenceId":"19014213","Spot":0.26,"SideOfStreet":"right","StateId":"20252820","CountyId":"20292057","CityId":"20292064","DistrictId":"20292065"}}},{"Relevance":1.0,"Distance":21.8,"MatchLevel":"houseNumber","MatchQuality":{"Country":1.0,"State":1.0,"County":1.0,"City":1.0,"District":1.0,"Street":[1.0],"HouseNumber":1.0,"PostalCode":1.0},"MatchType":"interpolated","Location":{"LocationId":"NT_ULB463pi28rIYiP4odmc6A_l_19014214_L_yA","LocationType":"point","DisplayPosition":{"Latitude":56.0592418,"Longitude":-3.2312666},"MapView":{"TopLeft":{"Latitude":56.0603659,"Longitude":-3.23328},"BottomRight":{"Latitude":56.0581176,"Longitude":-3.2292532}},"Address":{"Label":"2 Union Street, Burntisland, KY3 9, United Kingdom","Country":"GBR","State":"Scotland","County":"Fife","City":"Burntisland","District":"Burntisland","Street":"Union Street","HouseNumber":"2","PostalCode":"KY3 9","AdditionalData":[{"value":"United Kingdom","key":"CountryName"},{"value":"Scotland","key":"StateName"},{"value":"Fife","key":"CountyName"}]},"MapReference":{"ReferenceId":"19014214","Spot":0.49,"SideOfStreet":"left","StateId":"20252820","CountyId":"20292057","CityId":"20292064","DistrictId":"20292065"}}},{"Relevance":1.0,"Distance":25.4,"MatchLevel":"postalCode","MatchQuality":{"PostalCode":1.0},"MatchType":"interpolated","Location":{"LocationId":"NT_f1Xwl2l9vKEieny-uR6swD_l_1179912524_R_3ID","LocationType":"point","DisplayPosition":{"Latitude":56.05901,"Longitude":-3.23156},"MapView":{"TopLeft":{"Latitude":56.0680032,"Longitude":-3.2476671},"BottomRight":{"Latitude":56.0500168,"Longitude":-3.2154529}},"Address":{"Label":"KY3 9DG, Burntisland, Scotland, United Kingdom","Country":"GBR","State":"Scotland","County":"Fife","City":"Burntisland","PostalCode":"KY3 9DG","AdditionalData":[{"value":"United Kingdom","key":"CountryName"},{"value":"Scotland","key":"StateName"},{"value":"Fife","key":"CountyName"}]},"MapReference":{"ReferenceId":"1179912524","Spot":0.75,"SideOfStreet":"neither","StateId":"20252820","CountyId":"20292057","CityId":"20292064"}}},{"Relevance":1.0,"Distance":46.8,"MatchLevel":"houseNumber","MatchQuality":{"Country":1.0,"State":1.0,"County":1.0,"City":1.0,"District":1.0,"Street":[1.0],"HouseNumber":1.0,"PostalCode":1.0},"MatchType":"interpolated","Location":{"LocationId":"NT_HasGPQYmywicX8mqXyLp9A_l_19014230_L_xkD","LocationType":"point","DisplayPosition":{"Latitude":56.0591364,"Longitude":-3.2302145},"MapView":{"TopLeft":{"Latitude":56.0602605,"Longitude":-3.2322279},"BottomRight":{"Latitude":56.0580122,"Longitude":-3.2282012}},"Address":{"Label":"19 Links Place, Burntisland, KY3 9DY, United Kingdom","Country":"GBR","State":"Scotland","County":"Fife","City":"Burntisland","District":"Burntisland","Street":"Links Place","HouseNumber":"19","PostalCode":"KY3 9DY","AdditionalData":[{"value":"United Kingdom","key":"CountryName"},{"value":"Scotland","key":"StateName"},{"value":"Fife","key":"CountyName"}]},"MapReference":{"ReferenceId":"19014230","Spot":0.63,"SideOfStreet":"left","StateId":"20252820","CountyId":"20292057","CityId":"20292064","DistrictId":"20292065"}}},{"Relevance":1.0,"Distance":51.0,"MatchLevel":"street","MatchQuality":{"Country":1.0,"State":1.0,"County":1.0,"City":1.0,"District":1.0,"PostalCode":1.0},"Location":{"LocationId":"NT_Jkcpi7euNXmLOIuTBCgN-C_l_1161412543_L","LocationType":"point","DisplayPosition":{"Latitude":56.05942,"Longitude":-3.23141},"MapView":{"TopLeft":{"Latitude":56.05961,"Longitude":-3.23154},"BottomRight":{"Latitude":56.05942,"Longitude":-3.23141}},"Address":{"Label":"Burntisland, KY3 9, United Kingdom","Country":"GBR","State":"Scotland","County":"Fife","City":"Burntisland","District":"Burntisland","PostalCode":"KY3 9","AdditionalData":[{"value":"United Kingdom","key":"CountryName"},{"value":"Scotland","key":"StateName"},{"value":"Fife","key":"CountyName"}]},"MapReference":{"ReferenceId":"1161412543","Spot":0.0,"SideOfStreet":"left","StateId":"20252820","CountyId":"20292057","CityId":"20292064","DistrictId":"20292065"}}},{"Relevance":1.0,"Distance":53.9,"MatchLevel":"houseNumber","MatchQuality":{"Country":1.0,"State":1.0,"County":1.0,"City":1.0,"District":1.0,"Street":[1.0],"HouseNumber":1.0,"PostalCode":1.0},"MatchType":"interpolated","Location":{"LocationId":"NT_HasGPQYmywicX8mqXyLp9A_l_19014200_L_xgD","LocationType":"point","DisplayPosition":{"Latitude":56.0594102,"Longitude":-3.2303501},"MapView":{"TopLeft":{"Latitude":56.0605343,"Longitude":-3.2323635},"BottomRight":{"Latitude":56.058286,"Longitude":-3.2283367}},"Address":{"Label":"18 Links Place, Burntisland, KY3 9DY, United Kingdom","Country":"GBR","State":"Scotland","County":"Fife","City":"Burntisland","District":"Burntisland","Street":"Links Place","HouseNumber":"18","PostalCode":"KY3 9DY","AdditionalData":[{"value":"United Kingdom","key":"CountryName"},{"value":"Scotland","key":"StateName"},{"value":"Fife","key":"CountyName"}]},"MapReference":{"ReferenceId":"19014200","Spot":0.2,"SideOfStreet":"left","StateId":"20252820","CountyId":"20292057","CityId":"20292064","DistrictId":"20292065"}}},{"Relevance":1.0,"Distance":56.9,"MatchLevel":"postalCode","MatchQuality":{"PostalCode":1.0},"MatchType":"interpolated","Location":{"LocationId":"NT_ULB463pi28rIYiP4odmc6A_l_19014214_L_yA","LocationType":"point","DisplayPosition":{"Latitude":56.05946,"Longitude":-3.23149},"MapView":{"TopLeft":{"Latitude":56.0684532,"Longitude":-3.2475973},"BottomRight":{"Latitude":56.0504668,"Longitude":-3.2153827}},"Address":{"Label":"KY3 9AW, Burntisland, Scotland, United Kingdom","Country":"GBR","State":"Scotland","County":"Fife","City":"Burntisland","PostalCode":"KY3 9AW","AdditionalData":[{"value":"United Kingdom","key":"CountryName"},{"value":"Scotland","key":"StateName"},{"value":"Fife","key":"CountyName"}]},"MapReference":{"ReferenceId":"19014214","Spot":0.49,"SideOfStreet":"neither","StateId":"20252820","CountyId":"20292057","CityId":"20292064"}}}]}]}}