{"Response":{"MetaInfo":{"Timestamp":"2020-03-28T10:36:49.853+0000","NextPageInformation":"2"},"View":[{"_type":"SearchResultsViewType","ViewId":0,"Result":[{"Relevance":1.0,"Distance":0.0,"Direction":0.0,"MatchLevel":"district","MatchQuality":{"Country":1.0,"State":1.0,"County":1.0,"City":1.0,"District":1.0,"PostalCode":1.0},"Location":{"LocationId":"NT_G0uAfKpxDrp9sODaACZJLD","LocationType":"point","DisplayPosition":{"Latitude":56.0031265,"Longitude":-3.7861985},"MapView":{"TopLeft":{"Latitude":56.02212,"Longitude":-3.84181},"BottomRight":{"Latitude":55.96699,"Longitude":-3.68925}},"Address":{"Label":"Falkirk, Scotland, United Kingdom","Country":"GBR","State":"Scotland","County":"Stirlingshire","City":"Falkirk","District":"Falkirk","PostalCode":"FK1 5","AdditionalData":[{"value":"United Kingdom","key":"CountryName"},{"value":"Scotland","key":"StateName"},{"value":"Stirlingshire","key":"CountyName"}]},"MapReference":{"ReferenceId":"818516857","SideOfStreet":"neither","StateId":"20252820","CountyId":"20292679","CityId":"20292687","DistrictId":"20292688"}}},{"Relevance":1.0,"Distance":6.7,"MatchLevel":"landmark","MatchQuality":{"Country":1.0,"State":1.0,"County":1.0,"City":1.0,"District":1.0,"PostalCode":1.0,"Name":1.0},"Location":{"LocationId":"NT_WJGYnApIGS9IfuJ8M7X8oB","LocationType":"industrialComplex","Name":"Dollar Industrial Estate","DisplayPosition":{"Latitude":56.00499,"Longitude":-3.79326},"MapView":{"TopLeft":{"Latitude":56.00776,"Longitude":-3.79781},"BottomRight":{"Latitude":56.00223,"Longitude":-3.78394}},"Address":{"Label":"Falkirk, FK1 5, United Kingdom","Country":"GBR","State":"Scotland","County":"Stirlingshire","City":"Falkirk","District":"Falkirk","PostalCode":"FK1 5","AdditionalData":[{"value":"United Kingdom","key":"CountryName"},{"value":"Scotland","key":"StateName"},{"value":"Stirlingshire","key":"CountyName"}]},"MapReference":{"StateId":"20252820","CountyId":"20292679","CityId":"20292687","DistrictId":"20292688","PlaceId":"1407150406"}}},{"Relevance":1.0,"Distance":7.9,"MatchLevel":"houseNumber","MatchQuality":{"Country":1.0,"State":1.0,"County":1.0,"City":1.0,"District":1.0,"Street":[1.0],"HouseNumber":1.0,"PostalCode":1.0},"MatchType":"interpolated","Location":{"LocationId":"NT_TxoepaZhsi0jxJf8fzc1tA_l_802861590_R_xQD","LocationType":"point","DisplayPosition":{"Latitude":56.00306,"Longitude":-3.7861533},"MapView":{"TopLeft":{"Latitude":56.0041842,"Longitude":-3.7881638},"BottomRight":{"Latitude":56.0019358,"Longitude":-3.7841429}},"Address":{"Label":"14 Meeks Road, Falkirk, FK2 7, United Kingdom","Country":"GBR","State":"Scotland","County":"Stirlingshire","City":"Falkirk","District":"Falkirk","Street":"Meeks Road","HouseNumber":"14","PostalCode":"FK2 7","AdditionalData":[{"value":"United Kingdom","key":"CountryName"},{"value":"Scotland","key":"StateName"},{"value":"Stirlingshire","key":"CountyName"}]},"MapReference":{"ReferenceId":"802861590","Spot":0.51,"SideOfStreet":"right","StateId":"20252820","CountyId":"20292679","CityId":"20292687","DistrictId":"20292688"}}},{"Relevance":1.0,"Distance":9.8,"MatchLevel":"houseNumber","MatchQuality":{"Country":1.0,"State":1.0,"County":1.0,"City":1.0,"District":1.0,"Street":[1.0],"HouseNumber":1.0,"PostalCode":1.0},"MatchType":"interpolated","Location":{"LocationId":"NT_aVUAfyxcjrI800A80SkklA_l_19072106_L_yA","LocationType":"point","DisplayPosition":{"Latitude":56.0031901,"Longitude":-3.78587},"MapView":{"TopLeft":{"Latitude":56.0043142,"Longitude":-3.7878805},"BottomRight":{"Latitude":56.0020659,"Longitude":-3.7838595}},"Address":{"Label":"2 Russel Street, Falkirk, FK2 7HX, United Kingdom","Country":"GBR","State":"Scotland","County":"Stirlingshire","City":"Falkirk","District":"Falkirk","Street":"Russel Street","HouseNumber":"2","PostalCode":"FK2 7HX","AdditionalData":[{"value":"United Kingdom","key":"CountryName"},{"value":"Scotland","key":"StateName"},{"value":"Stirlingshire","key":"CountyName"}]},"MapReference":{"ReferenceId":"19072106","Spot":0.12,"SideOfStreet":"left","StateId":"20252820","CountyId":"20292679","CityId":"20292687","DistrictId":"20292688"}}},{"Relevance":1.0,"Distance":19.7,"MatchLevel":"street","MatchQuality":{"Country":1.0,"State":1.0,"County":1.0,"City":1.0,"District":1.0,"PostalCode":1.0},"Location":{"LocationId":"NT_jhbWiuaGyFM1u2hTnZhe-C_l_802861592_R","LocationType":"point","DisplayPosition":{"Latitude":56.0029491,"Longitude":-3.786203},"MapView":{"TopLeft":{"Latitude":56.00307,"Longitude":-3.78645},"BottomRight":{"Latitude":56.00257,"Longitude":-3.78456}},"Address":{"Label":"Falkirk, FK2 7, United Kingdom","Country":"GBR","State":"Scotland","County":"Stirlingshire","City":"Falkirk","District":"Falkirk","PostalCode":"FK2 7","AdditionalData":[{"value":"United Kingdom","key":"CountryName"},{"value":"Scotland","key":"StateName"},{"value":"Stirlingshire","key":"CountyName"}]},"MapReference":{"ReferenceId":"802861592","Spot":0.85,"SideOfStreet":"right","StateId":"20252820","CountyId":"20292679","CityId":"20292687","DistrictId":"20292688"}}},{"Relevance":1.0,"Distance":28.1,"MatchLevel":"postalCode","MatchQuality":{"PostalCode":1.0},"MatchType":"interpolated","Location":{"LocationId":"NT_TxoepaZhsi0jxJf8fzc1tA_l_802861591_R_xYD","LocationType":"point","DisplayPosition":{"Latitude":56.00313,"Longitude":-3.78665},"MapView":{"TopLeft":{"Latitude":56.0121232,"Longitude":-3.8027338},"BottomRight":{"Latitude":55.9941368,"Longitude":-3.7705662}},"Address":{"Label":"FK2 7ES, Falkirk, Scotland, United Kingdom","Country":"GBR","State":"Scotland","County":"Stirlingshire","City":"Falkirk","PostalCode":"FK2 7ES","AdditionalData":[{"value":"United Kingdom","key":"CountryName"},{"value":"Scotland","key":"StateName"},{"value":"Stirlingshire","key":"CountyName"}]},"MapReference":{"ReferenceId":"802861591","Spot":0.32,"SideOfStreet":"neither","StateId":"20252820","CountyId":"20292679","CityId":"20292687"}}},{"Relevance":1.0,"Distance":29.4,"MatchLevel":"houseNumber","MatchQuality":{"Country":1.0,"State":1.0,"County":1.0,"City":1.0,"District":1.0,"Street":[1.0],"HouseNumber":1.0,"PostalCode":1.0},"MatchType":"interpolated","Location":{"LocationId":"NT_TxoepaZhsi0jxJf8fzc1tA_l_802861591_R_xYD","LocationType":"point","DisplayPosition":{"Latitude":56.00307,"Longitude":-3.78666},"MapView":{"TopLeft":{"Latitude":56.0041942,"Longitude":-3.7886705},"BottomRight":{"Latitude":56.0019459,"Longitude":-3.7846496}},"Address":{"Label":"16 Meeks Road, Falkirk, FK2 7ES, United Kingdom","Country":"GBR","State":"Scotland","County":"Stirlingshire","City":"Falkirk","District":"Falkirk","Street":"Meeks Road","HouseNumber":"16","PostalCode":"FK2 7ES","AdditionalData":[{"value":"United Kingdom","key":"CountryName"},{"value":"Scotland","key":"StateName"},{"value":"Stirlingshire","key":"CountyName"}]},"MapReference":{"ReferenceId":"802861591","Spot":0.32,"SideOfStreet":"right","StateId":"20252820","CountyId":"20292679","CityId":"20292687","DistrictId":"20292688"}}},{"Relevance":1.0,"Distance":36.0,"MatchLevel":"houseNumber","MatchQuality":{"Country":1.0,"State":1.0,"County":1.0,"City":1.0,"District":1.0,"Street":[1.0],"HouseNumber":1.0,"PostalCode":1.0},"MatchType":"interpolated","Location":{"LocationId":"NT_TxoepaZhsi0jxJf8fzc1tA_l_19072120_L_4A","LocationType":"point","DisplayPosition":{"Latitude":56.00305,"Longitude":-3.78563},"MapView":{"TopLeft":{"Latitude":56.0041742,"Longitude":-3.7876404},"BottomRight":{"Latitude":56.0019258,"Longitude":-3.7836195}},"Address":{"Label":"8 Meeks Road, Falkirk, FK2 7EW, United Kingdom","Country":"GBR","State":"Scotland","County":"Stirlingshire","City":"Falkirk","District":"Falkirk","Street":"Meeks Road","HouseNumber":"8","PostalCode":"FK2 7EW","AdditionalData":[{"value":"United Kingdom","key":"CountryName"},{"value":"Scotland","key":"StateName"},{"value":"Stirlingshire","key":"CountyName"}]},"MapReference":{"ReferenceId":"19072120","Spot":0.13,"SideOfStreet":"left","StateId":"20252820","CountyId":"20292679","CityId":"20292687","DistrictId":"20292688"}}},{"Relevance":1.0,"Distance":46.5,"MatchLevel":"houseNumber","MatchQuality":{"Country":1.0,"State":1.0,"County":1.0,"City":1.0,"District":1.0,"Street":[1.0],"HouseNumber":1.0,"PostalCode":1.0},"MatchType":"interpolated","Location":{"LocationId":"NT_N7RcRoRfwWvZzI79OMdYBC_l_19072090_R_xA","LocationType":"point","DisplayPosition":{"Latitude":56.0032301,"Longitude":-3.78717},"MapView":{"TopLeft":{"Latitude":56.0043542,"Longitude":-3.7891805},"BottomRight":{"Latitude":56.0021059,"Longitude":-3.7851595}},"Address":{"Label":"1 Alma Street, Falkirk, FK2 7HB, United Kingdom","Country":"GBR","State":"Scotland","County":"Stirlingshire","City":"Falkirk","District":"Falkirk","Street":"Alma Street","HouseNumber":"1","PostalCode":"FK2 7HB","AdditionalData":[{"value":"United Kingdom","key":"CountryName"},{"value":"Scotland","key":"StateName"},{"value":"Stirlingshire","key":"CountyName"}]},"MapReference":{"ReferenceId":"19072090","Spot":0.13,"SideOfStreet":"right","StateId":"20252820","CountyId":"20292679","CityId":"20292687","DistrictId":"20292688"}}},{"Relevance":1.0,"Distance":66.4,"MatchLevel":"postalCode","MatchQuality":{"PostalCode":1.0},"MatchType":"interpolated","Location":{"LocationId":"NT_aVUAfyxcjrI800A80SkklA_l_19072106_L_yA","LocationType":"point","DisplayPosition":{"Latitude":56.0037,"Longitude":-3.7859},"MapView":{"TopLeft":{"Latitude":56.0126932,"Longitude":-3.801984},"BottomRight":{"Latitude":55.9947068,"Longitude":-3.769816}},"Address":{"Label":"FK2 7HX, Falkirk, Scotland, United Kingdom","Country":"GBR","State":"Scotland","County":"Stirlingshire","City":"Falkirk","PostalCode":"FK2 7HX","AdditionalData":[{"value":"United Kingdom","key":"CountryName"},{"value":"Scotland","key":"StateName"},{"value":"Stirlingshire","key":"CountyName"}]},"MapReference":{"ReferenceId":"19072106","Spot":0.12,"SideOfStreet":"neither","StateId":"20252820","CountyId":"20292679","CityId":"20292687"}}}]}]}}