{"Response":{"MetaInfo":{"Timestamp":"2020-03-28T10:32:49.935+0000","NextPageInformation":"2"},"View":[{"_type":"SearchResultsViewType","ViewId":0,"Result":[{"Relevance":1.0,"Distance":0.0,"Direction":0.0,"MatchLevel":"district","MatchQuality":{"Country":1.0,"State":1.0,"County":1.0,"City":1.0,"District":1.0,"PostalCode":1.0},"Location":{"LocationId":"NT_tWioUQVPlL85jlWSbw1HIB","LocationType":"point","DisplayPosition":{"Latitude":56.0034572,"Longitude":-3.8144751},"MapView":{"TopLeft":{"Latitude":56.01525,"Longitude":-3.84597},"BottomRight":{"Latitude":55.99997,"Longitude":-3.80245}},"Address":{"Label":"Camelon, Falkirk, Scotland, United Kingdom","Country":"GBR","State":"Scotland","County":"Stirlingshire","City":"Falkirk","District":"Camelon","PostalCode":"FK1 4","AdditionalData":[{"value":"United Kingdom","key":"CountryName"},{"value":"Scotland","key":"StateName"},{"value":"Stirlingshire","key":"CountyName"}]},"MapReference":{"ReferenceId":"19072095","SideOfStreet":"neither","StateId":"20252820","CountyId":"20292679","CityId":"20292687","DistrictId":"20340557"}}},{"Relevance":1.0,"Distance":14.7,"MatchLevel":"houseNumber","MatchQuality":{"Country":1.0,"State":1.0,"County":1.0,"City":1.0,"District":1.0,"Street":[1.0],"HouseNumber":1.0,"PostalCode":1.0},"MatchType":"interpolated","Location":{"LocationId":"NT_gVVyhFUnOPza03NqUSw24B_l_836609683_L_0AjM","LocationType":"point","DisplayPosition":{"Latitude":56.0037033,"Longitude":-3.8143153},"MapView":{"TopLeft":{"Latitude":56.0048275,"Longitude":-3.8163258},"BottomRight":{"Latitude":56.0025792,"Longitude":-3.8123047}},"Address":{"Label":"402 Main Street, Falkirk, FK1 4, United Kingdom","Country":"GBR","State":"Scotland","County":"Stirlingshire","City":"Falkirk","District":"Camelon","Street":"Main Street","HouseNumber":"402","PostalCode":"FK1 4","AdditionalData":[{"value":"United Kingdom","key":"CountryName"},{"value":"Scotland","key":"StateName"},{"value":"Stirlingshire","key":"CountyName"}]},"MapReference":{"ReferenceId":"836609683","Spot":0.83,"SideOfStreet":"left","StateId":"20252820","CountyId":"20292679","CityId":"20292687","DistrictId":"20340557"}}},{"Relevance":1.0,"Distance":33.2,"MatchLevel":"houseNumber","MatchQuality":{"Country":1.0,"State":1.0,"County":1.0,"City":1.0,"District":1.0,"Street":[1.0],"HouseNumber":1.0,"PostalCode":1.0},"MatchType":"interpolated","Location":{"LocationId":"NT_gVVyhFUnOPza03NqUSw24B_l_836609684_L_0ADN","LocationType":"point","DisplayPosition":{"Latitude":56.0038202,"Longitude":-3.8147806},"MapView":{"TopLeft":{"Latitude":56.0049443,"Longitude":-3.8167911},"BottomRight":{"Latitude":56.002696,"Longitude":-3.8127701}},"Address":{"Label":"404 Main Street, Falkirk, FK1 4, United Kingdom","Country":"GBR","State":"Scotland","County":"Stirlingshire","City":"Falkirk","District":"Camelon","Street":"Main Street","HouseNumber":"404","PostalCode":"FK1 4","AdditionalData":[{"value":"United Kingdom","key":"CountryName"},{"value":"Scotland","key":"StateName"},{"value":"Stirlingshire","key":"CountyName"}]},"MapReference":{"ReferenceId":"836609684","Spot":0.18,"SideOfStreet":"left","StateId":"20252820","CountyId":"20292679","CityId":"20292687","DistrictId":"20340557"}}},{"Relevance":1.0,"Distance":40.5,"MatchLevel":"street","MatchQuality":{"Country":1.0,"State":1.0,"County":1.0,"City":1.0,"District":1.0,"Street":[1.0],"PostalCode":1.0},"Location":{"LocationId":"NT_ncoQ3qFBw4HItLn1BtfoxC_l_836609681_L","LocationType":"point","DisplayPosition":{"Latitude":56.0038175,"Longitude":-3.8143761},"MapView":{"TopLeft":{"Latitude":56.00389,"Longitude":-3.81464},"BottomRight":{"Latitude":56.00346,"Longitude":-3.81305}},"Address":{"Label":"Main Street, Falkirk, FK1 4, United Kingdom","Country":"GBR","State":"Scotland","County":"Stirlingshire","City":"Falkirk","District":"Camelon","Street":"Main Street","PostalCode":"FK1 4","AdditionalData":[{"value":"United Kingdom","key":"CountryName"},{"value":"Scotland","key":"StateName"},{"value":"Stirlingshire","key":"CountyName"}]},"MapReference":{"ReferenceId":"836609681","Spot":0.83,"SideOfStreet":"left","StateId":"20252820","CountyId":"20292679","CityId":"20292687","DistrictId":"20340557"}}},{"Relevance":1.0,"Distance":49.1,"MatchLevel":"street","MatchQuality":{"Country":1.0,"State":1.0,"County":1.0,"City":1.0,"District":1.0,"Street":[1.0],"PostalCode":1.0},"Location":{"LocationId":"NT_DQIypYktKFHRdEQYdNq0gA_l_19072009_R","LocationType":"point","DisplayPosition":{"Latitude":56.00302,"Longitude":-3.81459},"MapView":{"TopLeft":{"Latitude":56.00327,"Longitude":-3.81589},"BottomRight":{"Latitude":56.00302,"Longitude":-3.81459}},"Address":{"Label":"Baird Street, Falkirk, FK1 4, United Kingdom","Country":"GBR","State":"Scotland","County":"Stirlingshire","City":"Falkirk","District":"Camelon","Street":"Baird Street","PostalCode":"FK1 4","AdditionalData":[{"value":"United Kingdom","key":"CountryName"},{"value":"Scotland","key":"StateName"},{"value":"Stirlingshire","key":"CountyName"}]},"MapReference":{"ReferenceId":"19072009","Spot":0.0,"SideOfStreet":"right","StateId":"20252820","CountyId":"20292679","CityId":"20292687","DistrictId":"20340557"}}},{"Relevance":1.0,"Distance":49.2,"MatchLevel":"street","MatchQuality":{"Country":1.0,"State":1.0,"County":1.0,"City":1.0,"District":1.0,"Street":[1.0],"PostalCode":1.0},"Location":{"LocationId":"NT_gVVyhFUnOPza03NqUSw24B_l_836609682_L","LocationType":"point","DisplayPosition":{"Latitude":56.00389,"Longitude":-3.81464},"MapView":{"TopLeft":{"Latitude":56.00422,"Longitude":-3.81567},"BottomRight":{"Latitude":56.00389,"Longitude":-3.81464}},"Address":{"Label":"Main Street, Falkirk, FK1 4, United Kingdom","Country":"GBR","State":"Scotland","County":"Stirlingshire","City":"Falkirk","District":"Camelon","Street":"Main Street","PostalCode":"FK1 4","AdditionalData":[{"value":"United Kingdom","key":"CountryName"},{"value":"Scotland","key":"StateName"},{"value":"Stirlingshire","key":"CountyName"}]},"MapReference":{"ReferenceId":"836609682","Spot":0.0,"SideOfStreet":"left","StateId":"20252820","CountyId":"20292679","CityId":"20292687","DistrictId":"20340557"}}},{"Relevance":1.0,"Distance":49.5,"MatchLevel":"street","MatchQuality":{"Country":1.0,"State":1.0,"County":1.0,"City":1.0,"District":1.0,"Street":[1.0],"PostalCode":1.0},"Location":{"LocationId":"NT_DQIypYktKFHRdEQYdNq0gA_l_19072064_R","LocationType":"point","DisplayPosition":{"Latitude":56.0030153,"Longitude":-3.8145677},"MapView":{"TopLeft":{"Latitude":56.00302,"Longitude":-3.81459},"BottomRight":{"Latitude":56.00276,"Longitude":-3.81335}},"Address":{"Label":"Baird Street, Falkirk, FK1 4, United Kingdom","Country":"GBR","State":"Scotland","County":"Stirlingshire","City":"Falkirk","District":"Camelon","Street":"Baird Street","PostalCode":"FK1 4","AdditionalData":[{"value":"United Kingdom","key":"CountryName"},{"value":"Scotland","key":"StateName"},{"value":"Stirlingshire","key":"CountyName"}]},"MapReference":{"ReferenceId":"19072064","Spot":0.98,"SideOfStreet":"right","StateId":"20252820","CountyId":"20292679","CityId":"20292687","DistrictId":"20340557"}}},{"Relevance":1.0,"Distance":57.1,"MatchLevel":"houseNumber","MatchQuality":{"Country":1.0,"State":1.0,"County":1.0,"City":1.0,"District":1.0,"Street":[1.0],"HouseNumber":1.0,"PostalCode":1.0},"MatchType":"interpolated","Location":{"LocationId":"NT_bexG3UVq.MNdUbPcJOuCcD_l_847031438_L_yA","LocationType":"point","DisplayPosition":{"Latitude":56.0028825,"Longitude":-3.814685},"MapView":{"TopLeft":{"Latitude":56.0040067,"Longitude":-3.8166955},"BottomRight":{"Latitude":56.0017584,"Longitude":-3.8126745}},"Address":{"Label":"2 Stark Avenue, Falkirk, FK1 4PR, United Kingdom","Country":"GBR","State":"Scotland","County":"Stirlingshire","City":"Falkirk","District":"Camelon","Street":"Stark Avenue","HouseNumber":"2","PostalCode":"FK1 4PR","AdditionalData":[{"value":"United Kingdom","key":"CountryName"},{"value":"Scotland","key":"StateName"},{"value":"Stirlingshire","key":"CountyName"}]},"MapReference":{"ReferenceId":"847031438","Spot":0.52,"SideOfStreet":"left","StateId":"20252820","CountyId":"20292679","CityId":"20292687","DistrictId":"20340557"}}},{"Relevance":1.0,"Distance":57.6,"MatchLevel":"postalCode","MatchQuality":{"PostalCode":1.0},"Location":{"LocationId":"NT_BO0VkB4VuXn74aZLSEfRfD_l_847031439_R","LocationType":"point","DisplayPosition":{"Latitude":56.00294,"Longitude":-3.81443},"MapView":{"TopLeft":{"Latitude":56.0119332,"Longitude":-3.8305137},"BottomRight":{"Latitude":55.9939468,"Longitude":-3.7983463}},"Address":{"Label":"FK1 4PP, Falkirk, Scotland, United Kingdom","Country":"GBR","State":"Scotland","County":"Stirlingshire","City":"Falkirk","PostalCode":"FK1 4PP","AdditionalData":[{"value":"United Kingdom","key":"CountryName"},{"value":"Scotland","key":"StateName"},{"value":"Stirlingshire","key":"CountyName"}]},"MapReference":{"ReferenceId":"847031439","Spot":0.42,"SideOfStreet":"neither","StateId":"20252820","CountyId":"20292679","CityId":"20292687"}}},{"Relevance":1.0,"Distance":68.3,"MatchLevel":"postalCode","MatchQuality":{"PostalCode":1.0},"MatchType":"interpolated","Location":{"LocationId":"NT_gVVyhFUnOPza03NqUSw24B_l_836609683_L_0AjM","LocationType":"point","DisplayPosition":{"Latitude":56.00341,"Longitude":-3.81338},"MapView":{"TopLeft":{"Latitude":56.0124032,"Longitude":-3.8294639},"BottomRight":{"Latitude":55.9944168,"Longitude":-3.7972961}},"Address":{"Label":"FK1 4EG, Falkirk, Scotland, United Kingdom","Country":"GBR","State":"Scotland","County":"Stirlingshire","City":"Falkirk","PostalCode":"FK1 4EG","AdditionalData":[{"value":"United Kingdom","key":"CountryName"},{"value":"Scotland","key":"StateName"},{"value":"Stirlingshire","key":"CountyName"}]},"MapReference":{"ReferenceId":"836609683","Spot":0.83,"SideOfStreet":"neither","StateId":"20252820","CountyId":"20292679","CityId":"20292687"}}}]}]}}