{"Response":{"MetaInfo":{"Timestamp":"2020-03-28T10:13:40.837+0000","NextPageInformation":"2"},"View":[{"_type":"SearchResultsViewType","ViewId":0,"Result":[{"Relevance":1.0,"Distance":0.0,"Direction":0.0,"MatchLevel":"city","MatchQuality":{"Country":1.0,"State":1.0,"County":1.0,"City":1.0,"PostalCode":1.0},"Location":{"LocationId":"NT_KfkETw..UN-PBf7iSIYb4D","LocationType":"point","DisplayPosition":{"Latitude":56.0465426,"Longitude":12.7078804},"MapView":{"TopLeft":{"Latitude":56.09002,"Longitude":12.66389},"BottomRight":{"Latitude":55.98866,"Longitude":12.78614}},"Address":{"Label":"Helsingborg, Skåne län, Sverige","Country":"SWE","State":"Skåne län","County":"Helsingborg","City":"Helsingborg","PostalCode":"252 24","AdditionalData":[{"value":"Sverige","key":"CountryName"},{"value":"Skåne län","key":"StateName"},{"value":"Helsingborg","key":"CountyName"}]},"MapReference":{"ReferenceId":"1175972560","SideOfStreet":"neither","CountryId":"20298368","StateId":"20299186","CountyId":"20299277","CityId":"20299279"}}},{"Relevance":1.0,"Distance":19.3,"MatchLevel":"street","MatchQuality":{"Country":1.0,"State":1.0,"County":1.0,"City":1.0,"Street":[1.0],"PostalCode":1.0},"Location":{"LocationId":"NT_97WGFa8r-vvIflRM5eFh9D_l_29286993_L","LocationType":"point","DisplayPosition":{"Latitude":56.04639,"Longitude":12.70803},"MapView":{"TopLeft":{"Latitude":56.04648,"Longitude":12.70795},"BottomRight":{"Latitude":56.04606,"Longitude":12.70821}},"Address":{"Label":"Munkavägen, SE-252 47 Helsingborg, Sverige","Country":"SWE","State":"Skåne län","County":"Helsingborg","City":"Helsingborg","Street":"Munkavägen","PostalCode":"252 47","AdditionalData":[{"value":"Sverige","key":"CountryName"},{"value":"Skåne län","key":"StateName"},{"value":"Helsingborg","key":"CountyName"}]},"MapReference":{"ReferenceId":"29286993","Spot":0.66,"SideOfStreet":"left","CountryId":"20298368","StateId":"20299186","CountyId":"20299277","CityId":"20299279"}}},{"Relevance":1.0,"Distance":26.7,"MatchLevel":"houseNumber","MatchQuality":{"Country":1.0,"State":1.0,"County":1.0,"City":1.0,"Street":[1.0],"HouseNumber":1.0,"PostalCode":1.0},"MatchType":"interpolated","Location":{"LocationId":"NT_hT0Uf-Q-y.CcjlAVe1ygdA_3kD","LocationType":"point","DisplayPosition":{"Latitude":56.04666,"Longitude":12.70731},"MapView":{"TopLeft":{"Latitude":56.0477842,"Longitude":12.7052973},"BottomRight":{"Latitude":56.0455358,"Longitude":12.7093227}},"Address":{"Label":"Södra Stenbocksgatan 79, SE-252 47 Helsingborg, Sverige","Country":"SWE","State":"Skåne län","County":"Helsingborg","City":"Helsingborg","Street":"Södra Stenbocksgatan","HouseNumber":"79","PostalCode":"252 47","AdditionalData":[{"value":"Sverige","key":"CountryName"},{"value":"Skåne län","key":"StateName"},{"value":"Helsingborg","key":"CountyName"}]},"MapReference":{"ReferenceId":"1212222134","Spot":0.77,"SideOfStreet":"right","CountryId":"20298368","StateId":"20299186","CountyId":"20299277","CityId":"20299279","AddressId":"217541724","RoadLinkId":"527671114"}}},{"Relevance":1.0,"Distance":38.9,"MatchLevel":"houseNumber","MatchQuality":{"Country":1.0,"State":1.0,"County":1.0,"City":1.0,"Street":[1.0],"HouseNumber":1.0,"PostalCode":1.0},"MatchType":"interpolated","Location":{"LocationId":"NT_hT0Uf-Q-y.CcjlAVe1ygdA_xID","LocationType":"point","DisplayPosition":{"Latitude":56.04641,"Longitude":12.7073},"MapView":{"TopLeft":{"Latitude":56.0475342,"Longitude":12.7052873},"BottomRight":{"Latitude":56.0452858,"Longitude":12.7093127}},"Address":{"Label":"Södra Stenbocksgatan 12, SE-252 47 Helsingborg, Sverige","Country":"SWE","State":"Skåne län","County":"Helsingborg","City":"Helsingborg","Street":"Södra Stenbocksgatan","HouseNumber":"12","PostalCode":"252 47","AdditionalData":[{"value":"Sverige","key":"CountryName"},{"value":"Skåne län","key":"StateName"},{"value":"Helsingborg","key":"CountyName"}]},"MapReference":{"ReferenceId":"1223759284","Spot":0.02,"SideOfStreet":"left","CountryId":"20298368","StateId":"20299186","CountyId":"20299277","CityId":"20299279","AddressId":"217541725","RoadLinkId":"541797009"}}},{"Relevance":1.0,"Distance":44.8,"MatchLevel":"landmark","MatchQuality":{"Country":1.0,"State":1.0,"County":1.0,"City":1.0,"Street":[1.0],"PostalCode":1.0,"Name":1.0},"Location":{"LocationId":"NT_noi8jn648RFVlX44v2WdOB_p_O.wU2qRuikFqzjOSgQqlRC","LocationType":"hospital","Name":"Helsingborgs lasarett","DisplayPosition":{"Latitude":56.04657,"Longitude":12.70371},"MapView":{"TopLeft":{"Latitude":56.04774,"Longitude":12.70119},"BottomRight":{"Latitude":56.04435,"Longitude":12.70856}},"Address":{"Label":"Charlotte Yhlens gata, SE-254 37 Helsingborg, Sverige","Country":"SWE","State":"Skåne län","County":"Helsingborg","City":"Helsingborg","Street":"Charlotte Yhlens gata","PostalCode":"254 37","AdditionalData":[{"value":"Sverige","key":"CountryName"},{"value":"Skåne län","key":"StateName"},{"value":"Helsingborg","key":"CountyName"}]},"MapReference":{"CountryId":"20298368","StateId":"20299186","CountyId":"20299277","CityId":"20299279","PlaceId":"21037228"}}},{"Relevance":1.0,"Distance":44.8,"MatchLevel":"street","MatchQuality":{"Country":1.0,"State":1.0,"County":1.0,"City":1.0,"Street":[1.0],"PostalCode":1.0},"Location":{"LocationId":"NT_LFT5ubTW0Of0c5NedYTCxD_l_1223759283_R","LocationType":"point","DisplayPosition":{"Latitude":56.0462405,"Longitude":12.7074029},"MapView":{"TopLeft":{"Latitude":56.04639,"Longitude":12.70731},"BottomRight":{"Latitude":56.04505,"Longitude":12.70818}},"Address":{"Label":"Södra Stenbocksgatan, SE-252 23 Helsingborg, Sverige","Country":"SWE","State":"Skåne län","County":"Helsingborg","City":"Helsingborg","Street":"Södra Stenbocksgatan","PostalCode":"252 23","AdditionalData":[{"value":"Sverige","key":"CountryName"},{"value":"Skåne län","key":"StateName"},{"value":"Helsingborg","key":"CountyName"}]},"MapReference":{"ReferenceId":"1223759283","Spot":0.89,"SideOfStreet":"right","CountryId":"20298368","StateId":"20299186","CountyId":"20299277","CityId":"20299279"}}},{"Relevance":1.0,"Distance":47.1,"MatchLevel":"street","MatchQuality":{"Country":1.0,"State":1.0,"County":1.0,"City":1.0,"Street":[1.0],"PostalCode":1.0},"Location":{"LocationId":"NT_hT0Uf-Q-y.CcjlAVe1ygdA_l_1212222208_R","LocationType":"point","DisplayPosition":{"Latitude":56.04677,"Longitude":12.70724},"MapView":{"TopLeft":{"Latitude":56.04704,"Longitude":12.70708},"BottomRight":{"Latitude":56.04677,"Longitude":12.70724}},"Address":{"Label":"Södra Stenbocksgatan, SE-252 47 Helsingborg, Sverige","Country":"SWE","State":"Skåne län","County":"Helsingborg","City":"Helsingborg","Street":"Södra Stenbocksgatan","PostalCode":"252 47","AdditionalData":[{"value":"Sverige","key":"CountryName"},{"value":"Skåne län","key":"StateName"},{"value":"Helsingborg","key":"CountyName"}]},"MapReference":{"ReferenceId":"1212222208","Spot":0.0,"SideOfStreet":"right","CountryId":"20298368","StateId":"20299186","CountyId":"20299277","CityId":"20299279"}}},{"Relevance":1.0,"Distance":72.3,"MatchLevel":"houseNumber","MatchQuality":{"Country":1.0,"State":1.0,"County":1.0,"City":1.0,"Street":[1.0],"HouseNumber":1.0,"PostalCode":1.0},"MatchType":"interpolated","Location":{"LocationId":"NT_TCVQSQPUB7mhzZEFWhkqDA_xA","LocationType":"point","DisplayPosition":{"Latitude":56.04666,"Longitude":12.70904},"MapView":{"TopLeft":{"Latitude":56.0477842,"Longitude":12.7070273},"BottomRight":{"Latitude":56.0455358,"Longitude":12.7110527}},"Address":{"Label":"Studievägen 1, SE-252 47 Helsingborg, Sverige","Country":"SWE","State":"Skåne län","County":"Helsingborg","City":"Helsingborg","Street":"Studievägen","HouseNumber":"1","PostalCode":"252 47","AdditionalData":[{"value":"Sverige","key":"CountryName"},{"value":"Skåne län","key":"StateName"},{"value":"Helsingborg","key":"CountyName"}]},"MapReference":{"ReferenceId":"1154677000","Spot":0.43,"SideOfStreet":"left","CountryId":"20298368","StateId":"20299186","CountyId":"20299277","CityId":"20299279","AddressId":"217523566","RoadLinkId":"460797131"}}},{"Relevance":1.0,"Distance":73.9,"MatchLevel":"street","MatchQuality":{"Country":1.0,"State":1.0,"County":1.0,"City":1.0,"PostalCode":1.0},"Location":{"LocationId":"NT_f-oXaoFuKfweeZTu2P0wLC_l_1140960251_R","LocationType":"point","DisplayPosition":{"Latitude":56.0466722,"Longitude":12.7067136},"MapView":{"TopLeft":{"Latitude":56.04713,"Longitude":12.70475},"BottomRight":{"Latitude":56.04658,"Longitude":12.70672}},"Address":{"Label":"SE-254 37 Helsingborg, Sverige","Country":"SWE","State":"Skåne län","County":"Helsingborg","City":"Helsingborg","PostalCode":"254 37","AdditionalData":[{"value":"Sverige","key":"CountryName"},{"value":"Skåne län","key":"StateName"},{"value":"Helsingborg","key":"CountyName"}]},"MapReference":{"ReferenceId":"1140960251","Spot":0.05,"SideOfStreet":"right","CountryId":"20298368","StateId":"20299186","CountyId":"20299277","CityId":"20299279"}}},{"Relevance":1.0,"Distance":74.4,"MatchLevel":"street","MatchQuality":{"Country":1.0,"State":1.0,"County":1.0,"City":1.0,"Street":[1.0],"PostalCode":1.0},"Location":{"LocationId":"NT_hT0Uf-Q-y.CcjlAVe1ygdA_l_1212222209_R","LocationType":"point","DisplayPosition":{"Latitude":56.04704,"Longitude":12.70708},"MapView":{"TopLeft":{"Latitude":56.04734,"Longitude":12.70691},"BottomRight":{"Latitude":56.04704,"Longitude":12.70708}},"Address":{"Label":"Södra Stenbocksgatan, SE-252 47 Helsingborg, Sverige","Country":"SWE","State":"Skåne län","County":"Helsingborg","City":"Helsingborg","Street":"Södra Stenbocksgatan","PostalCode":"252 47","AdditionalData":[{"value":"Sverige","key":"CountryName"},{"value":"Skåne län","key":"StateName"},{"value":"Helsingborg","key":"CountyName"}]},"MapReference":{"ReferenceId":"1212222209","Spot":0.0,"SideOfStreet":"right","CountryId":"20298368","StateId":"20299186","CountyId":"20299277","CityId":"20299279"}}}]}]}}