{"Response":{"MetaInfo":{"Timestamp":"2020-03-28T10:34:54.243+0000","NextPageInformation":"2"},"View":[{"_type":"SearchResultsViewType","ViewId":0,"Result":[{"Relevance":1.0,"Distance":0.0,"Direction":0.0,"MatchLevel":"district","MatchQuality":{"Country":1.0,"State":1.0,"County":1.0,"City":1.0,"District":1.0,"PostalCode":1.0},"Location":{"LocationId":"NT_G0uAfKpxDrp9sODaACZJLD","LocationType":"point","DisplayPosition":{"Latitude":56.0061185,"Longitude":-3.7856415},"MapView":{"TopLeft":{"Latitude":56.02212,"Longitude":-3.84181},"BottomRight":{"Latitude":55.96699,"Longitude":-3.68925}},"Address":{"Label":"Falkirk, Scotland, United Kingdom","Country":"GBR","State":"Scotland","County":"Stirlingshire","City":"Falkirk","District":"Falkirk","PostalCode":"FK1 5","AdditionalData":[{"value":"United Kingdom","key":"CountryName"},{"value":"Scotland","key":"StateName"},{"value":"Stirlingshire","key":"CountyName"}]},"MapReference":{"ReferenceId":"818516857","SideOfStreet":"neither","StateId":"20252820","CountyId":"20292679","CityId":"20292687","DistrictId":"20292688"}}},{"Relevance":1.0,"Distance":5.1,"MatchLevel":"houseNumber","MatchQuality":{"Country":1.0,"State":1.0,"County":1.0,"City":1.0,"District":1.0,"Street":[1.0],"HouseNumber":1.0,"PostalCode":1.0},"MatchType":"interpolated","Location":{"LocationId":"NT_aVUAfyxcjrI800A80SkklA_l_19071462_L_0gD","LocationType":"point","DisplayPosition":{"Latitude":56.00615,"Longitude":-3.7857},"MapView":{"TopLeft":{"Latitude":56.0072742,"Longitude":-3.7877106},"BottomRight":{"Latitude":56.0050259,"Longitude":-3.7836894}},"Address":{"Label":"48 Russel Street, Falkirk, FK2 7HS, United Kingdom","Country":"GBR","State":"Scotland","County":"Stirlingshire","City":"Falkirk","District":"Falkirk","Street":"Russel Street","HouseNumber":"48","PostalCode":"FK2 7HS","AdditionalData":[{"value":"United Kingdom","key":"CountryName"},{"value":"Scotland","key":"StateName"},{"value":"Stirlingshire","key":"CountyName"}]},"MapReference":{"ReferenceId":"19071462","Spot":0.0,"SideOfStreet":"left","StateId":"20252820","CountyId":"20292679","CityId":"20292687","DistrictId":"20292688"}}},{"Relevance":1.0,"Distance":13.1,"MatchLevel":"postalCode","MatchQuality":{"PostalCode":1.0},"MatchType":"interpolated","Location":{"LocationId":"NT_I.BvgXgLqeex.R1gnuhdkA_l_19071473_L_xA","LocationType":"point","DisplayPosition":{"Latitude":56.0062,"Longitude":-3.78549},"MapView":{"TopLeft":{"Latitude":56.0151932,"Longitude":-3.8015751},"BottomRight":{"Latitude":55.9972068,"Longitude":-3.7694049}},"Address":{"Label":"FK2 7FR, Falkirk, Scotland, United Kingdom","Country":"GBR","State":"Scotland","County":"Stirlingshire","City":"Falkirk","PostalCode":"FK2 7FR","AdditionalData":[{"value":"United Kingdom","key":"CountryName"},{"value":"Scotland","key":"StateName"},{"value":"Stirlingshire","key":"CountyName"}]},"MapReference":{"ReferenceId":"19071473","Spot":0.5,"SideOfStreet":"neither","StateId":"20252820","CountyId":"20292679","CityId":"20292687"}}},{"Relevance":1.0,"Distance":19.7,"MatchLevel":"houseNumber","MatchQuality":{"Country":1.0,"State":1.0,"County":1.0,"City":1.0,"District":1.0,"Street":[1.0],"HouseNumber":1.0,"PostalCode":1.0},"MatchType":"interpolated","Location":{"LocationId":"NT_bvvE91beVqQBd.bgxdmCPA_l_19071414_L_yA","LocationType":"point","DisplayPosition":{"Latitude":56.00632,"Longitude":-3.78593},"MapView":{"TopLeft":{"Latitude":56.0074442,"Longitude":-3.7879407},"BottomRight":{"Latitude":56.0051958,"Longitude":-3.7839194}},"Address":{"Label":"2 Alma Lane, Falkirk, FK2 7, United Kingdom","Country":"GBR","State":"Scotland","County":"Stirlingshire","City":"Falkirk","District":"Falkirk","Street":"Alma Lane","HouseNumber":"2","PostalCode":"FK2 7","AdditionalData":[{"value":"United Kingdom","key":"CountryName"},{"value":"Scotland","key":"StateName"},{"value":"Stirlingshire","key":"CountyName"}]},"MapReference":{"ReferenceId":"19071414","Spot":0.19,"SideOfStreet":"left","StateId":"20252820","CountyId":"20292679","CityId":"20292687","DistrictId":"20292688"}}},{"Relevance":1.0,"Distance":37.0,"MatchLevel":"houseNumber","MatchQuality":{"Country":1.0,"State":1.0,"County":1.0,"City":1.0,"District":1.0,"Street":[1.0],"HouseNumber":1.0,"PostalCode":1.0},"MatchType":"interpolated","Location":{"LocationId":"NT_aVUAfyxcjrI800A80SkklA_l_19071413_R_zMD","LocationType":"point","DisplayPosition":{"Latitude":56.0064501,"Longitude":-3.78568},"MapView":{"TopLeft":{"Latitude":56.0075743,"Longitude":-3.7876906},"BottomRight":{"Latitude":56.005326,"Longitude":-3.7836693}},"Address":{"Label":"33 Russel Street, Falkirk, FK2 7, United Kingdom","Country":"GBR","State":"Scotland","County":"Stirlingshire","City":"Falkirk","District":"Falkirk","Street":"Russel Street","HouseNumber":"33","PostalCode":"FK2 7","AdditionalData":[{"value":"United Kingdom","key":"CountryName"},{"value":"Scotland","key":"StateName"},{"value":"Stirlingshire","key":"CountyName"}]},"MapReference":{"ReferenceId":"19071413","Spot":0.14,"SideOfStreet":"right","StateId":"20252820","CountyId":"20292679","CityId":"20292687","DistrictId":"20292688"}}},{"Relevance":1.0,"Distance":37.9,"MatchLevel":"houseNumber","MatchQuality":{"Country":1.0,"State":1.0,"County":1.0,"City":1.0,"District":1.0,"Street":[1.0],"HouseNumber":1.0,"PostalCode":1.0},"MatchType":"interpolated","Location":{"LocationId":"NT_I.BvgXgLqeex.R1gnuhdkA_l_19071473_L_xA","LocationType":"point","DisplayPosition":{"Latitude":56.006135,"Longitude":-3.7850319},"MapView":{"TopLeft":{"Latitude":56.0072592,"Longitude":-3.7870425},"BottomRight":{"Latitude":56.0050109,"Longitude":-3.7830213}},"Address":{"Label":"1 Western Avenue, Falkirk, FK2 7HR, United Kingdom","Country":"GBR","State":"Scotland","County":"Stirlingshire","City":"Falkirk","District":"Falkirk","Street":"Western Avenue","HouseNumber":"1","PostalCode":"FK2 7HR","AdditionalData":[{"value":"United Kingdom","key":"CountryName"},{"value":"Scotland","key":"StateName"},{"value":"Stirlingshire","key":"CountyName"}]},"MapReference":{"ReferenceId":"19071473","Spot":0.5,"SideOfStreet":"left","StateId":"20252820","CountyId":"20292679","CityId":"20292687","DistrictId":"20292688"}}},{"Relevance":1.0,"Distance":43.8,"MatchLevel":"houseNumber","MatchQuality":{"Country":1.0,"State":1.0,"County":1.0,"City":1.0,"District":1.0,"Street":[1.0],"HouseNumber":1.0,"PostalCode":1.0},"MatchType":"interpolated","Location":{"LocationId":"NT_aVUAfyxcjrI800A80SkklA_l_19071692_R_yUD","LocationType":"point","DisplayPosition":{"Latitude":56.0057267,"Longitude":-3.7857133},"MapView":{"TopLeft":{"Latitude":56.0068508,"Longitude":-3.7877239},"BottomRight":{"Latitude":56.0046025,"Longitude":-3.7837027}},"Address":{"Label":"25 Russel Street, Falkirk, FK2 7HS, United Kingdom","Country":"GBR","State":"Scotland","County":"Stirlingshire","City":"Falkirk","District":"Falkirk","Street":"Russel Street","HouseNumber":"25","PostalCode":"FK2 7HS","AdditionalData":[{"value":"United Kingdom","key":"CountryName"},{"value":"Scotland","key":"StateName"},{"value":"Stirlingshire","key":"CountyName"}]},"MapReference":{"ReferenceId":"19071692","Spot":0.62,"SideOfStreet":"right","StateId":"20252820","CountyId":"20292679","CityId":"20292687","DistrictId":"20292688"}}},{"Relevance":1.0,"Distance":53.6,"MatchLevel":"postalCode","MatchQuality":{"PostalCode":1.0},"MatchType":"interpolated","Location":{"LocationId":"NT_aVUAfyxcjrI800A80SkklA_l_19071413_R_zMD","LocationType":"point","DisplayPosition":{"Latitude":56.0066,"Longitude":-3.78562},"MapView":{"TopLeft":{"Latitude":56.0155932,"Longitude":-3.8017052},"BottomRight":{"Latitude":55.9976068,"Longitude":-3.7695348}},"Address":{"Label":"FK2 7HP, Falkirk, Scotland, United Kingdom","Country":"GBR","State":"Scotland","County":"Stirlingshire","City":"Falkirk","PostalCode":"FK2 7HP","AdditionalData":[{"value":"United Kingdom","key":"CountryName"},{"value":"Scotland","key":"StateName"},{"value":"Stirlingshire","key":"CountyName"}]},"MapReference":{"ReferenceId":"19071413","Spot":0.14,"SideOfStreet":"neither","StateId":"20252820","CountyId":"20292679","CityId":"20292687"}}},{"Relevance":1.0,"Distance":53.7,"MatchLevel":"postalCode","MatchQuality":{"PostalCode":1.0},"MatchType":"interpolated","Location":{"LocationId":"NT_aVUAfyxcjrI800A80SkklA_l_19071692_R_yUD","LocationType":"point","DisplayPosition":{"Latitude":56.00564,"Longitude":-3.78576},"MapView":{"TopLeft":{"Latitude":56.0146332,"Longitude":-3.8018448},"BottomRight":{"Latitude":55.9966468,"Longitude":-3.7696752}},"Address":{"Label":"FK2 7HS, Falkirk, Scotland, United Kingdom","Country":"GBR","State":"Scotland","County":"Stirlingshire","City":"Falkirk","PostalCode":"FK2 7HS","AdditionalData":[{"value":"United Kingdom","key":"CountryName"},{"value":"Scotland","key":"StateName"},{"value":"Stirlingshire","key":"CountyName"}]},"MapReference":{"ReferenceId":"19071692","Spot":0.62,"SideOfStreet":"neither","StateId":"20252820","CountyId":"20292679","CityId":"20292687"}}},{"Relevance":1.0,"Distance":57.6,"MatchLevel":"postalCode","MatchQuality":{"PostalCode":1.0},"MatchType":"interpolated","Location":{"LocationId":"NT_bvvE91beVqQBd.bgxdmCPA_l_19071414_L_yA","LocationType":"point","DisplayPosition":{"Latitude":56.0063,"Longitude":-3.78651},"MapView":{"TopLeft":{"Latitude":56.0152932,"Longitude":-3.8025951},"BottomRight":{"Latitude":55.9973068,"Longitude":-3.7704249}},"Address":{"Label":"FK2 7HQ, Falkirk, Scotland, United Kingdom","Country":"GBR","State":"Scotland","County":"Stirlingshire","City":"Falkirk","PostalCode":"FK2 7HQ","AdditionalData":[{"value":"United Kingdom","key":"CountryName"},{"value":"Scotland","key":"StateName"},{"value":"Stirlingshire","key":"CountyName"}]},"MapReference":{"ReferenceId":"19071414","Spot":0.19,"SideOfStreet":"neither","StateId":"20252820","CountyId":"20292679","CityId":"20292687"}}}]}]}}