{"Response":{"MetaInfo":{"Timestamp":"2020-03-28T11:15:51.684+0000","NextPageInformation":"2"},"View":[{"_type":"SearchResultsViewType","ViewId":0,"Result":[{"Relevance":1.0,"Distance":0.0,"Direction":0.0,"MatchLevel":"district","MatchQuality":{"Country":1.0,"State":1.0,"County":1.0,"City":1.0,"District":1.0,"PostalCode":1.0},"Location":{"LocationId":"NT_rC2q0cwmvzO.OHC7DVt4wD","LocationType":"point","DisplayPosition":{"Latitude":56.185252,"Longitude":-3.0546497},"MapView":{"TopLeft":{"Latitude":56.18878,"Longitude":-3.0587},"BottomRight":{"Latitude":56.1851,"Longitude":-3.05035}},"Address":{"Label":"Cameron Bridge, Leven, Scotland, United Kingdom","Country":"GBR","State":"Scotland","County":"Fife","City":"Leven","District":"Cameron Bridge","PostalCode":"KY8 5","AdditionalData":[{"value":"United Kingdom","key":"CountryName"},{"value":"Scotland","key":"StateName"},{"value":"Fife","key":"CountyName"}]},"MapReference":{"ReferenceId":"19005571","SideOfStreet":"neither","StateId":"20252820","CountyId":"20292057","CityId":"20292095","DistrictId":"20339863"}}},{"Relevance":1.0,"Distance":3.2,"MatchLevel":"street","MatchQuality":{"Country":1.0,"State":1.0,"County":1.0,"City":1.0,"District":1.0,"Street":[1.0],"PostalCode":1.0},"Location":{"LocationId":"NT_0rV8CZhK1GF.qD-PiFOIiC_l_19056692_L","LocationType":"point","DisplayPosition":{"Latitude":56.1852248,"Longitude":-3.0546341},"MapView":{"TopLeft":{"Latitude":56.18527,"Longitude":-3.05468},"BottomRight":{"Latitude":56.1851,"Longitude":-3.05435}},"Address":{"Label":"Standing Stane Road, Leven, KY8 5, United Kingdom","Country":"GBR","State":"Scotland","County":"Fife","City":"Leven","District":"Cameron Bridge","Street":"Standing Stane Road","PostalCode":"KY8 5","AdditionalData":[{"value":"United Kingdom","key":"CountryName"},{"value":"Scotland","key":"StateName"},{"value":"Fife","key":"CountyName"}]},"MapReference":{"ReferenceId":"19056692","Spot":0.48,"SideOfStreet":"neither","StateId":"20252820","CountyId":"20292057","CityId":"20292095","DistrictId":"20339863"}}},{"Relevance":1.0,"Distance":18.6,"MatchLevel":"street","MatchQuality":{"Country":1.0,"State":1.0,"County":1.0,"City":1.0,"District":1.0,"Street":[1.0],"PostalCode":1.0},"Location":{"LocationId":"NT_u4D6yS-iQ.1VgH2EyLCSpB_l_19005864_L","LocationType":"point","DisplayPosition":{"Latitude":56.18526,"Longitude":-3.05435},"MapView":{"TopLeft":{"Latitude":56.18557,"Longitude":-3.05435},"BottomRight":{"Latitude":56.18526,"Longitude":-3.05399}},"Address":{"Label":"Cameron Road, Leven, KY8 5, United Kingdom","Country":"GBR","State":"Scotland","County":"Fife","City":"Leven","District":"Cameron Bridge","Street":"Cameron Road","PostalCode":"KY8 5","AdditionalData":[{"value":"United Kingdom","key":"CountryName"},{"value":"Scotland","key":"StateName"},{"value":"Fife","key":"CountyName"}]},"MapReference":{"ReferenceId":"19005864","Spot":0.0,"SideOfStreet":"left","StateId":"20252820","CountyId":"20292057","CityId":"20292095","DistrictId":"20339863"}}},{"Relevance":1.0,"Distance":19.0,"MatchLevel":"street","MatchQuality":{"Country":1.0,"State":1.0,"County":1.0,"City":1.0,"District":1.0,"Street":[1.0],"PostalCode":1.0},"Location":{"LocationId":"NT_0rV8CZhK1GF.qD-PiFOIiC_l_19056691_L","LocationType":"point","DisplayPosition":{"Latitude":56.1851,"Longitude":-3.05451},"MapView":{"TopLeft":{"Latitude":56.18518,"Longitude":-3.05451},"BottomRight":{"Latitude":56.1851,"Longitude":-3.05437}},"Address":{"Label":"Standing Stane Road, Leven, KY8 5, United Kingdom","Country":"GBR","State":"Scotland","County":"Fife","City":"Leven","District":"Cameron Bridge","Street":"Standing Stane Road","PostalCode":"KY8 5","AdditionalData":[{"value":"United Kingdom","key":"CountryName"},{"value":"Scotland","key":"StateName"},{"value":"Fife","key":"CountyName"}]},"MapReference":{"ReferenceId":"19056691","Spot":0.0,"SideOfStreet":"left","StateId":"20252820","CountyId":"20292057","CityId":"20292095","DistrictId":"20339863"}}},{"Relevance":1.0,"Distance":19.0,"MatchLevel":"street","MatchQuality":{"Country":1.0,"State":1.0,"County":1.0,"City":1.0,"District":1.0,"Street":[1.0],"PostalCode":1.0},"Location":{"LocationId":"NT_0rV8CZhK1GF.qD-PiFOIiC_l_19056690_L","LocationType":"point","DisplayPosition":{"Latitude":56.185182,"Longitude":-3.0543695},"MapView":{"TopLeft":{"Latitude":56.18526,"Longitude":-3.05437},"BottomRight":{"Latitude":56.18518,"Longitude":-3.05435}},"Address":{"Label":"Standing Stane Road, Leven, KY8 5, United Kingdom","Country":"GBR","State":"Scotland","County":"Fife","City":"Leven","District":"Cameron Bridge","Street":"Standing Stane Road","PostalCode":"KY8 5","AdditionalData":[{"value":"United Kingdom","key":"CountryName"},{"value":"Scotland","key":"StateName"},{"value":"Fife","key":"CountyName"}]},"MapReference":{"ReferenceId":"19056690","Spot":0.02,"SideOfStreet":"left","StateId":"20252820","CountyId":"20292057","CityId":"20292095","DistrictId":"20339863"}}},{"Relevance":1.0,"Distance":54.0,"MatchLevel":"street","MatchQuality":{"Country":1.0,"State":1.0,"County":1.0,"City":1.0,"District":1.0,"Street":[1.0],"PostalCode":1.0},"Location":{"LocationId":"NT_u4D6yS-iQ.1VgH2EyLCSpB_l_19005821_L","LocationType":"point","DisplayPosition":{"Latitude":56.18557,"Longitude":-3.05399},"MapView":{"TopLeft":{"Latitude":56.18689,"Longitude":-3.05399},"BottomRight":{"Latitude":56.18557,"Longitude":-3.05253}},"Address":{"Label":"Cameron Road, Leven, KY8 5, United Kingdom","Country":"GBR","State":"Scotland","County":"Fife","City":"Leven","District":"Cameron Bridge","Street":"Cameron Road","PostalCode":"KY8 5","AdditionalData":[{"value":"United Kingdom","key":"CountryName"},{"value":"Scotland","key":"StateName"},{"value":"Fife","key":"CountyName"}]},"MapReference":{"ReferenceId":"19005821","Spot":0.0,"SideOfStreet":"left","StateId":"20252820","CountyId":"20292057","CityId":"20292095","DistrictId":"20339863"}}},{"Relevance":1.0,"Distance":54.0,"MatchLevel":"street","MatchQuality":{"Country":1.0,"State":1.0,"County":1.0,"City":1.0,"District":1.0,"PostalCode":1.0},"Location":{"LocationId":"NT_S9zelk-goYYZBWro9XMKFD_l_19005822_L","LocationType":"point","DisplayPosition":{"Latitude":56.18557,"Longitude":-3.05399},"MapView":{"TopLeft":{"Latitude":56.1869,"Longitude":-3.05546},"BottomRight":{"Latitude":56.18557,"Longitude":-3.05399}},"Address":{"Label":"Leven, KY8 5, United Kingdom","Country":"GBR","State":"Scotland","County":"Fife","City":"Leven","District":"Cameron Bridge","PostalCode":"KY8 5","AdditionalData":[{"value":"United Kingdom","key":"CountryName"},{"value":"Scotland","key":"StateName"},{"value":"Fife","key":"CountyName"}]},"MapReference":{"ReferenceId":"19005822","Spot":0.0,"SideOfStreet":"left","StateId":"20252820","CountyId":"20292057","CityId":"20292095","DistrictId":"20339863"}}},{"Relevance":1.0,"Distance":67.8,"MatchLevel":"postalCode","MatchQuality":{"PostalCode":1.0},"Location":{"LocationId":"NT_u4D6yS-iQ.1VgH2EyLCSpB_l_19005821_L","LocationType":"point","DisplayPosition":{"Latitude":56.18565,"Longitude":-3.05382},"MapView":{"TopLeft":{"Latitude":56.1946432,"Longitude":-3.0699802},"BottomRight":{"Latitude":56.1766568,"Longitude":-3.0376598}},"Address":{"Label":"KY8 5RW, Leven, Scotland, United Kingdom","Country":"GBR","State":"Scotland","County":"Fife","City":"Leven","PostalCode":"KY8 5RW","AdditionalData":[{"value":"United Kingdom","key":"CountryName"},{"value":"Scotland","key":"StateName"},{"value":"Fife","key":"CountyName"}]},"MapReference":{"ReferenceId":"19005821","Spot":0.0,"SideOfStreet":"neither","StateId":"20252820","CountyId":"20292057","CityId":"20292095"}}},{"Relevance":1.0,"Distance":100.6,"MatchLevel":"street","MatchQuality":{"Country":1.0,"State":1.0,"County":1.0,"City":1.0,"District":1.0,"Street":[1.0],"PostalCode":1.0},"Location":{"LocationId":"NT_tlOo68wfLecnCy5uFSGvbC_l_19006048_L","LocationType":"point","DisplayPosition":{"Latitude":56.1844371,"Longitude":-3.0539424},"MapView":{"TopLeft":{"Latitude":56.1856,"Longitude":-3.0544},"BottomRight":{"Latitude":56.18404,"Longitude":-3.05257}},"Address":{"Label":"Standing Stane Road, Leven, KY8 5, United Kingdom","Country":"GBR","State":"Scotland","County":"Fife","City":"Leven","District":"Windygates","Street":"Standing Stane Road","PostalCode":"KY8 5","AdditionalData":[{"value":"United Kingdom","key":"CountryName"},{"value":"Scotland","key":"StateName"},{"value":"Fife","key":"CountyName"}]},"MapReference":{"ReferenceId":"19006048","Spot":0.25,"SideOfStreet":"left","StateId":"20252820","CountyId":"20292057","CityId":"20292095","DistrictId":"20339870"}}},{"Relevance":1.0,"Distance":134.4,"MatchLevel":"street","MatchQuality":{"Country":1.0,"State":1.0,"County":1.0,"City":1.0,"District":1.0,"Street":[1.0],"PostalCode":1.0},"Location":{"LocationId":"NT_SPTRbuJOMYM47aP3vEeZ1A_l_19331526_L","LocationType":"point","DisplayPosition":{"Latitude":56.1856,"Longitude":-3.05257},"MapView":{"TopLeft":{"Latitude":56.18713,"Longitude":-3.05257},"BottomRight":{"Latitude":56.1856,"Longitude":-3.05075}},"Address":{"Label":"Standing Stane Road, Leven, KY8 5, United Kingdom","Country":"GBR","State":"Scotland","County":"Fife","City":"Leven","District":"Methil","Street":"Standing Stane Road","PostalCode":"KY8 5","AdditionalData":[{"value":"United Kingdom","key":"CountryName"},{"value":"Scotland","key":"StateName"},{"value":"Fife","key":"CountyName"}]},"MapReference":{"ReferenceId":"19331526","Spot":0.0,"SideOfStreet":"left","StateId":"20252820","CountyId":"20292057","CityId":"20292095","DistrictId":"20292102"}}}]}]}}