{"Response":{"MetaInfo":{"Timestamp":"2020-03-28T10:32:12.564+0000","NextPageInformation":"2"},"View":[{"_type":"SearchResultsViewType","ViewId":0,"Result":[{"Relevance":1.0,"Distance":0.0,"Direction":0.0,"MatchLevel":"district","MatchQuality":{"Country":1.0,"State":1.0,"County":1.0,"City":1.0,"District":1.0,"PostalCode":1.0},"Location":{"LocationId":"NT_dUsw610hNy9d4b-Ft426FB","LocationType":"point","DisplayPosition":{"Latitude":56.1171464,"Longitude":-3.1743681},"MapView":{"TopLeft":{"Latitude":56.14236,"Longitude":-3.21418},"BottomRight":{"Latitude":56.08429,"Longitude":-3.11511}},"Address":{"Label":"Kirkcaldy, Scotland, United Kingdom","Country":"GBR","State":"Scotland","County":"Fife","City":"Kirkcaldy","District":"Kirkcaldy","PostalCode":"KY1 1","AdditionalData":[{"value":"United Kingdom","key":"CountryName"},{"value":"Scotland","key":"StateName"},{"value":"Fife","key":"CountyName"}]},"MapReference":{"ReferenceId":"565841859","SideOfStreet":"neither","StateId":"20252820","CountyId":"20292057","CityId":"20292091","DistrictId":"20292092"}}},{"Relevance":1.0,"Distance":27.4,"MatchLevel":"houseNumber","MatchQuality":{"Country":1.0,"State":1.0,"County":1.0,"City":1.0,"District":1.0,"Street":[1.0],"HouseNumber":1.0,"PostalCode":1.0},"MatchType":"interpolated","Location":{"LocationId":"NT_ozcRcHJhL0YiZIim9QGUmA_l_1021858676_R_5ED","LocationType":"point","DisplayPosition":{"Latitude":56.1174788,"Longitude":-3.1746562},"MapView":{"TopLeft":{"Latitude":56.1186029,"Longitude":-3.1766726},"BottomRight":{"Latitude":56.1163546,"Longitude":-3.1726397}},"Address":{"Label":"91 Bennochy Road, Kirkcaldy, KY2 5RB, United Kingdom","Country":"GBR","State":"Scotland","County":"Fife","City":"Kirkcaldy","District":"Kirkcaldy","Street":"Bennochy Road","HouseNumber":"91","PostalCode":"KY2 5RB","AdditionalData":[{"value":"United Kingdom","key":"CountryName"},{"value":"Scotland","key":"StateName"},{"value":"Fife","key":"CountyName"}]},"MapReference":{"ReferenceId":"1021858676","Spot":0.51,"SideOfStreet":"right","StateId":"20252820","CountyId":"20292057","CityId":"20292091","DistrictId":"20292092"}}},{"Relevance":1.0,"Distance":28.2,"MatchLevel":"houseNumber","MatchQuality":{"Country":1.0,"State":1.0,"County":1.0,"City":1.0,"District":1.0,"Street":[1.0],"HouseNumber":1.0,"PostalCode":1.0},"MatchType":"interpolated","Location":{"LocationId":"NT_icRbR2BbqxlBQGAB6VBGeD_l_78067223_R_xA","LocationType":"point","DisplayPosition":{"Latitude":56.1172024,"Longitude":-3.1749988},"MapView":{"TopLeft":{"Latitude":56.1183266,"Longitude":-3.1770152},"BottomRight":{"Latitude":56.1160783,"Longitude":-3.1729823}},"Address":{"Label":"1 Bennochy View, Kirkcaldy, KY2 5JD, United Kingdom","Country":"GBR","State":"Scotland","County":"Fife","City":"Kirkcaldy","District":"Kirkcaldy","Street":"Bennochy View","HouseNumber":"1","PostalCode":"KY2 5JD","AdditionalData":[{"value":"United Kingdom","key":"CountryName"},{"value":"Scotland","key":"StateName"},{"value":"Fife","key":"CountyName"}]},"MapReference":{"ReferenceId":"78067223","Spot":0.55,"SideOfStreet":"right","StateId":"20252820","CountyId":"20292057","CityId":"20292091","DistrictId":"20292092"}}},{"Relevance":1.0,"Distance":30.4,"MatchLevel":"houseNumber","MatchQuality":{"Country":1.0,"State":1.0,"County":1.0,"City":1.0,"District":1.0,"Street":[1.0],"HouseNumber":1.0,"PostalCode":1.0},"MatchType":"interpolated","Location":{"LocationId":"NT_aUvweHjKGNel4.f102J2kD_l_565841861_R_1A","LocationType":"point","DisplayPosition":{"Latitude":56.116778,"Longitude":-3.17466},"MapView":{"TopLeft":{"Latitude":56.1179022,"Longitude":-3.1766765},"BottomRight":{"Latitude":56.1156539,"Longitude":-3.1726436}},"Address":{"Label":"5 Bennochy Grove, Kirkcaldy, KY2 5JF, United Kingdom","Country":"GBR","State":"Scotland","County":"Fife","City":"Kirkcaldy","District":"Kirkcaldy","Street":"Bennochy Grove","HouseNumber":"5","PostalCode":"KY2 5JF","AdditionalData":[{"value":"United Kingdom","key":"CountryName"},{"value":"Scotland","key":"StateName"},{"value":"Fife","key":"CountyName"}]},"MapReference":{"ReferenceId":"565841861","Spot":0.43,"SideOfStreet":"right","StateId":"20252820","CountyId":"20292057","CityId":"20292091","DistrictId":"20292092"}}},{"Relevance":1.0,"Distance":32.8,"MatchLevel":"houseNumber","MatchQuality":{"Country":1.0,"State":1.0,"County":1.0,"City":1.0,"District":1.0,"Street":[1.0],"HouseNumber":1.0,"PostalCode":1.0},"MatchType":"interpolated","Location":{"LocationId":"NT_ozcRcHJhL0YiZIim9QGUmA_l_1021858675_L_4kD","LocationType":"point","DisplayPosition":{"Latitude":56.1174542,"Longitude":-3.1739343},"MapView":{"TopLeft":{"Latitude":56.1185783,"Longitude":-3.1759508},"BottomRight":{"Latitude":56.11633,"Longitude":-3.1719179}},"Address":{"Label":"89 Bennochy Road, Kirkcaldy, KY2 5, United Kingdom","Country":"GBR","State":"Scotland","County":"Fife","City":"Kirkcaldy","District":"Kirkcaldy","Street":"Bennochy Road","HouseNumber":"89","PostalCode":"KY2 5","AdditionalData":[{"value":"United Kingdom","key":"CountryName"},{"value":"Scotland","key":"StateName"},{"value":"Fife","key":"CountyName"}]},"MapReference":{"ReferenceId":"1021858675","Spot":0.65,"SideOfStreet":"left","StateId":"20252820","CountyId":"20292057","CityId":"20292091","DistrictId":"20292092"}}},{"Relevance":1.0,"Distance":45.2,"MatchLevel":"postalCode","MatchQuality":{"PostalCode":1.0},"MatchType":"interpolated","Location":{"LocationId":"NT_ozcRcHJhL0YiZIim9QGUmA_l_1021858675_L_4kD","LocationType":"point","DisplayPosition":{"Latitude":56.11752,"Longitude":-3.17408},"MapView":{"TopLeft":{"Latitude":56.1265132,"Longitude":-3.1902116},"BottomRight":{"Latitude":56.1085268,"Longitude":-3.1579484}},"Address":{"Label":"KY2 5RB, Kirkcaldy, Scotland, United Kingdom","Country":"GBR","State":"Scotland","County":"Fife","City":"Kirkcaldy","PostalCode":"KY2 5RB","AdditionalData":[{"value":"United Kingdom","key":"CountryName"},{"value":"Scotland","key":"StateName"},{"value":"Fife","key":"CountyName"}]},"MapReference":{"ReferenceId":"1021858675","Spot":0.65,"SideOfStreet":"neither","StateId":"20252820","CountyId":"20292057","CityId":"20292091"}}},{"Relevance":1.0,"Distance":49.3,"MatchLevel":"houseNumber","MatchQuality":{"Country":1.0,"State":1.0,"County":1.0,"City":1.0,"District":1.0,"Street":[1.0],"HouseNumber":1.0,"PostalCode":1.0},"MatchType":"interpolated","Location":{"LocationId":"NT_aUvweHjKGNel4.f102J2kD_l_565841860_L_xED","LocationType":"point","DisplayPosition":{"Latitude":56.11663,"Longitude":-3.17395},"MapView":{"TopLeft":{"Latitude":56.1177542,"Longitude":-3.1759664},"BottomRight":{"Latitude":56.1155059,"Longitude":-3.1719336}},"Address":{"Label":"11 Bennochy Grove, Kirkcaldy, KY2 5JF, United Kingdom","Country":"GBR","State":"Scotland","County":"Fife","City":"Kirkcaldy","District":"Kirkcaldy","Street":"Bennochy Grove","HouseNumber":"11","PostalCode":"KY2 5JF","AdditionalData":[{"value":"United Kingdom","key":"CountryName"},{"value":"Scotland","key":"StateName"},{"value":"Fife","key":"CountyName"}]},"MapReference":{"ReferenceId":"565841860","Spot":0.42,"SideOfStreet":"left","StateId":"20252820","CountyId":"20292057","CityId":"20292091","DistrictId":"20292092"}}},{"Relevance":1.0,"Distance":51.0,"MatchLevel":"street","MatchQuality":{"Country":1.0,"State":1.0,"County":1.0,"City":1.0,"District":1.0,"Street":[1.0],"PostalCode":1.0},"Location":{"LocationId":"NT_ozcRcHJhL0YiZIim9QGUmA_l_1021858652_R","LocationType":"point","DisplayPosition":{"Latitude":56.11747,"Longitude":-3.17495},"MapView":{"TopLeft":{"Latitude":56.11747,"Longitude":-3.17713},"BottomRight":{"Latitude":56.11738,"Longitude":-3.17495}},"Address":{"Label":"Bennochy Road, Kirkcaldy, KY2 5, United Kingdom","Country":"GBR","State":"Scotland","County":"Fife","City":"Kirkcaldy","District":"Kirkcaldy","Street":"Bennochy Road","PostalCode":"KY2 5","AdditionalData":[{"value":"United Kingdom","key":"CountryName"},{"value":"Scotland","key":"StateName"},{"value":"Fife","key":"CountyName"}]},"MapReference":{"ReferenceId":"1021858652","Spot":1.0,"SideOfStreet":"right","StateId":"20252820","CountyId":"20292057","CityId":"20292091","DistrictId":"20292092"}}},{"Relevance":1.0,"Distance":66.1,"MatchLevel":"houseNumber","MatchQuality":{"Country":1.0,"State":1.0,"County":1.0,"City":1.0,"District":1.0,"Street":[1.0],"HouseNumber":1.0,"PostalCode":1.0},"MatchType":"interpolated","Location":{"LocationId":"NT_aUvweHjKGNel4.f102J2kD_l_565841862_L_xAD","LocationType":"point","DisplayPosition":{"Latitude":56.1164189,"Longitude":-3.1742876},"MapView":{"TopLeft":{"Latitude":56.117543,"Longitude":-3.176304},"BottomRight":{"Latitude":56.1152947,"Longitude":-3.1722712}},"Address":{"Label":"10 Bennochy Grove, Kirkcaldy, KY2 5JF, United Kingdom","Country":"GBR","State":"Scotland","County":"Fife","City":"Kirkcaldy","District":"Kirkcaldy","Street":"Bennochy Grove","HouseNumber":"10","PostalCode":"KY2 5JF","AdditionalData":[{"value":"United Kingdom","key":"CountryName"},{"value":"Scotland","key":"StateName"},{"value":"Fife","key":"CountyName"}]},"MapReference":{"ReferenceId":"565841862","Spot":0.62,"SideOfStreet":"left","StateId":"20252820","CountyId":"20292057","CityId":"20292091","DistrictId":"20292092"}}},{"Relevance":1.0,"Distance":77.5,"MatchLevel":"postalCode","MatchQuality":{"PostalCode":1.0},"MatchType":"interpolated","Location":{"LocationId":"NT_aUvweHjKGNel4.f102J2kD_l_565841862_L_xAD","LocationType":"point","DisplayPosition":{"Latitude":56.11645,"Longitude":-3.17442},"MapView":{"TopLeft":{"Latitude":56.1254432,"Longitude":-3.1905511},"BottomRight":{"Latitude":56.1074568,"Longitude":-3.1582889}},"Address":{"Label":"KY2 5JF, Kirkcaldy, Scotland, United Kingdom","Country":"GBR","State":"Scotland","County":"Fife","City":"Kirkcaldy","PostalCode":"KY2 5JF","AdditionalData":[{"value":"United Kingdom","key":"CountryName"},{"value":"Scotland","key":"StateName"},{"value":"Fife","key":"CountyName"}]},"MapReference":{"ReferenceId":"565841862","Spot":0.62,"SideOfStreet":"neither","StateId":"20252820","CountyId":"20292057","CityId":"20292091"}}}]}]}}