{"Response":{"MetaInfo":{"Timestamp":"2020-03-28T11:03:08.207+0000","NextPageInformation":"2"},"View":[{"_type":"SearchResultsViewType","ViewId":0,"Result":[{"Relevance":1.0,"Distance":-8.4,"MatchLevel":"landmark","MatchQuality":{"Country":1.0,"State":1.0,"County":1.0,"City":1.0,"District":1.0,"PostalCode":1.0,"Name":1.0},"Location":{"LocationId":"NT_QWXy9X3H1ZNtrH9s8Peh3C","LocationType":"hospital","Name":"Århus Sygehus","DisplayPosition":{"Latitude":56.14113,"Longitude":10.18882},"MapView":{"TopLeft":{"Latitude":56.14225,"Longitude":10.18685},"BottomRight":{"Latitude":56.14,"Longitude":10.1906}},"Address":{"Label":"8000 Aarhus C, Danmark","Country":"DNK","State":"Midtjylland","County":"Aarhus","City":"Aarhus C","District":"Langenæs","PostalCode":"8000","AdditionalData":[{"value":"Danmark","key":"CountryName"},{"value":"Midtjylland","key":"StateName"},{"value":"Aarhus","key":"CountyName"}]},"MapReference":{"CountryId":"20298369","StateId":"20367479","CountyId":"20367515","CityId":"20855059","DistrictId":"25153488","PlaceId":"1406954120"}}},{"Relevance":1.0,"Distance":0.0,"Direction":0.0,"MatchLevel":"district","MatchQuality":{"Country":1.0,"State":1.0,"County":1.0,"City":1.0,"District":1.0,"PostalCode":1.0},"Location":{"LocationId":"NT_3uPYOpP-aBlDcGPVSSkZ6C","LocationType":"point","DisplayPosition":{"Latitude":56.1416224,"Longitude":10.1904339},"MapView":{"TopLeft":{"Latitude":56.15344,"Longitude":10.17341},"BottomRight":{"Latitude":56.13954,"Longitude":10.19091}},"Address":{"Label":"Langenæs, Aarhus C, Midtjylland, Danmark","Country":"DNK","State":"Midtjylland","County":"Aarhus","City":"Aarhus C","District":"Langenæs","PostalCode":"8000","AdditionalData":[{"value":"Danmark","key":"CountryName"},{"value":"Midtjylland","key":"StateName"},{"value":"Aarhus","key":"CountyName"}]},"MapReference":{"ReferenceId":"1218496313","SideOfStreet":"neither","CountryId":"20298369","StateId":"20367479","CountyId":"20367515","CityId":"20855059","DistrictId":"25153488"}}},{"Relevance":1.0,"Distance":8.5,"MatchLevel":"street","MatchQuality":{"Country":1.0,"State":1.0,"County":1.0,"City":1.0,"District":1.0,"Street":[1.0],"PostalCode":1.0},"Location":{"LocationId":"NT_jY2HPbggt0Ik7pb6mcz-.A_l_34395509_L","LocationType":"point","DisplayPosition":{"Latitude":56.141608,"Longitude":10.1905679},"MapView":{"TopLeft":{"Latitude":56.14172,"Longitude":10.19051},"BottomRight":{"Latitude":56.14107,"Longitude":10.19058}},"Address":{"Label":"Jyllands Alle, 8000 Aarhus C, Danmark","Country":"DNK","State":"Midtjylland","County":"Aarhus","City":"Aarhus C","District":"Langenæs","Street":"Jyllands Alle","PostalCode":"8000","AdditionalData":[{"value":"Danmark","key":"CountryName"},{"value":"Midtjylland","key":"StateName"},{"value":"Aarhus","key":"CountyName"}]},"MapReference":{"ReferenceId":"34395509","Spot":0.83,"SideOfStreet":"left","CountryId":"20298369","StateId":"20367479","CountyId":"20367515","CityId":"20855059","DistrictId":"25153488"}}},{"Relevance":1.0,"Distance":26.3,"MatchLevel":"houseNumber","MatchQuality":{"Country":1.0,"State":1.0,"County":1.0,"City":1.0,"District":1.0,"Street":[1.0],"HouseNumber":1.0,"PostalCode":1.0},"MatchType":"interpolated","Location":{"LocationId":"NT_.74aLVWxAVPj8cks1GEVsD_xED","LocationType":"point","DisplayPosition":{"Latitude":56.14184,"Longitude":10.1906},"MapView":{"TopLeft":{"Latitude":56.1429642,"Longitude":10.1885823},"BottomRight":{"Latitude":56.1407158,"Longitude":10.1926177}},"Address":{"Label":"Jyllands Alle 11, 8000 Aarhus C, Danmark","Country":"DNK","State":"Midtjylland","County":"Aarhus","City":"Aarhus C","District":"Marselis","Street":"Jyllands Alle","HouseNumber":"11","PostalCode":"8000","AdditionalData":[{"value":"Danmark","key":"CountryName"},{"value":"Midtjylland","key":"StateName"},{"value":"Aarhus","key":"CountyName"}]},"MapReference":{"ReferenceId":"34395442","Spot":0.8,"SideOfStreet":"right","CountryId":"20298369","StateId":"20367479","CountyId":"20367515","CityId":"20855059","DistrictId":"25153491","AddressId":"199304455","RoadLinkId":"100290925"}}},{"Relevance":1.0,"Distance":39.9,"MatchLevel":"houseNumber","MatchQuality":{"Country":1.0,"State":1.0,"County":1.0,"City":1.0,"District":1.0,"Street":[1.0],"HouseNumber":1.0,"PostalCode":1.0},"MatchType":"interpolated","Location":{"LocationId":"NT_7saXooGUIp5ZhnKr-XpS8D_5A","LocationType":"point","DisplayPosition":{"Latitude":56.14191,"Longitude":10.19005},"MapView":{"TopLeft":{"Latitude":56.1430342,"Longitude":10.1880323},"BottomRight":{"Latitude":56.1407858,"Longitude":10.1920677}},"Address":{"Label":"P. P. Ørums Gade 9, 8000 Aarhus C, Danmark","Country":"DNK","State":"Midtjylland","County":"Aarhus","City":"Aarhus C","District":"Langenæs","Street":"P. P. Ørums Gade","HouseNumber":"9","PostalCode":"8000","AdditionalData":[{"value":"Danmark","key":"CountryName"},{"value":"Midtjylland","key":"StateName"},{"value":"Aarhus","key":"CountyName"}]},"MapReference":{"ReferenceId":"34395428","Spot":0.31,"SideOfStreet":"left","CountryId":"20298369","StateId":"20367479","CountyId":"20367515","CityId":"20855059","DistrictId":"25153488","AddressId":"199586117","RoadLinkId":"100343546"}}},{"Relevance":1.0,"Distance":45.9,"MatchLevel":"houseNumber","MatchQuality":{"Country":1.0,"State":1.0,"County":1.0,"City":1.0,"District":1.0,"Street":[1.0],"HouseNumber":1.0,"PostalCode":1.0},"MatchType":"interpolated","Location":{"LocationId":"NT_4UlzgFDKi7H1LxVYjyRkCB_xcD","LocationType":"point","DisplayPosition":{"Latitude":56.14141,"Longitude":10.19107},"MapView":{"TopLeft":{"Latitude":56.1425342,"Longitude":10.1890523},"BottomRight":{"Latitude":56.1402858,"Longitude":10.1930877}},"Address":{"Label":"P. P. Ørums Gade 17, 8000 Aarhus C, Danmark","Country":"DNK","State":"Midtjylland","County":"Aarhus","City":"Aarhus C","District":"Marselis","Street":"P. P. Ørums Gade","HouseNumber":"17","PostalCode":"8000","AdditionalData":[{"value":"Danmark","key":"CountryName"},{"value":"Midtjylland","key":"StateName"},{"value":"Aarhus","key":"CountyName"}]},"MapReference":{"ReferenceId":"34395486","Spot":0.27,"SideOfStreet":"left","CountryId":"20298369","StateId":"20367479","CountyId":"20367515","CityId":"20855059","DistrictId":"25153491","AddressId":"199901957","RoadLinkId":"100354229"}}},{"Relevance":1.0,"Distance":47.9,"MatchLevel":"houseNumber","MatchQuality":{"Country":1.0,"State":1.0,"County":1.0,"City":1.0,"District":1.0,"Street":[1.0],"HouseNumber":1.0,"PostalCode":1.0},"MatchType":"interpolated","Location":{"LocationId":"NT_jY2HPbggt0Ik7pb6mcz-.A_xQD","LocationType":"point","DisplayPosition":{"Latitude":56.14204,"Longitude":10.19062},"MapView":{"TopLeft":{"Latitude":56.1431642,"Longitude":10.1886023},"BottomRight":{"Latitude":56.1409158,"Longitude":10.1926377}},"Address":{"Label":"Jyllands Alle 14, 8000 Aarhus C, Danmark","Country":"DNK","State":"Midtjylland","County":"Aarhus","City":"Aarhus C","District":"Langenæs","Street":"Jyllands Alle","HouseNumber":"14","PostalCode":"8000","AdditionalData":[{"value":"Danmark","key":"CountryName"},{"value":"Midtjylland","key":"StateName"},{"value":"Aarhus","key":"CountyName"}]},"MapReference":{"ReferenceId":"34395427","Spot":0.16,"SideOfStreet":"left","CountryId":"20298369","StateId":"20367479","CountyId":"20367515","CityId":"20855059","DistrictId":"25153488","AddressId":"199668353","RoadLinkId":"100212637"}}},{"Relevance":1.0,"Distance":52.3,"MatchLevel":"street","MatchQuality":{"Country":1.0,"State":1.0,"County":1.0,"City":1.0,"District":1.0,"Street":[1.0],"PostalCode":1.0},"Location":{"LocationId":"NT_TtrthA-sEzsCMpsdwgzxND_l_34395523_R","LocationType":"point","DisplayPosition":{"Latitude":56.14148,"Longitude":10.18963},"MapView":{"TopLeft":{"Latitude":56.142,"Longitude":10.1887},"BottomRight":{"Latitude":56.14097,"Longitude":10.18963}},"Address":{"Label":"Hospitalsvej, 8000 Aarhus C, Danmark","Country":"DNK","State":"Midtjylland","County":"Aarhus","City":"Aarhus C","District":"Langenæs","Street":"Hospitalsvej","PostalCode":"8000","AdditionalData":[{"value":"Danmark","key":"CountryName"},{"value":"Midtjylland","key":"StateName"},{"value":"Aarhus","key":"CountyName"}]},"MapReference":{"ReferenceId":"34395523","Spot":0.46,"SideOfStreet":"right","CountryId":"20298369","StateId":"20367479","CountyId":"20367515","CityId":"20855059","DistrictId":"25153488"}}},{"Relevance":1.0,"Distance":59.9,"MatchLevel":"houseNumber","MatchQuality":{"Country":1.0,"State":1.0,"County":1.0,"City":1.0,"District":1.0,"Street":[1.0],"HouseNumber":1.0,"PostalCode":1.0},"MatchType":"interpolated","Location":{"LocationId":"NT_bP-5VrUf6hU9Av7EzVBVgD_xAD","LocationType":"point","DisplayPosition":{"Latitude":56.14145,"Longitude":10.19154},"MapView":{"TopLeft":{"Latitude":56.1425742,"Longitude":10.1895223},"BottomRight":{"Latitude":56.1403258,"Longitude":10.1935577}},"Address":{"Label":"Hans Schourups Gade 10, 8000 Aarhus C, Danmark","Country":"DNK","State":"Midtjylland","County":"Aarhus","City":"Aarhus C","District":"Marselis","Street":"Hans Schourups Gade","HouseNumber":"10","PostalCode":"8000","AdditionalData":[{"value":"Danmark","key":"CountryName"},{"value":"Midtjylland","key":"StateName"},{"value":"Aarhus","key":"CountyName"}]},"MapReference":{"ReferenceId":"34395485","Spot":0.24,"SideOfStreet":"left","CountryId":"20298369","StateId":"20367479","CountyId":"20367515","CityId":"20855059","DistrictId":"25153491","AddressId":"200456109","RoadLinkId":"100219888"}}},{"Relevance":1.0,"Distance":60.4,"MatchLevel":"houseNumber","MatchQuality":{"Country":1.0,"State":1.0,"County":1.0,"City":1.0,"District":1.0,"Street":[1.0],"HouseNumber":1.0,"PostalCode":1.0},"MatchType":"interpolated","Location":{"LocationId":"NT_bP-5VrUf6hU9Av7EzVBVgD_xUD","LocationType":"point","DisplayPosition":{"Latitude":56.1411,"Longitude":10.1907},"MapView":{"TopLeft":{"Latitude":56.1422242,"Longitude":10.1886823},"BottomRight":{"Latitude":56.1399758,"Longitude":10.1927177}},"Address":{"Label":"Hans Schourups Gade 15, 8000 Aarhus C, Danmark","Country":"DNK","State":"Midtjylland","County":"Aarhus","City":"Aarhus C","District":"Marselis","Street":"Hans Schourups Gade","HouseNumber":"15","PostalCode":"8000","AdditionalData":[{"value":"Danmark","key":"CountryName"},{"value":"Midtjylland","key":"StateName"},{"value":"Aarhus","key":"CountyName"}]},"MapReference":{"ReferenceId":"34395508","Spot":0.25,"SideOfStreet":"right","CountryId":"20298369","StateId":"20367479","CountyId":"20367515","CityId":"20855059","DistrictId":"25153491","AddressId":"200890263","RoadLinkId":"100375426"}}}]}]}}