{"Response":{"MetaInfo":{"Timestamp":"2020-03-28T10:06:11.265+0000","NextPageInformation":"2"},"View":[{"_type":"SearchResultsViewType","ViewId":0,"Result":[{"Relevance":1.0,"Distance":0.0,"Direction":0.0,"MatchLevel":"city","MatchQuality":{"Country":1.0,"State":1.0,"County":1.0,"City":1.0,"PostalCode":1.0},"Location":{"LocationId":"NT_Dt9exV1xSO9FUhYmqgG35C","LocationType":"point","DisplayPosition":{"Latitude":56.2741092,"Longitude":8.3224864},"MapView":{"TopLeft":{"Latitude":56.28036,"Longitude":8.30374},"BottomRight":{"Latitude":56.25924,"Longitude":8.32699}},"Address":{"Label":"Ulfborg, Midtjylland, Danmark","Country":"DNK","State":"Midtjylland","County":"Holstebro","City":"Ulfborg","PostalCode":"6990","AdditionalData":[{"value":"Danmark","key":"CountryName"},{"value":"Midtjylland","key":"StateName"},{"value":"Holstebro","key":"CountyName"}]},"MapReference":{"ReferenceId":"1147370653","SideOfStreet":"neither","CountryId":"20298369","StateId":"20367479","CountyId":"20368806","CityId":"20368866"}}},{"Relevance":1.0,"Distance":5.5,"MatchLevel":"houseNumber","MatchQuality":{"Country":1.0,"State":1.0,"County":1.0,"City":1.0,"Street":[1.0],"HouseNumber":1.0,"PostalCode":1.0},"MatchType":"interpolated","Location":{"LocationId":"NT_1hJghfXzbsFA91cFCHd3LB_yAD","LocationType":"point","DisplayPosition":{"Latitude":56.27415,"Longitude":8.32218},"MapView":{"TopLeft":{"Latitude":56.2752742,"Longitude":8.3201553},"BottomRight":{"Latitude":56.2730258,"Longitude":8.3242047}},"Address":{"Label":"Holmegade 20, 6990 Ulfborg, Danmark","Country":"DNK","State":"Midtjylland","County":"Holstebro","City":"Ulfborg","Street":"Holmegade","HouseNumber":"20","PostalCode":"6990","AdditionalData":[{"value":"Danmark","key":"CountryName"},{"value":"Midtjylland","key":"StateName"},{"value":"Holstebro","key":"CountyName"}]},"MapReference":{"ReferenceId":"34511468","Spot":0.71,"SideOfStreet":"right","CountryId":"20298369","StateId":"20367479","CountyId":"20368806","CityId":"20368866","AddressId":"200031127","RoadLinkId":"100215804"}}},{"Relevance":1.0,"Distance":25.3,"MatchLevel":"street","MatchQuality":{"Country":1.0,"State":1.0,"County":1.0,"City":1.0,"Street":[1.0],"PostalCode":1.0},"Location":{"LocationId":"NT_V7-CmzqMGyxktcNTSrJx.C_l_34511447_L","LocationType":"point","DisplayPosition":{"Latitude":56.2743297,"Longitude":8.3225903},"MapView":{"TopLeft":{"Latitude":56.27441,"Longitude":8.32242},"BottomRight":{"Latitude":56.27408,"Longitude":8.32312}},"Address":{"Label":"Reberbanen, 6990 Ulfborg, Danmark","Country":"DNK","State":"Midtjylland","County":"Holstebro","City":"Ulfborg","Street":"Reberbanen","PostalCode":"6990","AdditionalData":[{"value":"Danmark","key":"CountryName"},{"value":"Midtjylland","key":"StateName"},{"value":"Holstebro","key":"CountyName"}]},"MapReference":{"ReferenceId":"34511447","Spot":0.76,"SideOfStreet":"left","CountryId":"20298369","StateId":"20367479","CountyId":"20368806","CityId":"20368866"}}},{"Relevance":1.0,"Distance":41.2,"MatchLevel":"houseNumber","MatchQuality":{"Country":1.0,"State":1.0,"County":1.0,"City":1.0,"Street":[1.0],"HouseNumber":1.0,"PostalCode":1.0},"MatchType":"interpolated","Location":{"LocationId":"NT_1hJghfXzbsFA91cFCHd3LB_yID","LocationType":"point","DisplayPosition":{"Latitude":56.27448,"Longitude":8.32249},"MapView":{"TopLeft":{"Latitude":56.2756042,"Longitude":8.3204653},"BottomRight":{"Latitude":56.2733558,"Longitude":8.3245147}},"Address":{"Label":"Holmegade 22, 6990 Ulfborg, Danmark","Country":"DNK","State":"Midtjylland","County":"Holstebro","City":"Ulfborg","Street":"Holmegade","HouseNumber":"22","PostalCode":"6990","AdditionalData":[{"value":"Danmark","key":"CountryName"},{"value":"Midtjylland","key":"StateName"},{"value":"Holstebro","key":"CountyName"}]},"MapReference":{"ReferenceId":"34511435","Spot":0.42,"SideOfStreet":"right","CountryId":"20298369","StateId":"20367479","CountyId":"20368806","CityId":"20368866","AddressId":"198863572","RoadLinkId":"100494356"}}},{"Relevance":1.0,"Distance":47.5,"MatchLevel":"houseNumber","MatchQuality":{"Country":1.0,"State":1.0,"County":1.0,"City":1.0,"Street":[1.0],"HouseNumber":1.0,"PostalCode":1.0},"MatchType":"interpolated","Location":{"LocationId":"NT_uNY7tvpfFVsAPj5TxfKLqD_ygD","LocationType":"point","DisplayPosition":{"Latitude":56.2737,"Longitude":8.32271},"MapView":{"TopLeft":{"Latitude":56.2748242,"Longitude":8.3206853},"BottomRight":{"Latitude":56.2725758,"Longitude":8.3247347}},"Address":{"Label":"Tingvej 28, 6990 Ulfborg, Danmark","Country":"DNK","State":"Midtjylland","County":"Holstebro","City":"Ulfborg","Street":"Tingvej","HouseNumber":"28","PostalCode":"6990","AdditionalData":[{"value":"Danmark","key":"CountryName"},{"value":"Midtjylland","key":"StateName"},{"value":"Holstebro","key":"CountyName"}]},"MapReference":{"ReferenceId":"34511477","Spot":1.0,"SideOfStreet":"right","CountryId":"20298369","StateId":"20367479","CountyId":"20368806","CityId":"20368866","AddressId":"199820046","RoadLinkId":"100404080"}}},{"Relevance":1.0,"Distance":50.4,"MatchLevel":"houseNumber","MatchQuality":{"Country":1.0,"State":1.0,"County":1.0,"City":1.0,"Street":[1.0],"HouseNumber":1.0,"PostalCode":1.0},"MatchType":"interpolated","Location":{"LocationId":"NT_V7-CmzqMGyxktcNTSrJx.C_ycD","LocationType":"point","DisplayPosition":{"Latitude":56.27398,"Longitude":8.32333},"MapView":{"TopLeft":{"Latitude":56.2751042,"Longitude":8.3213053},"BottomRight":{"Latitude":56.2728558,"Longitude":8.3253547}},"Address":{"Label":"Reberbanen 27, 6990 Ulfborg, Danmark","Country":"DNK","State":"Midtjylland","County":"Holstebro","City":"Ulfborg","Street":"Reberbanen","HouseNumber":"27","PostalCode":"6990","AdditionalData":[{"value":"Danmark","key":"CountryName"},{"value":"Midtjylland","key":"StateName"},{"value":"Holstebro","key":"CountyName"}]},"MapReference":{"ReferenceId":"34511585","Spot":0.93,"SideOfStreet":"left","CountryId":"20298369","StateId":"20367479","CountyId":"20368806","CityId":"20368866","AddressId":"198555542","RoadLinkId":"100471312"}}},{"Relevance":1.0,"Distance":55.0,"MatchLevel":"houseNumber","MatchQuality":{"Country":1.0,"State":1.0,"County":1.0,"City":1.0,"Street":[1.0],"HouseNumber":1.0,"PostalCode":1.0},"MatchType":"interpolated","Location":{"LocationId":"NT_1hJghfXzbsFA91cFCHd3LB_yQD","LocationType":"point","DisplayPosition":{"Latitude":56.2746,"Longitude":8.3226},"MapView":{"TopLeft":{"Latitude":56.2757242,"Longitude":8.3205753},"BottomRight":{"Latitude":56.2734758,"Longitude":8.3246247}},"Address":{"Label":"Holmegade 24, 6990 Ulfborg, Danmark","Country":"DNK","State":"Midtjylland","County":"Holstebro","City":"Ulfborg","Street":"Holmegade","HouseNumber":"24","PostalCode":"6990","AdditionalData":[{"value":"Danmark","key":"CountryName"},{"value":"Midtjylland","key":"StateName"},{"value":"Holstebro","key":"CountyName"}]},"MapReference":{"ReferenceId":"34511419","Spot":0.04,"SideOfStreet":"right","CountryId":"20298369","StateId":"20367479","CountyId":"20368806","CityId":"20368866","AddressId":"201108168","RoadLinkId":"100045211"}}},{"Relevance":1.0,"Distance":71.8,"MatchLevel":"street","MatchQuality":{"Country":1.0,"State":1.0,"County":1.0,"City":1.0,"Street":[1.0],"PostalCode":1.0},"Location":{"LocationId":"NT_1hJghfXzbsFA91cFCHd3LB_l_34511478_R","LocationType":"point","DisplayPosition":{"Latitude":56.2734641,"Longitude":8.3224521},"MapView":{"TopLeft":{"Latitude":56.27351,"Longitude":8.32159},"BottomRight":{"Latitude":56.27346,"Longitude":8.32253}},"Address":{"Label":"Holmegade, 6990 Ulfborg, Danmark","Country":"DNK","State":"Midtjylland","County":"Holstebro","City":"Ulfborg","Street":"Holmegade","PostalCode":"6990","AdditionalData":[{"value":"Danmark","key":"CountryName"},{"value":"Midtjylland","key":"StateName"},{"value":"Holstebro","key":"CountyName"}]},"MapReference":{"ReferenceId":"34511478","Spot":0.08,"SideOfStreet":"right","CountryId":"20298369","StateId":"20367479","CountyId":"20368806","CityId":"20368866"}}},{"Relevance":1.0,"Distance":82.2,"MatchLevel":"houseNumber","MatchQuality":{"Country":1.0,"State":1.0,"County":1.0,"City":1.0,"Street":[1.0],"HouseNumber":1.0,"PostalCode":1.0},"MatchType":"interpolated","Location":{"LocationId":"NT_v4PYHBm5lwTOOCZTs4mT9C_zME","LocationType":"point","DisplayPosition":{"Latitude":56.2732,"Longitude":8.32209},"MapView":{"TopLeft":{"Latitude":56.2743242,"Longitude":8.3200654},"BottomRight":{"Latitude":56.2720758,"Longitude":8.3241146}},"Address":{"Label":"Nørredige 3C, 6990 Ulfborg, Danmark","Country":"DNK","State":"Midtjylland","County":"Holstebro","City":"Ulfborg","Street":"Nørredige","HouseNumber":"3C","PostalCode":"6990","AdditionalData":[{"value":"Danmark","key":"CountryName"},{"value":"Midtjylland","key":"StateName"},{"value":"Holstebro","key":"CountyName"}]},"MapReference":{"ReferenceId":"34511501","Spot":0.3,"SideOfStreet":"right","CountryId":"20298369","StateId":"20367479","CountyId":"20368806","CityId":"20368866","AddressId":"198669776","RoadLinkId":"100358178"}}},{"Relevance":1.0,"Distance":83.3,"MatchLevel":"houseNumber","MatchQuality":{"Country":1.0,"State":1.0,"County":1.0,"City":1.0,"Street":[1.0],"HouseNumber":1.0,"PostalCode":1.0},"MatchType":"interpolated","Location":{"LocationId":"NT_uNY7tvpfFVsAPj5TxfKLqD_yID","LocationType":"point","DisplayPosition":{"Latitude":56.27336,"Longitude":8.32248},"MapView":{"TopLeft":{"Latitude":56.2744842,"Longitude":8.3204553},"BottomRight":{"Latitude":56.2722358,"Longitude":8.3245047}},"Address":{"Label":"Tingvej 22, 6990 Ulfborg, Danmark","Country":"DNK","State":"Midtjylland","County":"Holstebro","City":"Ulfborg","Street":"Tingvej","HouseNumber":"22","PostalCode":"6990","AdditionalData":[{"value":"Danmark","key":"CountryName"},{"value":"Midtjylland","key":"StateName"},{"value":"Holstebro","key":"CountyName"}]},"MapReference":{"ReferenceId":"34511500","Spot":0.66,"SideOfStreet":"right","CountryId":"20298369","StateId":"20367479","CountyId":"20368806","CityId":"20368866","AddressId":"200459437","RoadLinkId":"100159313"}}}]}]}}