{"Response":{"MetaInfo":{"Timestamp":"2020-03-28T11:36:30.116+0000","NextPageInformation":"2"},"View":[{"_type":"SearchResultsViewType","ViewId":0,"Result":[{"Relevance":1.0,"Distance":0.0,"Direction":0.0,"MatchLevel":"city","MatchQuality":{"Country":1.0,"State":1.0,"County":1.0,"City":1.0,"PostalCode":1.0},"Location":{"LocationId":"NT_rR0WqBuyXSafmUn4G6Qd6C","LocationType":"point","DisplayPosition":{"Latitude":56.2373297,"Longitude":12.8497664},"MapView":{"TopLeft":{"Latitude":56.28182,"Longitude":12.82758},"BottomRight":{"Latitude":56.22307,"Longitude":12.91631}},"Address":{"Label":"Ängelholm, Skåne län, Sverige","Country":"SWE","State":"Skåne län","County":"Ängelholm","City":"Ängelholm","PostalCode":"262 37","AdditionalData":[{"value":"Sverige","key":"CountryName"},{"value":"Skåne län","key":"StateName"},{"value":"Ängelholm","key":"CountyName"}]},"MapReference":{"ReferenceId":"814125766","SideOfStreet":"neither","CountryId":"20298368","StateId":"20299186","CountyId":"20299331","CityId":"20299335"}}},{"Relevance":1.0,"Distance":6.8,"MatchLevel":"street","MatchQuality":{"Country":1.0,"State":1.0,"County":1.0,"City":1.0,"Street":[1.0],"PostalCode":1.0},"Location":{"LocationId":"NT_6hqek.drWd3zgUVYZ8XyuA_l_80521816_L","LocationType":"point","DisplayPosition":{"Latitude":56.2373817,"Longitude":12.8498246},"MapView":{"TopLeft":{"Latitude":56.23751,"Longitude":12.84971},"BottomRight":{"Latitude":56.23723,"Longitude":12.84996}},"Address":{"Label":"Sibirienvägen, SE-262 53 Ängelholm, Sverige","Country":"SWE","State":"Skåne län","County":"Ängelholm","City":"Ängelholm","Street":"Sibirienvägen","PostalCode":"262 53","AdditionalData":[{"value":"Sverige","key":"CountryName"},{"value":"Skåne län","key":"StateName"},{"value":"Ängelholm","key":"CountyName"}]},"MapReference":{"ReferenceId":"80521816","Spot":0.54,"SideOfStreet":"left","CountryId":"20298368","StateId":"20299186","CountyId":"20299331","CityId":"20299335"}}},{"Relevance":1.0,"Distance":20.3,"MatchLevel":"houseNumber","MatchQuality":{"Country":1.0,"State":1.0,"County":1.0,"City":1.0,"Street":[1.0],"HouseNumber":1.0,"PostalCode":1.0},"MatchType":"interpolated","Location":{"LocationId":"NT_eYZrkR91lernrhmg4qltFD_0AD","LocationType":"point","DisplayPosition":{"Latitude":56.23751,"Longitude":12.84971},"MapView":{"TopLeft":{"Latitude":56.2386342,"Longitude":12.8476872},"BottomRight":{"Latitude":56.2363858,"Longitude":12.8517328}},"Address":{"Label":"Västersjögatan 40, SE-262 53 Ängelholm, Sverige","Country":"SWE","State":"Skåne län","County":"Ängelholm","City":"Ängelholm","Street":"Västersjögatan","HouseNumber":"40","PostalCode":"262 53","AdditionalData":[{"value":"Sverige","key":"CountryName"},{"value":"Skåne län","key":"StateName"},{"value":"Ängelholm","key":"CountyName"}]},"MapReference":{"ReferenceId":"80521815","Spot":1.0,"SideOfStreet":"left","CountryId":"20298368","StateId":"20299186","CountyId":"20299331","CityId":"20299335","AddressId":"569715125","RoadLinkId":"98750205"}}},{"Relevance":1.0,"Distance":25.6,"MatchLevel":"houseNumber","MatchQuality":{"Country":1.0,"State":1.0,"County":1.0,"City":1.0,"Street":[1.0],"HouseNumber":1.0,"PostalCode":1.0},"MatchType":"interpolated","Location":{"LocationId":"NT_eYZrkR91lernrhmg4qltFD_xkD","LocationType":"point","DisplayPosition":{"Latitude":56.23713,"Longitude":12.84956},"MapView":{"TopLeft":{"Latitude":56.2382542,"Longitude":12.8475373},"BottomRight":{"Latitude":56.2360058,"Longitude":12.8515827}},"Address":{"Label":"Västersjögatan 19, SE-262 53 Ängelholm, Sverige","Country":"SWE","State":"Skåne län","County":"Ängelholm","City":"Ängelholm","Street":"Västersjögatan","HouseNumber":"19","PostalCode":"262 53","AdditionalData":[{"value":"Sverige","key":"CountryName"},{"value":"Skåne län","key":"StateName"},{"value":"Ängelholm","key":"CountyName"}]},"MapReference":{"ReferenceId":"29254639","Spot":0.7,"SideOfStreet":"right","CountryId":"20298368","StateId":"20299186","CountyId":"20299331","CityId":"20299335","AddressId":"217866217","RoadLinkId":"98994203"}}},{"Relevance":1.0,"Distance":27.8,"MatchLevel":"houseNumber","MatchQuality":{"Country":1.0,"State":1.0,"County":1.0,"City":1.0,"Street":[1.0],"HouseNumber":1.0,"PostalCode":1.0},"MatchType":"interpolated","Location":{"LocationId":"NT_eYZrkR91lernrhmg4qltFD_zQD","LocationType":"point","DisplayPosition":{"Latitude":56.2373,"Longitude":12.85024},"MapView":{"TopLeft":{"Latitude":56.2384242,"Longitude":12.8482173},"BottomRight":{"Latitude":56.2361758,"Longitude":12.8522627}},"Address":{"Label":"Västersjögatan 34, SE-262 53 Ängelholm, Sverige","Country":"SWE","State":"Skåne län","County":"Ängelholm","City":"Ängelholm","Street":"Västersjögatan","HouseNumber":"34","PostalCode":"262 53","AdditionalData":[{"value":"Sverige","key":"CountryName"},{"value":"Skåne län","key":"StateName"},{"value":"Ängelholm","key":"CountyName"}]},"MapReference":{"ReferenceId":"29254596","Spot":0.11,"SideOfStreet":"left","CountryId":"20298368","StateId":"20299186","CountyId":"20299331","CityId":"20299335","AddressId":"217866228","RoadLinkId":"98727550"}}},{"Relevance":1.0,"Distance":34.8,"MatchLevel":"houseNumber","MatchQuality":{"Country":1.0,"State":1.0,"County":1.0,"City":1.0,"Street":[1.0],"HouseNumber":1.0,"PostalCode":1.0},"MatchType":"interpolated","Location":{"LocationId":"NT_s1WiHVvoleg6UbZwU6hybD_xkD","LocationType":"point","DisplayPosition":{"Latitude":56.23709,"Longitude":12.85011},"MapView":{"TopLeft":{"Latitude":56.2382142,"Longitude":12.8480873},"BottomRight":{"Latitude":56.2359658,"Longitude":12.8521327}},"Address":{"Label":"Sandåkragatan 19, SE-262 53 Ängelholm, Sverige","Country":"SWE","State":"Skåne län","County":"Ängelholm","City":"Ängelholm","Street":"Sandåkragatan","HouseNumber":"19","PostalCode":"262 53","AdditionalData":[{"value":"Sverige","key":"CountryName"},{"value":"Skåne län","key":"StateName"},{"value":"Ängelholm","key":"CountyName"}]},"MapReference":{"ReferenceId":"29254726","Spot":0.85,"SideOfStreet":"left","CountryId":"20298368","StateId":"20299186","CountyId":"20299331","CityId":"20299335","AddressId":"217866560","RoadLinkId":"98543801"}}},{"Relevance":1.0,"Distance":88.9,"MatchLevel":"houseNumber","MatchQuality":{"Country":1.0,"State":1.0,"County":1.0,"City":1.0,"Street":[1.0],"HouseNumber":1.0,"PostalCode":1.0},"MatchType":"interpolated","Location":{"LocationId":"NT_XVcESCww3n2qX5-k8uTklB_xgD","LocationType":"point","DisplayPosition":{"Latitude":56.23655,"Longitude":12.84898},"MapView":{"TopLeft":{"Latitude":56.2376742,"Longitude":12.8469573},"BottomRight":{"Latitude":56.2354258,"Longitude":12.8510027}},"Address":{"Label":"Fältgatan 18, SE-262 53 Ängelholm, Sverige","Country":"SWE","State":"Skåne län","County":"Ängelholm","City":"Ängelholm","Street":"Fältgatan","HouseNumber":"18","PostalCode":"262 53","AdditionalData":[{"value":"Sverige","key":"CountryName"},{"value":"Skåne län","key":"StateName"},{"value":"Ängelholm","key":"CountyName"}]},"MapReference":{"ReferenceId":"29254742","Spot":0.57,"SideOfStreet":"right","CountryId":"20298368","StateId":"20299186","CountyId":"20299331","CityId":"20299335","AddressId":"217866592","RoadLinkId":"98724677"}}},{"Relevance":1.0,"Distance":106.4,"MatchLevel":"houseNumber","MatchQuality":{"Country":1.0,"State":1.0,"County":1.0,"City":1.0,"Street":[1.0],"HouseNumber":1.0,"PostalCode":1.0},"MatchType":"interpolated","Location":{"LocationId":"NT_eYZrkR91lernrhmg4qltFD_yMD","LocationType":"point","DisplayPosition":{"Latitude":56.23683,"Longitude":12.84835},"MapView":{"TopLeft":{"Latitude":56.2379542,"Longitude":12.8463273},"BottomRight":{"Latitude":56.2357058,"Longitude":12.8503727}},"Address":{"Label":"Västersjögatan 23, SE-262 53 Ängelholm, Sverige","Country":"SWE","State":"Skåne län","County":"Ängelholm","City":"Ängelholm","Street":"Västersjögatan","HouseNumber":"23","PostalCode":"262 53","AdditionalData":[{"value":"Sverige","key":"CountryName"},{"value":"Skåne län","key":"StateName"},{"value":"Ängelholm","key":"CountyName"}]},"MapReference":{"ReferenceId":"29254748","Spot":0.88,"SideOfStreet":"right","CountryId":"20298368","StateId":"20299186","CountyId":"20299331","CityId":"20299335","AddressId":"217866602","RoadLinkId":"98493153"}}},{"Relevance":1.0,"Distance":120.1,"MatchLevel":"houseNumber","MatchQuality":{"Country":1.0,"State":1.0,"County":1.0,"City":1.0,"Street":[1.0],"HouseNumber":1.0,"PostalCode":1.0},"MatchType":"interpolated","Location":{"LocationId":"NT_jVfXsmARY4Tep8JUwk6bGC_xQD","LocationType":"point","DisplayPosition":{"Latitude":56.23615,"Longitude":12.84984},"MapView":{"TopLeft":{"Latitude":56.2372742,"Longitude":12.8478173},"BottomRight":{"Latitude":56.2350258,"Longitude":12.8518627}},"Address":{"Label":"Fridhemsgatan 14, SE-262 53 Ängelholm, Sverige","Country":"SWE","State":"Skåne län","County":"Ängelholm","City":"Ängelholm","Street":"Fridhemsgatan","HouseNumber":"14","PostalCode":"262 53","AdditionalData":[{"value":"Sverige","key":"CountryName"},{"value":"Skåne län","key":"StateName"},{"value":"Ängelholm","key":"CountyName"}]},"MapReference":{"ReferenceId":"29254741","Spot":0.27,"SideOfStreet":"left","CountryId":"20298368","StateId":"20299186","CountyId":"20299331","CityId":"20299335","AddressId":"217866582","RoadLinkId":"99069581"}}},{"Relevance":1.0,"Distance":128.7,"MatchLevel":"houseNumber","MatchQuality":{"Country":1.0,"State":1.0,"County":1.0,"City":1.0,"Street":[1.0],"HouseNumber":1.0,"PostalCode":1.0},"MatchType":"interpolated","Location":{"LocationId":"NT_jVfXsmARY4Tep8JUwk6bGC_xAD","LocationType":"point","DisplayPosition":{"Latitude":56.23638,"Longitude":12.85127},"MapView":{"TopLeft":{"Latitude":56.2375042,"Longitude":12.8492473},"BottomRight":{"Latitude":56.2352558,"Longitude":12.8532927}},"Address":{"Label":"Fridhemsgatan 10, SE-262 53 Ängelholm, Sverige","Country":"SWE","State":"Skåne län","County":"Ängelholm","City":"Ängelholm","Street":"Fridhemsgatan","HouseNumber":"10","PostalCode":"262 53","AdditionalData":[{"value":"Sverige","key":"CountryName"},{"value":"Skåne län","key":"StateName"},{"value":"Ängelholm","key":"CountyName"}]},"MapReference":{"ReferenceId":"29254725","Spot":0.16,"SideOfStreet":"left","CountryId":"20298368","StateId":"20299186","CountyId":"20299331","CityId":"20299335","AddressId":"217866661","RoadLinkId":"99006507"}}}]}]}}