{"Response":{"MetaInfo":{"Timestamp":"2020-03-28T10:34:17.078+0000","NextPageInformation":"2"},"View":[{"_type":"SearchResultsViewType","ViewId":0,"Result":[{"Relevance":1.0,"Distance":-157.3,"MatchLevel":"landmark","MatchQuality":{"Country":1.0,"State":1.0,"County":1.0,"City":1.0,"PostalCode":1.0,"Name":1.0},"Location":{"LocationId":"NT_67.gLz8yGfg5f1Nbl-gRaB","LocationType":"island","Name":"Seil","DisplayPosition":{"Latitude":56.29639,"Longitude":-5.63094},"MapView":{"TopLeft":{"Latitude":56.32718,"Longitude":-5.65489},"BottomRight":{"Latitude":56.2656,"Longitude":-5.58091}},"Address":{"Label":"Oban, PA34 4, United Kingdom","Country":"GBR","State":"Scotland","County":"Argyll","City":"Oban","PostalCode":"PA34 4","AdditionalData":[{"value":"United Kingdom","key":"CountryName"},{"value":"Scotland","key":"StateName"},{"value":"Argyll","key":"CountyName"}]},"MapReference":{"StateId":"20252820","CountyId":"20291803","CityId":"20291873","PlaceId":"19006193"}}},{"Relevance":1.0,"Distance":0.0,"Direction":0.0,"MatchLevel":"district","MatchQuality":{"Country":1.0,"State":1.0,"County":1.0,"City":1.0,"District":1.0,"PostalCode":1.0},"Location":{"LocationId":"NT_MmRUyJceH71RiI2eeGD7YB","LocationType":"point","DisplayPosition":{"Latitude":56.3013884,"Longitude":-5.5975783},"MapView":{"TopLeft":{"Latitude":56.30235,"Longitude":-5.62509},"BottomRight":{"Latitude":56.28248,"Longitude":-5.59599}},"Address":{"Label":"Balvicar, Oban, Scotland, United Kingdom","Country":"GBR","State":"Scotland","County":"Argyll","City":"Oban","District":"Balvicar","PostalCode":"PA34 4","AdditionalData":[{"value":"United Kingdom","key":"CountryName"},{"value":"Scotland","key":"StateName"},{"value":"Argyll","key":"CountyName"}]},"MapReference":{"ReferenceId":"791250779","SideOfStreet":"neither","StateId":"20252820","CountyId":"20291803","CityId":"20291873","DistrictId":"20291876"}}},{"Relevance":1.0,"Distance":31.5,"MatchLevel":"street","MatchQuality":{"Country":1.0,"State":1.0,"County":1.0,"City":1.0,"District":1.0,"Street":[1.0],"PostalCode":1.0},"Location":{"LocationId":"NT_oLruZXGVY7aOvyQijTU3xB_l_791250766_R","LocationType":"point","DisplayPosition":{"Latitude":56.3016651,"Longitude":-5.5976847},"MapView":{"TopLeft":{"Latitude":56.30235,"Longitude":-5.60721},"BottomRight":{"Latitude":56.29854,"Longitude":-5.59599}},"Address":{"Label":"B844, Oban, PA34 4, United Kingdom","Country":"GBR","State":"Scotland","County":"Argyll","City":"Oban","District":"Balvicar","Street":"B844","PostalCode":"PA34 4","AdditionalData":[{"value":"United Kingdom","key":"CountryName"},{"value":"Scotland","key":"StateName"},{"value":"Argyll","key":"CountyName"}]},"MapReference":{"ReferenceId":"791250766","Spot":0.85,"SideOfStreet":"right","StateId":"20252820","CountyId":"20291803","CityId":"20291873","DistrictId":"20291876"}}},{"Relevance":1.0,"Distance":145.0,"MatchLevel":"street","MatchQuality":{"Country":1.0,"State":1.0,"County":1.0,"City":1.0,"District":1.0,"Street":[1.0],"PostalCode":1.0},"Location":{"LocationId":"NT_xBaYHZiDaLySe1XwrrzctD_l_791250730_R","LocationType":"point","DisplayPosition":{"Latitude":56.30235,"Longitude":-5.59599},"MapView":{"TopLeft":{"Latitude":56.3025,"Longitude":-5.59599},"BottomRight":{"Latitude":56.30235,"Longitude":-5.59563}},"Address":{"Label":"B844, Oban, PA34 4, United Kingdom","Country":"GBR","State":"Scotland","County":"Argyll","City":"Oban","District":"Clachan Seil","Street":"B844","PostalCode":"PA34 4","AdditionalData":[{"value":"United Kingdom","key":"CountryName"},{"value":"Scotland","key":"StateName"},{"value":"Argyll","key":"CountyName"}]},"MapReference":{"ReferenceId":"791250730","Spot":0.0,"SideOfStreet":"right","StateId":"20252820","CountyId":"20291803","CityId":"20291873","DistrictId":"20291878"}}},{"Relevance":1.0,"Distance":145.0,"MatchLevel":"street","MatchQuality":{"Country":1.0,"State":1.0,"County":1.0,"City":1.0,"District":1.0,"PostalCode":1.0},"Location":{"LocationId":"NT_ckqmfvwq9lDHb0b1G8KjnD_l_19208085_L","LocationType":"point","DisplayPosition":{"Latitude":56.30235,"Longitude":-5.59599},"MapView":{"TopLeft":{"Latitude":56.30235,"Longitude":-5.59599},"BottomRight":{"Latitude":56.30154,"Longitude":-5.59403}},"Address":{"Label":"Oban, PA34 4, United Kingdom","Country":"GBR","State":"Scotland","County":"Argyll","City":"Oban","District":"Clachan Seil","PostalCode":"PA34 4","AdditionalData":[{"value":"United Kingdom","key":"CountryName"},{"value":"Scotland","key":"StateName"},{"value":"Argyll","key":"CountyName"}]},"MapReference":{"ReferenceId":"19208085","Spot":1.0,"SideOfStreet":"left","StateId":"20252820","CountyId":"20291803","CityId":"20291873","DistrictId":"20291878"}}},{"Relevance":1.0,"Distance":172.4,"MatchLevel":"street","MatchQuality":{"Country":1.0,"State":1.0,"County":1.0,"City":1.0,"District":1.0,"Street":[1.0],"PostalCode":1.0},"Location":{"LocationId":"NT_xBaYHZiDaLySe1XwrrzctD_l_791250731_R","LocationType":"point","DisplayPosition":{"Latitude":56.3025,"Longitude":-5.59563},"MapView":{"TopLeft":{"Latitude":56.30285,"Longitude":-5.59563},"BottomRight":{"Latitude":56.3025,"Longitude":-5.59477}},"Address":{"Label":"B844, Oban, PA34 4, United Kingdom","Country":"GBR","State":"Scotland","County":"Argyll","City":"Oban","District":"Clachan Seil","Street":"B844","PostalCode":"PA34 4","AdditionalData":[{"value":"United Kingdom","key":"CountryName"},{"value":"Scotland","key":"StateName"},{"value":"Argyll","key":"CountyName"}]},"MapReference":{"ReferenceId":"791250731","Spot":0.0,"SideOfStreet":"right","StateId":"20252820","CountyId":"20291803","CityId":"20291873","DistrictId":"20291878"}}},{"Relevance":1.0,"Distance":218.1,"MatchLevel":"street","MatchQuality":{"Country":1.0,"State":1.0,"County":1.0,"City":1.0,"District":1.0,"PostalCode":1.0},"Location":{"LocationId":"NT_ckqmfvwq9lDHb0b1G8KjnD_l_19208107_L","LocationType":"point","DisplayPosition":{"Latitude":56.30126,"Longitude":-5.59405},"MapView":{"TopLeft":{"Latitude":56.30154,"Longitude":-5.59405},"BottomRight":{"Latitude":56.30126,"Longitude":-5.59402}},"Address":{"Label":"Oban, PA34 4, United Kingdom","Country":"GBR","State":"Scotland","County":"Argyll","City":"Oban","District":"Clachan Seil","PostalCode":"PA34 4","AdditionalData":[{"value":"United Kingdom","key":"CountryName"},{"value":"Scotland","key":"StateName"},{"value":"Argyll","key":"CountyName"}]},"MapReference":{"ReferenceId":"19208107","Spot":0.0,"SideOfStreet":"left","StateId":"20252820","CountyId":"20291803","CityId":"20291873","DistrictId":"20291878"}}},{"Relevance":1.0,"Distance":219.6,"MatchLevel":"street","MatchQuality":{"Country":1.0,"State":1.0,"County":1.0,"City":1.0,"District":1.0,"PostalCode":1.0},"Location":{"LocationId":"NT_ckqmfvwq9lDHb0b1G8KjnD_l_19208093_R","LocationType":"point","DisplayPosition":{"Latitude":56.30154,"Longitude":-5.59403},"MapView":{"TopLeft":{"Latitude":56.30163,"Longitude":-5.59403},"BottomRight":{"Latitude":56.30143,"Longitude":-5.59268}},"Address":{"Label":"Oban, PA34 4, United Kingdom","Country":"GBR","State":"Scotland","County":"Argyll","City":"Oban","District":"Clachan Seil","PostalCode":"PA34 4","AdditionalData":[{"value":"United Kingdom","key":"CountryName"},{"value":"Scotland","key":"StateName"},{"value":"Argyll","key":"CountyName"}]},"MapReference":{"ReferenceId":"19208093","Spot":1.0,"SideOfStreet":"right","StateId":"20252820","CountyId":"20291803","CityId":"20291873","DistrictId":"20291878"}}},{"Relevance":1.0,"Distance":237.5,"MatchLevel":"street","MatchQuality":{"Country":1.0,"State":1.0,"County":1.0,"City":1.0,"District":1.0,"Street":[1.0],"PostalCode":1.0},"Location":{"LocationId":"NT_xBaYHZiDaLySe1XwrrzctD_l_791250764_R","LocationType":"point","DisplayPosition":{"Latitude":56.30285,"Longitude":-5.59477},"MapView":{"TopLeft":{"Latitude":56.30468,"Longitude":-5.59477},"BottomRight":{"Latitude":56.30285,"Longitude":-5.59256}},"Address":{"Label":"B844, Oban, PA34 4, United Kingdom","Country":"GBR","State":"Scotland","County":"Argyll","City":"Oban","District":"Clachan Seil","Street":"B844","PostalCode":"PA34 4","AdditionalData":[{"value":"United Kingdom","key":"CountryName"},{"value":"Scotland","key":"StateName"},{"value":"Argyll","key":"CountyName"}]},"MapReference":{"ReferenceId":"791250764","Spot":0.0,"SideOfStreet":"right","StateId":"20252820","CountyId":"20291803","CityId":"20291873","DistrictId":"20291878"}}},{"Relevance":1.0,"Distance":295.0,"MatchLevel":"street","MatchQuality":{"Country":1.0,"State":1.0,"County":1.0,"City":1.0,"District":1.0,"PostalCode":1.0},"Location":{"LocationId":"NT_ckqmfvwq9lDHb0b1G8KjnD_l_786817754_L","LocationType":"point","DisplayPosition":{"Latitude":56.3039973,"Longitude":-5.598448},"MapView":{"TopLeft":{"Latitude":56.31059,"Longitude":-5.61656},"BottomRight":{"Latitude":56.30271,"Longitude":-5.59477}},"Address":{"Label":"Oban, PA34 4, United Kingdom","Country":"GBR","State":"Scotland","County":"Argyll","City":"Oban","District":"Clachan Seil","PostalCode":"PA34 4","AdditionalData":[{"value":"United Kingdom","key":"CountryName"},{"value":"Scotland","key":"StateName"},{"value":"Argyll","key":"CountyName"}]},"MapReference":{"ReferenceId":"786817754","Spot":0.16,"SideOfStreet":"left","StateId":"20252820","CountyId":"20291803","CityId":"20291873","DistrictId":"20291878"}}}]}]}}