{"Response":{"MetaInfo":{"Timestamp":"2020-03-28T10:33:41.131+0000","NextPageInformation":"2"},"View":[{"_type":"SearchResultsViewType","ViewId":0,"Result":[{"Relevance":1.0,"Distance":-2.2,"MatchLevel":"landmark","MatchQuality":{"Country":1.0,"State":1.0,"County":1.0,"City":1.0,"District":1.0,"Street":[1.0],"PostalCode":1.0,"Name":1.0},"Location":{"LocationId":"NT_elc1aD9us9uegN1V9qwiLC_p_muB5dQGg8XbVtBta7Hv4hA","LocationType":"park","Name":"Market Park","DisplayPosition":{"Latitude":56.36839,"Longitude":-3.84579},"MapView":{"TopLeft":{"Latitude":56.37023,"Longitude":-3.84716},"BottomRight":{"Latitude":56.36781,"Longitude":-3.84286}},"Address":{"Label":"Broich Road, Crieff, PH7 3, United Kingdom","Country":"GBR","State":"Scotland","County":"Perthshire","City":"Crieff","District":"Crieff","Street":"Broich Road","PostalCode":"PH7 3","AdditionalData":[{"value":"United Kingdom","key":"CountryName"},{"value":"Scotland","key":"StateName"},{"value":"Perthshire","key":"CountyName"}]},"MapReference":{"StateId":"20252820","CountyId":"20292490","CityId":"20292502","DistrictId":"20292503","PlaceId":"1148416684"}}},{"Relevance":1.0,"Distance":0.0,"Direction":0.0,"MatchLevel":"district","MatchQuality":{"Country":1.0,"State":1.0,"County":1.0,"City":1.0,"District":1.0,"PostalCode":1.0},"Location":{"LocationId":"NT_iWTurX8BjYb4lX.3Y7NIzA","LocationType":"point","DisplayPosition":{"Latitude":56.3700104,"Longitude":-3.8449179},"MapView":{"TopLeft":{"Latitude":56.38396,"Longitude":-3.86166},"BottomRight":{"Latitude":56.36439,"Longitude":-3.81997}},"Address":{"Label":"Crieff, Scotland, United Kingdom","Country":"GBR","State":"Scotland","County":"Perthshire","City":"Crieff","District":"Crieff","PostalCode":"PH7 3","AdditionalData":[{"value":"United Kingdom","key":"CountryName"},{"value":"Scotland","key":"StateName"},{"value":"Perthshire","key":"CountyName"}]},"MapReference":{"ReferenceId":"1257131110","SideOfStreet":"neither","StateId":"20252820","CountyId":"20292490","CityId":"20292502","DistrictId":"20292503"}}},{"Relevance":1.0,"Distance":38.0,"MatchLevel":"houseNumber","MatchQuality":{"Country":1.0,"State":1.0,"County":1.0,"City":1.0,"District":1.0,"Street":[1.0],"HouseNumber":1.0,"PostalCode":1.0},"MatchType":"interpolated","Location":{"LocationId":"NT_pPVmm.53qoRLTThc1lA47D_l_844049451_L_xETN","LocationType":"point","DisplayPosition":{"Latitude":56.3703201,"Longitude":-3.8451798},"MapView":{"TopLeft":{"Latitude":56.3714443,"Longitude":-3.8472096},"BottomRight":{"Latitude":56.3691959,"Longitude":-3.84315}},"Address":{"Label":"115 King Street, Crieff, PH7 3HD, United Kingdom","Country":"GBR","State":"Scotland","County":"Perthshire","City":"Crieff","District":"Crieff","Street":"King Street","HouseNumber":"115","PostalCode":"PH7 3HD","AdditionalData":[{"value":"United Kingdom","key":"CountryName"},{"value":"Scotland","key":"StateName"},{"value":"Perthshire","key":"CountyName"}]},"MapReference":{"ReferenceId":"844049451","Spot":0.14,"SideOfStreet":"left","StateId":"20252820","CountyId":"20292490","CityId":"20292502","DistrictId":"20292503"}}},{"Relevance":1.0,"Distance":42.6,"MatchLevel":"houseNumber","MatchQuality":{"Country":1.0,"State":1.0,"County":1.0,"City":1.0,"District":1.0,"Street":[1.0],"HouseNumber":1.0,"PostalCode":1.0},"MatchType":"interpolated","Location":{"LocationId":"NT_pPVmm.53qoRLTThc1lA47D_l_19206963_L_xETO","LocationType":"point","DisplayPosition":{"Latitude":56.3700766,"Longitude":-3.845599},"MapView":{"TopLeft":{"Latitude":56.3712007,"Longitude":-3.8476288},"BottomRight":{"Latitude":56.3689524,"Longitude":-3.8435693}},"Address":{"Label":"119 King Street, Crieff, PH7 3HE, United Kingdom","Country":"GBR","State":"Scotland","County":"Perthshire","City":"Crieff","District":"Crieff","Street":"King Street","HouseNumber":"119","PostalCode":"PH7 3HE","AdditionalData":[{"value":"United Kingdom","key":"CountryName"},{"value":"Scotland","key":"StateName"},{"value":"Perthshire","key":"CountyName"}]},"MapReference":{"ReferenceId":"19206963","Spot":0.86,"SideOfStreet":"left","StateId":"20252820","CountyId":"20292490","CityId":"20292502","DistrictId":"20292503"}}},{"Relevance":1.0,"Distance":50.6,"MatchLevel":"houseNumber","MatchQuality":{"Country":1.0,"State":1.0,"County":1.0,"City":1.0,"District":1.0,"Street":[1.0],"HouseNumber":1.0,"PostalCode":1.0},"MatchType":"interpolated","Location":{"LocationId":"NT_Vbd2WbCZVMWDtvmb8yIxXD_l_19206870_R_yA","LocationType":"point","DisplayPosition":{"Latitude":56.37032,"Longitude":-3.84552},"MapView":{"TopLeft":{"Latitude":56.3714442,"Longitude":-3.8475498},"BottomRight":{"Latitude":56.3691959,"Longitude":-3.8434902}},"Address":{"Label":"2 Roy Street, Crieff, PH7 4DF, United Kingdom","Country":"GBR","State":"Scotland","County":"Perthshire","City":"Crieff","District":"Crieff","Street":"Roy Street","HouseNumber":"2","PostalCode":"PH7 4DF","AdditionalData":[{"value":"United Kingdom","key":"CountryName"},{"value":"Scotland","key":"StateName"},{"value":"Perthshire","key":"CountyName"}]},"MapReference":{"ReferenceId":"19206870","Spot":0.17,"SideOfStreet":"right","StateId":"20252820","CountyId":"20292490","CityId":"20292502","DistrictId":"20292503"}}},{"Relevance":1.0,"Distance":69.4,"MatchLevel":"postalCode","MatchQuality":{"PostalCode":1.0},"MatchType":"interpolated","Location":{"LocationId":"NT_pPVmm.53qoRLTThc1lA47D_l_19206963_L_xETO","LocationType":"point","DisplayPosition":{"Latitude":56.36988,"Longitude":-3.84602},"MapView":{"TopLeft":{"Latitude":56.3788732,"Longitude":-3.8622582},"BottomRight":{"Latitude":56.3608868,"Longitude":-3.8297818}},"Address":{"Label":"PH7 3HE, Crieff, Scotland, United Kingdom","Country":"GBR","State":"Scotland","County":"Perthshire","City":"Crieff","PostalCode":"PH7 3HE","AdditionalData":[{"value":"United Kingdom","key":"CountryName"},{"value":"Scotland","key":"StateName"},{"value":"Perthshire","key":"CountyName"}]},"MapReference":{"ReferenceId":"19206963","Spot":0.86,"SideOfStreet":"neither","StateId":"20252820","CountyId":"20292490","CityId":"20292502"}}},{"Relevance":1.0,"Distance":69.4,"MatchLevel":"postalCode","MatchQuality":{"PostalCode":1.0},"MatchType":"interpolated","Location":{"LocationId":"NT_pPVmm.53qoRLTThc1lA47D_l_844049451_L_xETN","LocationType":"point","DisplayPosition":{"Latitude":56.37063,"Longitude":-3.84478},"MapView":{"TopLeft":{"Latitude":56.3796232,"Longitude":-3.8610186},"BottomRight":{"Latitude":56.3616368,"Longitude":-3.8285414}},"Address":{"Label":"PH7 3HD, Crieff, Scotland, United Kingdom","Country":"GBR","State":"Scotland","County":"Perthshire","City":"Crieff","PostalCode":"PH7 3HD","AdditionalData":[{"value":"United Kingdom","key":"CountryName"},{"value":"Scotland","key":"StateName"},{"value":"Perthshire","key":"CountyName"}]},"MapReference":{"ReferenceId":"844049451","Spot":0.14,"SideOfStreet":"neither","StateId":"20252820","CountyId":"20292490","CityId":"20292502"}}},{"Relevance":1.0,"Distance":90.4,"MatchLevel":"street","MatchQuality":{"Country":1.0,"State":1.0,"County":1.0,"City":1.0,"District":1.0,"Street":[1.0],"PostalCode":1.0},"Location":{"LocationId":"NT_FzfKeKhMQ0mWxWUaU95QcA_l_565858875_L","LocationType":"point","DisplayPosition":{"Latitude":56.36951,"Longitude":-3.84376},"MapView":{"TopLeft":{"Latitude":56.36951,"Longitude":-3.84376},"BottomRight":{"Latitude":56.36899,"Longitude":-3.84286}},"Address":{"Label":"Crioch Place, Crieff, PH7 3, United Kingdom","Country":"GBR","State":"Scotland","County":"Perthshire","City":"Crieff","District":"Crieff","Street":"Crioch Place","PostalCode":"PH7 3","AdditionalData":[{"value":"United Kingdom","key":"CountryName"},{"value":"Scotland","key":"StateName"},{"value":"Perthshire","key":"CountyName"}]},"MapReference":{"ReferenceId":"565858875","Spot":1.0,"SideOfStreet":"left","StateId":"20252820","CountyId":"20292490","CityId":"20292502","DistrictId":"20292503"}}},{"Relevance":1.0,"Distance":90.9,"MatchLevel":"street","MatchQuality":{"Country":1.0,"State":1.0,"County":1.0,"City":1.0,"District":1.0,"PostalCode":1.0},"Location":{"LocationId":"NT_3Tzyx83Z8MhZBfXNyWhg-D_l_1064507746_R","LocationType":"point","DisplayPosition":{"Latitude":56.3704,"Longitude":-3.84362},"MapView":{"TopLeft":{"Latitude":56.37054,"Longitude":-3.84362},"BottomRight":{"Latitude":56.3704,"Longitude":-3.84311}},"Address":{"Label":"Crieff, PH7 3, United Kingdom","Country":"GBR","State":"Scotland","County":"Perthshire","City":"Crieff","District":"Crieff","PostalCode":"PH7 3","AdditionalData":[{"value":"United Kingdom","key":"CountryName"},{"value":"Scotland","key":"StateName"},{"value":"Perthshire","key":"CountyName"}]},"MapReference":{"ReferenceId":"1064507746","Spot":0.0,"SideOfStreet":"right","StateId":"20252820","CountyId":"20292490","CityId":"20292502","DistrictId":"20292503"}}},{"Relevance":1.0,"Distance":90.9,"MatchLevel":"street","MatchQuality":{"Country":1.0,"State":1.0,"County":1.0,"City":1.0,"District":1.0,"PostalCode":1.0},"Location":{"LocationId":"NT_3Tzyx83Z8MhZBfXNyWhg-D_l_1064507748_L","LocationType":"point","DisplayPosition":{"Latitude":56.3704,"Longitude":-3.84362},"MapView":{"TopLeft":{"Latitude":56.3704,"Longitude":-3.84362},"BottomRight":{"Latitude":56.37002,"Longitude":-3.84329}},"Address":{"Label":"Crieff, PH7 3, United Kingdom","Country":"GBR","State":"Scotland","County":"Perthshire","City":"Crieff","District":"Crieff","PostalCode":"PH7 3","AdditionalData":[{"value":"United Kingdom","key":"CountryName"},{"value":"Scotland","key":"StateName"},{"value":"Perthshire","key":"CountyName"}]},"MapReference":{"ReferenceId":"1064507748","Spot":1.0,"SideOfStreet":"left","StateId":"20252820","CountyId":"20292490","CityId":"20292502","DistrictId":"20292503"}}}]}]}}