{"Response":{"MetaInfo":{"Timestamp":"2020-03-28T10:26:02.365+0000","NextPageInformation":"2"},"View":[{"_type":"SearchResultsViewType","ViewId":0,"Result":[{"Relevance":1.0,"Distance":0.0,"Direction":0.0,"MatchLevel":"city","MatchQuality":{"Country":1.0,"State":1.0,"County":1.0,"City":1.0,"PostalCode":1.0},"Location":{"LocationId":"NT_om1c16e6.MYJyC648mSoUC","LocationType":"point","DisplayPosition":{"Latitude":56.3803828,"Longitude":10.5017137},"MapView":{"TopLeft":{"Latitude":56.39341,"Longitude":10.47281},"BottomRight":{"Latitude":56.37776,"Longitude":10.51761}},"Address":{"Label":"Ryomgård, Midtjylland, Danmark","Country":"DNK","State":"Midtjylland","County":"Syddjurs","City":"Ryomgård","PostalCode":"8550","AdditionalData":[{"value":"Danmark","key":"CountryName"},{"value":"Midtjylland","key":"StateName"},{"value":"Syddjurs","key":"CountyName"}]},"MapReference":{"ReferenceId":"34583556","SideOfStreet":"neither","CountryId":"20298369","StateId":"20367479","CountyId":"20367609","CityId":"20367613"}}},{"Relevance":1.0,"Distance":11.4,"MatchLevel":"houseNumber","MatchQuality":{"Country":1.0,"State":1.0,"County":1.0,"City":1.0,"Street":[1.0],"HouseNumber":1.0,"PostalCode":1.0},"MatchType":"interpolated","Location":{"LocationId":"NT_uI2VjIPuLB7RL.E9kGgZUD_xMjQ","LocationType":"point","DisplayPosition":{"Latitude":56.38017,"Longitude":10.50145},"MapView":{"TopLeft":{"Latitude":56.3812942,"Longitude":10.4994197},"BottomRight":{"Latitude":56.3790458,"Longitude":10.5034803}},"Address":{"Label":"Jernbanegade 13B, 8550 Ryomgård, Danmark","Country":"DNK","State":"Midtjylland","County":"Syddjurs","City":"Ryomgård","Street":"Jernbanegade","HouseNumber":"13B","PostalCode":"8550","AdditionalData":[{"value":"Danmark","key":"CountryName"},{"value":"Midtjylland","key":"StateName"},{"value":"Syddjurs","key":"CountyName"}]},"MapReference":{"ReferenceId":"34369317","Spot":0.35,"SideOfStreet":"right","CountryId":"20298369","StateId":"20367479","CountyId":"20367609","CityId":"20367613","AddressId":"200064182","RoadLinkId":"100085848"}}},{"Relevance":1.0,"Distance":27.5,"MatchLevel":"houseNumber","MatchQuality":{"Country":1.0,"State":1.0,"County":1.0,"City":1.0,"Street":[1.0],"HouseNumber":1.0,"PostalCode":1.0},"MatchType":"interpolated","Location":{"LocationId":"NT_hg1MBrYra0dzbCtghdNrmD_xEE","LocationType":"point","DisplayPosition":{"Latitude":56.38076,"Longitude":10.50178},"MapView":{"TopLeft":{"Latitude":56.3818842,"Longitude":10.4997496},"BottomRight":{"Latitude":56.3796358,"Longitude":10.5038104}},"Address":{"Label":"Nygade 1A, 8550 Ryomgård, Danmark","Country":"DNK","State":"Midtjylland","County":"Syddjurs","City":"Ryomgård","Street":"Nygade","HouseNumber":"1A","PostalCode":"8550","AdditionalData":[{"value":"Danmark","key":"CountryName"},{"value":"Midtjylland","key":"StateName"},{"value":"Syddjurs","key":"CountyName"}]},"MapReference":{"ReferenceId":"34369270","Spot":0.3,"SideOfStreet":"left","CountryId":"20298369","StateId":"20367479","CountyId":"20367609","CityId":"20367613","AddressId":"199835954","RoadLinkId":"100104228"}}},{"Relevance":1.0,"Distance":45.3,"MatchLevel":"houseNumber","MatchQuality":{"Country":1.0,"State":1.0,"County":1.0,"City":1.0,"Street":[1.0],"HouseNumber":1.0,"PostalCode":1.0},"MatchType":"interpolated","Location":{"LocationId":"NT_EPKKEiu2ag-VSpPs53DP3B_yA","LocationType":"point","DisplayPosition":{"Latitude":56.38045,"Longitude":10.50244},"MapView":{"TopLeft":{"Latitude":56.3815742,"Longitude":10.5004097},"BottomRight":{"Latitude":56.3793258,"Longitude":10.5044703}},"Address":{"Label":"Markedsgade 2, 8550 Ryomgård, Danmark","Country":"DNK","State":"Midtjylland","County":"Syddjurs","City":"Ryomgård","Street":"Markedsgade","HouseNumber":"2","PostalCode":"8550","AdditionalData":[{"value":"Danmark","key":"CountryName"},{"value":"Midtjylland","key":"StateName"},{"value":"Syddjurs","key":"CountyName"}]},"MapReference":{"ReferenceId":"34369316","Spot":0.86,"SideOfStreet":"right","CountryId":"20298369","StateId":"20367479","CountyId":"20367609","CityId":"20367613","AddressId":"198938712","RoadLinkId":"100330197"}}},{"Relevance":1.0,"Distance":48.7,"MatchLevel":"street","MatchQuality":{"Country":1.0,"State":1.0,"County":1.0,"City":1.0,"Street":[1.0],"PostalCode":1.0},"Location":{"LocationId":"NT_EPKKEiu2ag-VSpPs53DP3B_l_34369286_L","LocationType":"point","DisplayPosition":{"Latitude":56.38051,"Longitude":10.50247},"MapView":{"TopLeft":{"Latitude":56.38066,"Longitude":10.50247},"BottomRight":{"Latitude":56.38051,"Longitude":10.50253}},"Address":{"Label":"Markedsgade, 8550 Ryomgård, Danmark","Country":"DNK","State":"Midtjylland","County":"Syddjurs","City":"Ryomgård","Street":"Markedsgade","PostalCode":"8550","AdditionalData":[{"value":"Danmark","key":"CountryName"},{"value":"Midtjylland","key":"StateName"},{"value":"Syddjurs","key":"CountyName"}]},"MapReference":{"ReferenceId":"34369286","Spot":0.0,"SideOfStreet":"left","CountryId":"20298369","StateId":"20367479","CountyId":"20367609","CityId":"20367613"}}},{"Relevance":1.0,"Distance":59.0,"MatchLevel":"street","MatchQuality":{"Country":1.0,"State":1.0,"County":1.0,"City":1.0,"Street":[1.0],"PostalCode":1.0},"Location":{"LocationId":"NT_EPKKEiu2ag-VSpPs53DP3B_l_34369269_L","LocationType":"point","DisplayPosition":{"Latitude":56.38066,"Longitude":10.50253},"MapView":{"TopLeft":{"Latitude":56.38075,"Longitude":10.50253},"BottomRight":{"Latitude":56.38066,"Longitude":10.50256}},"Address":{"Label":"Markedsgade, 8550 Ryomgård, Danmark","Country":"DNK","State":"Midtjylland","County":"Syddjurs","City":"Ryomgård","Street":"Markedsgade","PostalCode":"8550","AdditionalData":[{"value":"Danmark","key":"CountryName"},{"value":"Midtjylland","key":"StateName"},{"value":"Syddjurs","key":"CountyName"}]},"MapReference":{"ReferenceId":"34369269","Spot":0.0,"SideOfStreet":"left","CountryId":"20298369","StateId":"20367479","CountyId":"20367609","CityId":"20367613"}}},{"Relevance":1.0,"Distance":59.0,"MatchLevel":"houseNumber","MatchQuality":{"Country":1.0,"State":1.0,"County":1.0,"City":1.0,"Street":[1.0],"HouseNumber":1.0,"PostalCode":1.0},"MatchType":"interpolated","Location":{"LocationId":"NT_uI2VjIPuLB7RL.E9kGgZUD_xcD","LocationType":"point","DisplayPosition":{"Latitude":56.38005,"Longitude":10.50246},"MapView":{"TopLeft":{"Latitude":56.3811742,"Longitude":10.5004297},"BottomRight":{"Latitude":56.3789258,"Longitude":10.5044903}},"Address":{"Label":"Jernbanegade 17, 8550 Ryomgård, Danmark","Country":"DNK","State":"Midtjylland","County":"Syddjurs","City":"Ryomgård","Street":"Jernbanegade","HouseNumber":"17","PostalCode":"8550","AdditionalData":[{"value":"Danmark","key":"CountryName"},{"value":"Midtjylland","key":"StateName"},{"value":"Syddjurs","key":"CountyName"}]},"MapReference":{"ReferenceId":"34369324","Spot":0.85,"SideOfStreet":"right","CountryId":"20298369","StateId":"20367479","CountyId":"20367609","CityId":"20367613","AddressId":"200935773","RoadLinkId":"100175731"}}},{"Relevance":1.0,"Distance":65.2,"MatchLevel":"houseNumber","MatchQuality":{"Country":1.0,"State":1.0,"County":1.0,"City":1.0,"Street":[1.0],"HouseNumber":1.0,"PostalCode":1.0},"MatchType":"interpolated","Location":{"LocationId":"NT_EPKKEiu2ag-VSpPs53DP3B_zA","LocationType":"point","DisplayPosition":{"Latitude":56.38079,"Longitude":10.50258},"MapView":{"TopLeft":{"Latitude":56.3819142,"Longitude":10.5005496},"BottomRight":{"Latitude":56.3796658,"Longitude":10.5046104}},"Address":{"Label":"Markedsgade 3, 8550 Ryomgård, Danmark","Country":"DNK","State":"Midtjylland","County":"Syddjurs","City":"Ryomgård","Street":"Markedsgade","HouseNumber":"3","PostalCode":"8550","AdditionalData":[{"value":"Danmark","key":"CountryName"},{"value":"Midtjylland","key":"StateName"},{"value":"Syddjurs","key":"CountyName"}]},"MapReference":{"ReferenceId":"34369260","Spot":0.12,"SideOfStreet":"left","CountryId":"20298369","StateId":"20367479","CountyId":"20367609","CityId":"20367613","AddressId":"199574419","RoadLinkId":"100048857"}}},{"Relevance":1.0,"Distance":69.0,"MatchLevel":"houseNumber","MatchQuality":{"Country":1.0,"State":1.0,"County":1.0,"City":1.0,"Street":[1.0],"HouseNumber":1.0,"PostalCode":1.0},"MatchType":"interpolated","Location":{"LocationId":"NT_EPKKEiu2ag-VSpPs53DP3B_0A","LocationType":"point","DisplayPosition":{"Latitude":56.38071,"Longitude":10.50278},"MapView":{"TopLeft":{"Latitude":56.3818342,"Longitude":10.5007496},"BottomRight":{"Latitude":56.3795858,"Longitude":10.5048104}},"Address":{"Label":"Markedsgade 4, 8550 Ryomgård, Danmark","Country":"DNK","State":"Midtjylland","County":"Syddjurs","City":"Ryomgård","Street":"Markedsgade","HouseNumber":"4","PostalCode":"8550","AdditionalData":[{"value":"Danmark","key":"CountryName"},{"value":"Midtjylland","key":"StateName"},{"value":"Syddjurs","key":"CountyName"}]},"MapReference":{"ReferenceId":"573809000","Spot":0.83,"SideOfStreet":"left","CountryId":"20298369","StateId":"20367479","CountyId":"20367609","CityId":"20367613","AddressId":"199035651","RoadLinkId":"99893424"}}},{"Relevance":1.0,"Distance":72.0,"MatchLevel":"houseNumber","MatchQuality":{"Country":1.0,"State":1.0,"County":1.0,"City":1.0,"Street":[1.0],"HouseNumber":1.0,"PostalCode":1.0},"MatchType":"interpolated","Location":{"LocationId":"NT_00lVfuP4lHj4b2ve64KJ1C_xEjQ","LocationType":"point","DisplayPosition":{"Latitude":56.38117,"Longitude":10.50178},"MapView":{"TopLeft":{"Latitude":56.3822942,"Longitude":10.4997496},"BottomRight":{"Latitude":56.3800458,"Longitude":10.5038104}},"Address":{"Label":"Vestergade 11B, 8550 Ryomgård, Danmark","Country":"DNK","State":"Midtjylland","County":"Syddjurs","City":"Ryomgård","Street":"Vestergade","HouseNumber":"11B","PostalCode":"8550","AdditionalData":[{"value":"Danmark","key":"CountryName"},{"value":"Midtjylland","key":"StateName"},{"value":"Syddjurs","key":"CountyName"}]},"MapReference":{"ReferenceId":"956254133","Spot":0.47,"SideOfStreet":"left","CountryId":"20298369","StateId":"20367479","CountyId":"20367609","CityId":"20367613","AddressId":"200339978","RoadLinkId":"299204340"}}}]}]}}