{"Response":{"MetaInfo":{"Timestamp":"2020-03-28T11:17:52.679+0000","NextPageInformation":"2"},"View":[{"_type":"SearchResultsViewType","ViewId":0,"Result":[{"Relevance":1.0,"Distance":0.0,"Direction":0.0,"MatchLevel":"district","MatchQuality":{"Country":1.0,"State":1.0,"County":1.0,"City":1.0,"District":1.0,"PostalCode":1.0},"Location":{"LocationId":"NT_EsFkaM0xvEi23T5nMuHS.B","LocationType":"point","DisplayPosition":{"Latitude":56.3996023,"Longitude":-3.4155906},"MapView":{"TopLeft":{"Latitude":56.42297,"Longitude":-3.49064},"BottomRight":{"Latitude":56.37456,"Longitude":-3.39471}},"Address":{"Label":"Perth, Scotland, United Kingdom","Country":"GBR","State":"Scotland","County":"Perthshire","City":"Perth","District":"Perth","PostalCode":"PH1 5","AdditionalData":[{"value":"United Kingdom","key":"CountryName"},{"value":"Scotland","key":"StateName"},{"value":"Perthshire","key":"CountyName"}]},"MapReference":{"ReferenceId":"19205287","SideOfStreet":"neither","StateId":"20252820","CountyId":"20292490","CityId":"20292517","DistrictId":"20292518"}}},{"Relevance":1.0,"Distance":32.0,"MatchLevel":"street","MatchQuality":{"Country":1.0,"State":1.0,"County":1.0,"City":1.0,"District":1.0,"PostalCode":1.0},"Location":{"LocationId":"NT_S4r.0AIBp.Ajcj7ZcSW6nC_l_19204855_L","LocationType":"point","DisplayPosition":{"Latitude":56.3996023,"Longitude":-3.41507},"MapView":{"TopLeft":{"Latitude":56.40033,"Longitude":-3.41507},"BottomRight":{"Latitude":56.39924,"Longitude":-3.41301}},"Address":{"Label":"Perth, PH2 7, United Kingdom","Country":"GBR","State":"Scotland","County":"Perthshire","City":"Perth","District":"Perth","PostalCode":"PH2 7","AdditionalData":[{"value":"United Kingdom","key":"CountryName"},{"value":"Scotland","key":"StateName"},{"value":"Perthshire","key":"CountyName"}]},"MapReference":{"ReferenceId":"19204855","Spot":0.6,"SideOfStreet":"left","StateId":"20252820","CountyId":"20292490","CityId":"20292517","DistrictId":"20292518"}}},{"Relevance":1.0,"Distance":70.4,"MatchLevel":"street","MatchQuality":{"Country":1.0,"State":1.0,"County":1.0,"City":1.0,"District":1.0,"Street":[1.0],"PostalCode":1.0},"Location":{"LocationId":"NT_NufuF4kR0pMUICRDQN8wWD_l_19204902_R","LocationType":"point","DisplayPosition":{"Latitude":56.3989833,"Longitude":-3.4158338},"MapView":{"TopLeft":{"Latitude":56.40009,"Longitude":-3.41886},"BottomRight":{"Latitude":56.39886,"Longitude":-3.41242}},"Address":{"Label":"Muirhall Road, Perth, PH2 7, United Kingdom","Country":"GBR","State":"Scotland","County":"Perthshire","City":"Perth","District":"Perth","Street":"Muirhall Road","PostalCode":"PH2 7","AdditionalData":[{"value":"United Kingdom","key":"CountryName"},{"value":"Scotland","key":"StateName"},{"value":"Perthshire","key":"CountyName"}]},"MapReference":{"ReferenceId":"19204902","Spot":0.52,"SideOfStreet":"right","StateId":"20252820","CountyId":"20292490","CityId":"20292517","DistrictId":"20292518"}}},{"Relevance":1.0,"Distance":70.7,"MatchLevel":"postalCode","MatchQuality":{"PostalCode":1.0},"Location":{"LocationId":"NT_NufuF4kR0pMUICRDQN8wWD_l_19204902_R","LocationType":"point","DisplayPosition":{"Latitude":56.39913,"Longitude":-3.41636},"MapView":{"TopLeft":{"Latitude":56.4081232,"Longitude":-3.4326107},"BottomRight":{"Latitude":56.3901368,"Longitude":-3.4001093}},"Address":{"Label":"PH2 7BQ, Perth, Scotland, United Kingdom","Country":"GBR","State":"Scotland","County":"Perthshire","City":"Perth","PostalCode":"PH2 7BQ","AdditionalData":[{"value":"United Kingdom","key":"CountryName"},{"value":"Scotland","key":"StateName"},{"value":"Perthshire","key":"CountyName"}]},"MapReference":{"ReferenceId":"19204902","Spot":0.52,"SideOfStreet":"neither","StateId":"20252820","CountyId":"20292490","CityId":"20292517"}}},{"Relevance":1.0,"Distance":163.0,"MatchLevel":"street","MatchQuality":{"Country":1.0,"State":1.0,"County":1.0,"City":1.0,"District":1.0,"PostalCode":1.0},"Location":{"LocationId":"NT_S4r.0AIBp.Ajcj7ZcSW6nC_l_19204846_L","LocationType":"point","DisplayPosition":{"Latitude":56.39927,"Longitude":-3.41301},"MapView":{"TopLeft":{"Latitude":56.39929,"Longitude":-3.41301},"BottomRight":{"Latitude":56.39927,"Longitude":-3.41245}},"Address":{"Label":"Perth, PH2 7, United Kingdom","Country":"GBR","State":"Scotland","County":"Perthshire","City":"Perth","District":"Perth","PostalCode":"PH2 7","AdditionalData":[{"value":"United Kingdom","key":"CountryName"},{"value":"Scotland","key":"StateName"},{"value":"Perthshire","key":"CountyName"}]},"MapReference":{"ReferenceId":"19204846","Spot":0.0,"SideOfStreet":"left","StateId":"20252820","CountyId":"20292490","CityId":"20292517","DistrictId":"20292518"}}},{"Relevance":1.0,"Distance":163.0,"MatchLevel":"street","MatchQuality":{"Country":1.0,"State":1.0,"County":1.0,"City":1.0,"District":1.0,"PostalCode":1.0},"Location":{"LocationId":"NT_S4r.0AIBp.Ajcj7ZcSW6nC_l_19204847_L","LocationType":"point","DisplayPosition":{"Latitude":56.39927,"Longitude":-3.41301},"MapView":{"TopLeft":{"Latitude":56.39953,"Longitude":-3.41301},"BottomRight":{"Latitude":56.39927,"Longitude":-3.41254}},"Address":{"Label":"Perth, PH2 7, United Kingdom","Country":"GBR","State":"Scotland","County":"Perthshire","City":"Perth","District":"Perth","PostalCode":"PH2 7","AdditionalData":[{"value":"United Kingdom","key":"CountryName"},{"value":"Scotland","key":"StateName"},{"value":"Perthshire","key":"CountyName"}]},"MapReference":{"ReferenceId":"19204847","Spot":0.0,"SideOfStreet":"left","StateId":"20252820","CountyId":"20292490","CityId":"20292517","DistrictId":"20292518"}}},{"Relevance":1.0,"Distance":187.9,"MatchLevel":"street","MatchQuality":{"Country":1.0,"State":1.0,"County":1.0,"City":1.0,"District":1.0,"PostalCode":1.0},"Location":{"LocationId":"NT_S4r.0AIBp.Ajcj7ZcSW6nC_l_19204845_L","LocationType":"point","DisplayPosition":{"Latitude":56.39953,"Longitude":-3.41254},"MapView":{"TopLeft":{"Latitude":56.39953,"Longitude":-3.41254},"BottomRight":{"Latitude":56.39929,"Longitude":-3.41245}},"Address":{"Label":"Perth, PH2 7, United Kingdom","Country":"GBR","State":"Scotland","County":"Perthshire","City":"Perth","District":"Perth","PostalCode":"PH2 7","AdditionalData":[{"value":"United Kingdom","key":"CountryName"},{"value":"Scotland","key":"StateName"},{"value":"Perthshire","key":"CountyName"}]},"MapReference":{"ReferenceId":"19204845","Spot":1.0,"SideOfStreet":"left","StateId":"20252820","CountyId":"20292490","CityId":"20292517","DistrictId":"20292518"}}},{"Relevance":1.0,"Distance":187.9,"MatchLevel":"street","MatchQuality":{"Country":1.0,"State":1.0,"County":1.0,"City":1.0,"District":1.0,"PostalCode":1.0},"Location":{"LocationId":"NT_S4r.0AIBp.Ajcj7ZcSW6nC_l_19204825_L","LocationType":"point","DisplayPosition":{"Latitude":56.39953,"Longitude":-3.41254},"MapView":{"TopLeft":{"Latitude":56.40103,"Longitude":-3.41254},"BottomRight":{"Latitude":56.39953,"Longitude":-3.41007}},"Address":{"Label":"Perth, PH2 7, United Kingdom","Country":"GBR","State":"Scotland","County":"Perthshire","City":"Perth","District":"Perth","PostalCode":"PH2 7","AdditionalData":[{"value":"United Kingdom","key":"CountryName"},{"value":"Scotland","key":"StateName"},{"value":"Perthshire","key":"CountyName"}]},"MapReference":{"ReferenceId":"19204825","Spot":0.0,"SideOfStreet":"left","StateId":"20252820","CountyId":"20292490","CityId":"20292517","DistrictId":"20292518"}}},{"Relevance":1.0,"Distance":189.9,"MatchLevel":"street","MatchQuality":{"Country":1.0,"State":1.0,"County":1.0,"City":1.0,"District":1.0,"Street":[1.0],"PostalCode":1.0},"Location":{"LocationId":"NT_z-OILVneuk6h-w5U2K.5RB_l_19205083_L","LocationType":"point","DisplayPosition":{"Latitude":56.39833,"Longitude":-3.41765},"MapView":{"TopLeft":{"Latitude":56.39833,"Longitude":-3.41978},"BottomRight":{"Latitude":56.39742,"Longitude":-3.41765}},"Address":{"Label":"Bowerswell Lane, Perth, PH2 7, United Kingdom","Country":"GBR","State":"Scotland","County":"Perthshire","City":"Perth","District":"Perth","Street":"Bowerswell Lane","PostalCode":"PH2 7","AdditionalData":[{"value":"United Kingdom","key":"CountryName"},{"value":"Scotland","key":"StateName"},{"value":"Perthshire","key":"CountyName"}]},"MapReference":{"ReferenceId":"19205083","Spot":1.0,"SideOfStreet":"left","StateId":"20252820","CountyId":"20292490","CityId":"20292517","DistrictId":"20292518"}}},{"Relevance":1.0,"Distance":196.4,"MatchLevel":"street","MatchQuality":{"Country":1.0,"State":1.0,"County":1.0,"City":1.0,"District":1.0,"PostalCode":1.0},"Location":{"LocationId":"NT_S4r.0AIBp.Ajcj7ZcSW6nC_l_19204844_L","LocationType":"point","DisplayPosition":{"Latitude":56.39929,"Longitude":-3.41245},"MapView":{"TopLeft":{"Latitude":56.40103,"Longitude":-3.41245},"BottomRight":{"Latitude":56.39929,"Longitude":-3.40969}},"Address":{"Label":"Perth, PH2 7, United Kingdom","Country":"GBR","State":"Scotland","County":"Perthshire","City":"Perth","District":"Perth","PostalCode":"PH2 7","AdditionalData":[{"value":"United Kingdom","key":"CountryName"},{"value":"Scotland","key":"StateName"},{"value":"Perthshire","key":"CountyName"}]},"MapReference":{"ReferenceId":"19204844","Spot":0.0,"SideOfStreet":"left","StateId":"20252820","CountyId":"20292490","CityId":"20292517","DistrictId":"20292518"}}}]}]}}