{"Response":{"MetaInfo":{"Timestamp":"2020-03-28T11:27:56.773+0000","NextPageInformation":"2"},"View":[{"_type":"SearchResultsViewType","ViewId":0,"Result":[{"Relevance":1.0,"Distance":0.0,"Direction":0.0,"MatchLevel":"district","MatchQuality":{"Country":1.0,"State":1.0,"County":1.0,"City":1.0,"District":1.0,"PostalCode":1.0},"Location":{"LocationId":"NT_qj.782iVr-oPsZDpJfGaKA","LocationType":"point","DisplayPosition":{"Latitude":56.3177674,"Longitude":22.3446965},"MapView":{"TopLeft":{"Latitude":56.34485,"Longitude":22.28548},"BottomRight":{"Latitude":56.2855,"Longitude":22.37481}},"Address":{"Label":"Mažeikiai, Telšių Apskritis, Lietuva","Country":"LTU","State":"Telšių Apskritis","County":"Mažeikių rajono savivaldybė","City":"Mažeikiai","District":"Mažeikiai","PostalCode":"89139","AdditionalData":[{"value":"Lietuva","key":"CountryName"},{"value":"Telšių Apskritis","key":"StateName"},{"value":"Mažeikių rajono savivaldybė","key":"CountyName"}]},"MapReference":{"ReferenceId":"752239520","SideOfStreet":"neither","CountryId":"20633740","StateId":"23291136","CountyId":"23291616","CityId":"23292540","DistrictId":"23290538"}}},{"Relevance":1.0,"Distance":11.6,"MatchLevel":"street","MatchQuality":{"Country":1.0,"State":1.0,"County":1.0,"City":1.0,"District":1.0,"Street":[1.0],"PostalCode":1.0},"Location":{"LocationId":"NT_K9Zf1aE.CvCsVPB3-ZNsnA_l_752354340_L","LocationType":"point","DisplayPosition":{"Latitude":56.3178518,"Longitude":22.3448072},"MapView":{"TopLeft":{"Latitude":56.31816,"Longitude":22.34449},"BottomRight":{"Latitude":56.31773,"Longitude":22.3449}},"Address":{"Label":"Birutės gatvė, LT-89139 Mažeikiai, Lietuva","Country":"LTU","State":"Telšių Apskritis","County":"Mažeikių rajono savivaldybė","City":"Mažeikiai","District":"Mažeikiai","Street":"Birutės gatvė","PostalCode":"89139","AdditionalData":[{"value":"Lietuva","key":"CountryName"},{"value":"Telšių Apskritis","key":"StateName"},{"value":"Mažeikių rajono savivaldybė","key":"CountyName"}]},"MapReference":{"ReferenceId":"752354340","Spot":0.26,"SideOfStreet":"left","CountryId":"20633740","StateId":"23291136","CountyId":"23291616","CityId":"23292540","DistrictId":"23290538"}}},{"Relevance":1.0,"Distance":13.2,"MatchLevel":"street","MatchQuality":{"Country":1.0,"State":1.0,"County":1.0,"City":1.0,"District":1.0,"Street":[1.0],"PostalCode":1.0},"Location":{"LocationId":"NT_K9Zf1aE.CvCsVPB3-ZNsnA_l_1112861447_L","LocationType":"point","DisplayPosition":{"Latitude":56.31773,"Longitude":22.3449},"MapView":{"TopLeft":{"Latitude":56.31773,"Longitude":22.3449},"BottomRight":{"Latitude":56.31731,"Longitude":22.34522}},"Address":{"Label":"Birutės gatvė, LT-89139 Mažeikiai, Lietuva","Country":"LTU","State":"Telšių Apskritis","County":"Mažeikių rajono savivaldybė","City":"Mažeikiai","District":"Mažeikiai","Street":"Birutės gatvė","PostalCode":"89139","AdditionalData":[{"value":"Lietuva","key":"CountryName"},{"value":"Telšių Apskritis","key":"StateName"},{"value":"Mažeikių rajono savivaldybė","key":"CountyName"}]},"MapReference":{"ReferenceId":"1112861447","Spot":1.0,"SideOfStreet":"left","CountryId":"20633740","StateId":"23291136","CountyId":"23291616","CityId":"23292540","DistrictId":"23290538"}}},{"Relevance":1.0,"Distance":18.8,"MatchLevel":"houseNumber","MatchQuality":{"Country":1.0,"State":1.0,"County":1.0,"City":1.0,"District":1.0,"Street":[1.0],"HouseNumber":1.0,"PostalCode":1.0},"MatchType":"interpolated","Location":{"LocationId":"NT_cz.38C1.2qQjrSdaYstPFB_3A","LocationType":"point","DisplayPosition":{"Latitude":56.31763,"Longitude":22.34452},"MapView":{"TopLeft":{"Latitude":56.3187542,"Longitude":22.342493},"BottomRight":{"Latitude":56.3165058,"Longitude":22.346547}},"Address":{"Label":"Vilniaus gatvė 7, LT-89217 Mažeikiai, Lietuva","Country":"LTU","State":"Telšių Apskritis","County":"Mažeikių rajono savivaldybė","City":"Mažeikiai","District":"Mažeikiai","Street":"Vilniaus gatvė","HouseNumber":"7","PostalCode":"89217","AdditionalData":[{"value":"Lietuva","key":"CountryName"},{"value":"Telšių Apskritis","key":"StateName"},{"value":"Mažeikių rajono savivaldybė","key":"CountyName"}]},"MapReference":{"ReferenceId":"900901228","Spot":0.6,"SideOfStreet":"left","CountryId":"20633740","StateId":"23291136","CountyId":"23291616","CityId":"23292540","DistrictId":"23290538","AddressId":"339554914","RoadLinkId":"262602705"}}},{"Relevance":1.0,"Distance":57.0,"MatchLevel":"houseNumber","MatchQuality":{"Country":1.0,"State":1.0,"County":1.0,"City":1.0,"District":1.0,"Street":[1.0],"HouseNumber":1.0,"PostalCode":1.0},"MatchType":"interpolated","Location":{"LocationId":"NT_Z5hGtlmty4gyJAUITkEZMA_zYD","LocationType":"point","DisplayPosition":{"Latitude":56.31826,"Longitude":22.34444},"MapView":{"TopLeft":{"Latitude":56.3193842,"Longitude":22.342413},"BottomRight":{"Latitude":56.3171358,"Longitude":22.346467}},"Address":{"Label":"Birutės gatvė 36, LT-89215 Mažeikiai, Lietuva","Country":"LTU","State":"Telšių Apskritis","County":"Mažeikių rajono savivaldybė","City":"Mažeikiai","District":"Mažeikiai","Street":"Birutės gatvė","HouseNumber":"36","PostalCode":"89215","AdditionalData":[{"value":"Lietuva","key":"CountryName"},{"value":"Telšių Apskritis","key":"StateName"},{"value":"Mažeikių rajono savivaldybė","key":"CountyName"}]},"MapReference":{"ReferenceId":"752476892","Spot":0.05,"SideOfStreet":"right","CountryId":"20633740","StateId":"23291136","CountyId":"23291616","CityId":"23292540","DistrictId":"23290538","AddressId":"667498240","RoadLinkId":"148494465"}}},{"Relevance":1.0,"Distance":60.2,"MatchLevel":"street","MatchQuality":{"Country":1.0,"State":1.0,"County":1.0,"City":1.0,"District":1.0,"Street":[1.0],"PostalCode":1.0},"Location":{"LocationId":"NT_K9Zf1aE.CvCsVPB3-ZNsnA_l_1112861449_L","LocationType":"point","DisplayPosition":{"Latitude":56.31731,"Longitude":22.34522},"MapView":{"TopLeft":{"Latitude":56.31731,"Longitude":22.34522},"BottomRight":{"Latitude":56.31722,"Longitude":22.34529}},"Address":{"Label":"Birutės gatvė, LT-89139 Mažeikiai, Lietuva","Country":"LTU","State":"Telšių Apskritis","County":"Mažeikių rajono savivaldybė","City":"Mažeikiai","District":"Mažeikiai","Street":"Birutės gatvė","PostalCode":"89139","AdditionalData":[{"value":"Lietuva","key":"CountryName"},{"value":"Telšių Apskritis","key":"StateName"},{"value":"Mažeikių rajono savivaldybė","key":"CountyName"}]},"MapReference":{"ReferenceId":"1112861449","Spot":1.0,"SideOfStreet":"left","CountryId":"20633740","StateId":"23291136","CountyId":"23291616","CityId":"23292540","DistrictId":"23290538"}}},{"Relevance":1.0,"Distance":61.1,"MatchLevel":"street","MatchQuality":{"Country":1.0,"State":1.0,"County":1.0,"City":1.0,"District":1.0,"PostalCode":1.0},"Location":{"LocationId":"NT_ig6GmlBerOG4LikgTVmRIB_l_900901229_R","LocationType":"point","DisplayPosition":{"Latitude":56.3173732,"Longitude":22.3440067},"MapView":{"TopLeft":{"Latitude":56.31749,"Longitude":22.34394},"BottomRight":{"Latitude":56.31728,"Longitude":22.34406}},"Address":{"Label":"LT-89139 Mažeikiai, Lietuva","Country":"LTU","State":"Telšių Apskritis","County":"Mažeikių rajono savivaldybė","City":"Mažeikiai","District":"Mažeikiai","PostalCode":"89139","AdditionalData":[{"value":"Lietuva","key":"CountryName"},{"value":"Telšių Apskritis","key":"StateName"},{"value":"Mažeikių rajono savivaldybė","key":"CountyName"}]},"MapReference":{"ReferenceId":"900901229","Spot":0.44,"SideOfStreet":"right","CountryId":"20633740","StateId":"23291136","CountyId":"23291616","CityId":"23292540","DistrictId":"23290538"}}},{"Relevance":1.0,"Distance":61.3,"MatchLevel":"houseNumber","MatchQuality":{"Country":1.0,"State":1.0,"County":1.0,"City":1.0,"District":1.0,"Street":[1.0],"HouseNumber":1.0,"PostalCode":1.0},"MatchType":"interpolated","Location":{"LocationId":"NT_cz.38C1.2qQjrSdaYstPFB_1A","LocationType":"point","DisplayPosition":{"Latitude":56.31747,"Longitude":22.34386},"MapView":{"TopLeft":{"Latitude":56.3185942,"Longitude":22.341833},"BottomRight":{"Latitude":56.3163458,"Longitude":22.345887}},"Address":{"Label":"Vilniaus gatvė 5, LT-89217 Mažeikiai, Lietuva","Country":"LTU","State":"Telšių Apskritis","County":"Mažeikių rajono savivaldybė","City":"Mažeikiai","District":"Mažeikiai","Street":"Vilniaus gatvė","HouseNumber":"5","PostalCode":"89217","AdditionalData":[{"value":"Lietuva","key":"CountryName"},{"value":"Telšių Apskritis","key":"StateName"},{"value":"Mažeikių rajono savivaldybė","key":"CountyName"}]},"MapReference":{"ReferenceId":"900901227","Spot":0.92,"SideOfStreet":"left","CountryId":"20633740","StateId":"23291136","CountyId":"23291616","CityId":"23292540","DistrictId":"23290538","AddressId":"339507185","RoadLinkId":"262602704"}}},{"Relevance":1.0,"Distance":71.0,"MatchLevel":"street","MatchQuality":{"Country":1.0,"State":1.0,"County":1.0,"City":1.0,"District":1.0,"Street":[1.0],"PostalCode":1.0},"Location":{"LocationId":"NT_K9Zf1aE.CvCsVPB3-ZNsnA_l_1112861448_L","LocationType":"point","DisplayPosition":{"Latitude":56.31722,"Longitude":22.34529},"MapView":{"TopLeft":{"Latitude":56.31722,"Longitude":22.34529},"BottomRight":{"Latitude":56.31714,"Longitude":22.34535}},"Address":{"Label":"Birutės gatvė, LT-89139 Mažeikiai, Lietuva","Country":"LTU","State":"Telšių Apskritis","County":"Mažeikių rajono savivaldybė","City":"Mažeikiai","District":"Mažeikiai","Street":"Birutės gatvė","PostalCode":"89139","AdditionalData":[{"value":"Lietuva","key":"CountryName"},{"value":"Telšių Apskritis","key":"StateName"},{"value":"Mažeikių rajono savivaldybė","key":"CountyName"}]},"MapReference":{"ReferenceId":"1112861448","Spot":1.0,"SideOfStreet":"left","CountryId":"20633740","StateId":"23291136","CountyId":"23291616","CityId":"23292540","DistrictId":"23290538"}}},{"Relevance":1.0,"Distance":76.4,"MatchLevel":"houseNumber","MatchQuality":{"Country":1.0,"State":1.0,"County":1.0,"City":1.0,"District":1.0,"Street":[1.0],"HouseNumber":1.0,"PostalCode":1.0},"MatchType":"interpolated","Location":{"LocationId":"NT_RRrOm2Bog9EKiftK8BgbWC_2gD","LocationType":"point","DisplayPosition":{"Latitude":56.31817,"Longitude":22.3457},"MapView":{"TopLeft":{"Latitude":56.3192942,"Longitude":22.343673},"BottomRight":{"Latitude":56.3170458,"Longitude":22.347727}},"Address":{"Label":"V. Kudirkos gatvė 68, LT-89215 Mažeikiai, Lietuva","Country":"LTU","State":"Telšių Apskritis","County":"Mažeikių rajono savivaldybė","City":"Mažeikiai","District":"Mažeikiai","Street":"V. Kudirkos gatvė","HouseNumber":"68","PostalCode":"89215","AdditionalData":[{"value":"Lietuva","key":"CountryName"},{"value":"Telšių Apskritis","key":"StateName"},{"value":"Mažeikių rajono savivaldybė","key":"CountyName"}]},"MapReference":{"ReferenceId":"752561645","Spot":0.3,"SideOfStreet":"left","CountryId":"20633740","StateId":"23291136","CountyId":"23291616","CityId":"23292540","DistrictId":"23290538","AddressId":"339720221","RoadLinkId":"148316766"}}}]}]}}