{"Response":{"MetaInfo":{"Timestamp":"2020-03-28T11:16:13.062+0000","NextPageInformation":"2"},"View":[{"_type":"SearchResultsViewType","ViewId":0,"Result":[{"Relevance":1.0,"Distance":0.0,"Direction":0.0,"MatchLevel":"district","MatchQuality":{"Country":1.0,"State":1.0,"County":1.0,"City":1.0,"District":1.0,"PostalCode":1.0},"Location":{"LocationId":"NT_iWTurX8BjYb4lX.3Y7NIzA","LocationType":"point","DisplayPosition":{"Latitude":56.3693449,"Longitude":-3.842254},"MapView":{"TopLeft":{"Latitude":56.38396,"Longitude":-3.86166},"BottomRight":{"Latitude":56.36439,"Longitude":-3.81997}},"Address":{"Label":"Crieff, Scotland, United Kingdom","Country":"GBR","State":"Scotland","County":"Perthshire","City":"Crieff","District":"Crieff","PostalCode":"PH7 3","AdditionalData":[{"value":"United Kingdom","key":"CountryName"},{"value":"Scotland","key":"StateName"},{"value":"Perthshire","key":"CountyName"}]},"MapReference":{"ReferenceId":"1257131110","SideOfStreet":"neither","StateId":"20252820","CountyId":"20292490","CityId":"20292502","DistrictId":"20292503"}}},{"Relevance":1.0,"Distance":8.5,"MatchLevel":"street","MatchQuality":{"Country":1.0,"State":1.0,"County":1.0,"City":1.0,"District":1.0,"Street":[1.0],"PostalCode":1.0},"Location":{"LocationId":"NT_uI76ygB.do1L0gHZFk-kDB_l_565858874_L","LocationType":"point","DisplayPosition":{"Latitude":56.369271,"Longitude":-3.8422215},"MapView":{"TopLeft":{"Latitude":56.36932,"Longitude":-3.84286},"BottomRight":{"Latitude":56.36899,"Longitude":-3.84211}},"Address":{"Label":"Duchlage Road, Crieff, PH7 3, United Kingdom","Country":"GBR","State":"Scotland","County":"Perthshire","City":"Crieff","District":"Crieff","Street":"Duchlage Road","PostalCode":"PH7 3","AdditionalData":[{"value":"United Kingdom","key":"CountryName"},{"value":"Scotland","key":"StateName"},{"value":"Perthshire","key":"CountyName"}]},"MapReference":{"ReferenceId":"565858874","Spot":0.85,"SideOfStreet":"left","StateId":"20252820","CountyId":"20292490","CityId":"20292502","DistrictId":"20292503"}}},{"Relevance":1.0,"Distance":9.3,"MatchLevel":"street","MatchQuality":{"Country":1.0,"State":1.0,"County":1.0,"City":1.0,"District":1.0,"Street":[1.0],"PostalCode":1.0},"Location":{"LocationId":"NT_uI76ygB.do1L0gHZFk-kDB_l_19206950_L","LocationType":"point","DisplayPosition":{"Latitude":56.36932,"Longitude":-3.84211},"MapView":{"TopLeft":{"Latitude":56.37019,"Longitude":-3.84211},"BottomRight":{"Latitude":56.36932,"Longitude":-3.84024}},"Address":{"Label":"Duchlage Road, Crieff, PH7 3, United Kingdom","Country":"GBR","State":"Scotland","County":"Perthshire","City":"Crieff","District":"Crieff","Street":"Duchlage Road","PostalCode":"PH7 3","AdditionalData":[{"value":"United Kingdom","key":"CountryName"},{"value":"Scotland","key":"StateName"},{"value":"Perthshire","key":"CountyName"}]},"MapReference":{"ReferenceId":"19206950","Spot":0.0,"SideOfStreet":"left","StateId":"20252820","CountyId":"20292490","CityId":"20292502","DistrictId":"20292503"}}},{"Relevance":1.0,"Distance":31.9,"MatchLevel":"houseNumber","MatchQuality":{"Country":1.0,"State":1.0,"County":1.0,"City":1.0,"District":1.0,"Street":[1.0],"HouseNumber":1.0,"PostalCode":1.0},"MatchType":"interpolated","Location":{"LocationId":"NT_6yxLL5Zfhwqk4V68cHYZzB_l_19206984_R_0A","LocationType":"point","DisplayPosition":{"Latitude":56.3691433,"Longitude":-3.8418333},"MapView":{"TopLeft":{"Latitude":56.3702675,"Longitude":-3.8438631},"BottomRight":{"Latitude":56.3680192,"Longitude":-3.8398036}},"Address":{"Label":"4 Duchlage Court, Crieff, PH7 3, United Kingdom","Country":"GBR","State":"Scotland","County":"Perthshire","City":"Crieff","District":"Crieff","Street":"Duchlage Court","HouseNumber":"4","PostalCode":"PH7 3","AdditionalData":[{"value":"United Kingdom","key":"CountryName"},{"value":"Scotland","key":"StateName"},{"value":"Perthshire","key":"CountyName"}]},"MapReference":{"ReferenceId":"19206984","Spot":0.59,"SideOfStreet":"right","StateId":"20252820","CountyId":"20292490","CityId":"20292502","DistrictId":"20292503"}}},{"Relevance":1.0,"Distance":54.3,"MatchLevel":"landmark","MatchQuality":{"Country":1.0,"State":1.0,"County":1.0,"City":1.0,"District":1.0,"Street":[1.0],"PostalCode":1.0,"Name":1.0},"Location":{"LocationId":"NT_elc1aD9us9uegN1V9qwiLC_p_muB5dQGg8XbVtBta7Hv4hA","LocationType":"park","Name":"Market Park","DisplayPosition":{"Latitude":56.36839,"Longitude":-3.84579},"MapView":{"TopLeft":{"Latitude":56.37023,"Longitude":-3.84716},"BottomRight":{"Latitude":56.36781,"Longitude":-3.84286}},"Address":{"Label":"Broich Road, Crieff, PH7 3, United Kingdom","Country":"GBR","State":"Scotland","County":"Perthshire","City":"Crieff","District":"Crieff","Street":"Broich Road","PostalCode":"PH7 3","AdditionalData":[{"value":"United Kingdom","key":"CountryName"},{"value":"Scotland","key":"StateName"},{"value":"Perthshire","key":"CountyName"}]},"MapReference":{"StateId":"20252820","CountyId":"20292490","CityId":"20292502","DistrictId":"20292503","PlaceId":"1148416684"}}},{"Relevance":1.0,"Distance":54.3,"MatchLevel":"street","MatchQuality":{"Country":1.0,"State":1.0,"County":1.0,"City":1.0,"District":1.0,"Street":[1.0],"PostalCode":1.0},"Location":{"LocationId":"NT_FzfKeKhMQ0mWxWUaU95QcA_l_565858875_R","LocationType":"point","DisplayPosition":{"Latitude":56.36899,"Longitude":-3.84286},"MapView":{"TopLeft":{"Latitude":56.36951,"Longitude":-3.84376},"BottomRight":{"Latitude":56.36899,"Longitude":-3.84286}},"Address":{"Label":"Crioch Place, Crieff, PH7 3, United Kingdom","Country":"GBR","State":"Scotland","County":"Perthshire","City":"Crieff","District":"Crieff","Street":"Crioch Place","PostalCode":"PH7 3","AdditionalData":[{"value":"United Kingdom","key":"CountryName"},{"value":"Scotland","key":"StateName"},{"value":"Perthshire","key":"CountyName"}]},"MapReference":{"ReferenceId":"565858875","Spot":0.0,"SideOfStreet":"right","StateId":"20252820","CountyId":"20292490","CityId":"20292502","DistrictId":"20292503"}}},{"Relevance":1.0,"Distance":54.3,"MatchLevel":"street","MatchQuality":{"Country":1.0,"State":1.0,"County":1.0,"City":1.0,"District":1.0,"Street":[1.0],"PostalCode":1.0},"Location":{"LocationId":"NT_uI76ygB.do1L0gHZFk-kDB_l_565858873_L","LocationType":"point","DisplayPosition":{"Latitude":56.36899,"Longitude":-3.84286},"MapView":{"TopLeft":{"Latitude":56.36899,"Longitude":-3.84458},"BottomRight":{"Latitude":56.36781,"Longitude":-3.84286}},"Address":{"Label":"Duchlage Road, Crieff, PH7 3, United Kingdom","Country":"GBR","State":"Scotland","County":"Perthshire","City":"Crieff","District":"Crieff","Street":"Duchlage Road","PostalCode":"PH7 3","AdditionalData":[{"value":"United Kingdom","key":"CountryName"},{"value":"Scotland","key":"StateName"},{"value":"Perthshire","key":"CountyName"}]},"MapReference":{"ReferenceId":"565858873","Spot":1.0,"SideOfStreet":"left","StateId":"20252820","CountyId":"20292490","CityId":"20292502","DistrictId":"20292503"}}},{"Relevance":1.0,"Distance":61.7,"MatchLevel":"houseNumber","MatchQuality":{"Country":1.0,"State":1.0,"County":1.0,"City":1.0,"District":1.0,"Street":[1.0],"HouseNumber":1.0,"PostalCode":1.0},"MatchType":"interpolated","Location":{"LocationId":"NT_6yxLL5Zfhwqk4V68cHYZzB_l_19206983_L_xA","LocationType":"point","DisplayPosition":{"Latitude":56.3690301,"Longitude":-3.8412399},"MapView":{"TopLeft":{"Latitude":56.3701542,"Longitude":-3.8432696},"BottomRight":{"Latitude":56.3679059,"Longitude":-3.8392102}},"Address":{"Label":"1 Duchlage Court, Crieff, PH7 3PZ, United Kingdom","Country":"GBR","State":"Scotland","County":"Perthshire","City":"Crieff","District":"Crieff","Street":"Duchlage Court","HouseNumber":"1","PostalCode":"PH7 3PZ","AdditionalData":[{"value":"United Kingdom","key":"CountryName"},{"value":"Scotland","key":"StateName"},{"value":"Perthshire","key":"CountyName"}]},"MapReference":{"ReferenceId":"19206983","Spot":0.23,"SideOfStreet":"left","StateId":"20252820","CountyId":"20292490","CityId":"20292502","DistrictId":"20292503"}}},{"Relevance":1.0,"Distance":77.9,"MatchLevel":"postalCode","MatchQuality":{"PostalCode":1.0},"Location":{"LocationId":"NT_FzfKeKhMQ0mWxWUaU95QcA_l_565858875_R","LocationType":"point","DisplayPosition":{"Latitude":56.36943,"Longitude":-3.84351},"MapView":{"TopLeft":{"Latitude":56.3784232,"Longitude":-3.8597481},"BottomRight":{"Latitude":56.3604368,"Longitude":-3.8272719}},"Address":{"Label":"PH7 3BW, Crieff, Scotland, United Kingdom","Country":"GBR","State":"Scotland","County":"Perthshire","City":"Crieff","PostalCode":"PH7 3BW","AdditionalData":[{"value":"United Kingdom","key":"CountryName"},{"value":"Scotland","key":"StateName"},{"value":"Perthshire","key":"CountyName"}]},"MapReference":{"ReferenceId":"565858875","Spot":0.0,"SideOfStreet":"neither","StateId":"20252820","CountyId":"20292490","CityId":"20292502"}}},{"Relevance":1.0,"Distance":93.0,"MatchLevel":"street","MatchQuality":{"Country":1.0,"State":1.0,"County":1.0,"City":1.0,"District":1.0,"PostalCode":1.0},"Location":{"LocationId":"NT_3Tzyx83Z8MhZBfXNyWhg-D_l_1064507749_R","LocationType":"point","DisplayPosition":{"Latitude":56.37009,"Longitude":-3.84294},"MapView":{"TopLeft":{"Latitude":56.37054,"Longitude":-3.84329},"BottomRight":{"Latitude":56.37,"Longitude":-3.84293}},"Address":{"Label":"Crieff, PH7 3, United Kingdom","Country":"GBR","State":"Scotland","County":"Perthshire","City":"Crieff","District":"Crieff","PostalCode":"PH7 3","AdditionalData":[{"value":"United Kingdom","key":"CountryName"},{"value":"Scotland","key":"StateName"},{"value":"Perthshire","key":"CountyName"}]},"MapReference":{"ReferenceId":"1064507749","Spot":0.43,"SideOfStreet":"right","StateId":"20252820","CountyId":"20292490","CityId":"20292502","DistrictId":"20292503"}}}]}]}}