{"Response":{"MetaInfo":{"Timestamp":"2020-03-28T11:17:33.758+0000","NextPageInformation":"2"},"View":[{"_type":"SearchResultsViewType","ViewId":0,"Result":[{"Relevance":1.0,"Distance":-10.9,"MatchLevel":"landmark","MatchQuality":{"Country":1.0,"State":1.0,"County":1.0,"City":1.0,"District":1.0,"PostalCode":1.0,"Name":1.0},"Location":{"LocationId":"NT_9tCi3rQN7mFJ6EnHPQJVyC_p_6SqQ1iWF92JLDnztj3snaD","LocationType":"hospital","Name":"Lorn & Islands General Hospital","DisplayPosition":{"Latitude":56.40042,"Longitude":-5.4742},"MapView":{"TopLeft":{"Latitude":56.40157,"Longitude":-5.47702},"BottomRight":{"Latitude":56.39905,"Longitude":-5.47293}},"Address":{"Label":"Oban, PA34 4, United Kingdom","Country":"GBR","State":"Scotland","County":"Argyll","City":"Oban","District":"Soroba","PostalCode":"PA34 4","AdditionalData":[{"value":"United Kingdom","key":"CountryName"},{"value":"Scotland","key":"StateName"},{"value":"Argyll","key":"CountyName"}]},"MapReference":{"StateId":"20252820","CountyId":"20291803","CityId":"20291873","DistrictId":"20339480","PlaceId":"19209852"}}},{"Relevance":1.0,"Distance":0.0,"Direction":0.0,"MatchLevel":"district","MatchQuality":{"Country":1.0,"State":1.0,"County":1.0,"City":1.0,"District":1.0,"PostalCode":1.0},"Location":{"LocationId":"NT_-nPYAaMSLVPzVjZnfFO.XC","LocationType":"point","DisplayPosition":{"Latitude":56.4012256,"Longitude":-5.4765056},"MapView":{"TopLeft":{"Latitude":56.42516,"Longitude":-5.49305},"BottomRight":{"Latitude":56.39425,"Longitude":-5.45725}},"Address":{"Label":"Oban, Scotland, United Kingdom","Country":"GBR","State":"Scotland","County":"Argyll","City":"Oban","District":"Oban","PostalCode":"PA34 4","AdditionalData":[{"value":"United Kingdom","key":"CountryName"},{"value":"Scotland","key":"StateName"},{"value":"Argyll","key":"CountyName"}]},"MapReference":{"ReferenceId":"791203787","SideOfStreet":"neither","StateId":"20252820","CountyId":"20291803","CityId":"20291873","DistrictId":"20291874"}}},{"Relevance":1.0,"Distance":11.0,"MatchLevel":"street","MatchQuality":{"Country":1.0,"State":1.0,"County":1.0,"City":1.0,"District":1.0,"Street":[1.0],"PostalCode":1.0},"Location":{"LocationId":"NT_1wdXO.CO7lLcj7tpSkw.lA_l_1254893996_R","LocationType":"point","DisplayPosition":{"Latitude":56.4013211,"Longitude":-5.4765518},"MapView":{"TopLeft":{"Latitude":56.40138,"Longitude":-5.47702},"BottomRight":{"Latitude":56.40107,"Longitude":-5.47643}},"Address":{"Label":"Glengallan Road, Oban, PA34 4, United Kingdom","Country":"GBR","State":"Scotland","County":"Argyll","City":"Oban","District":"Soroba","Street":"Glengallan Road","PostalCode":"PA34 4","AdditionalData":[{"value":"United Kingdom","key":"CountryName"},{"value":"Scotland","key":"StateName"},{"value":"Argyll","key":"CountyName"}]},"MapReference":{"ReferenceId":"1254893996","Spot":0.8,"SideOfStreet":"right","StateId":"20252820","CountyId":"20291803","CityId":"20291873","DistrictId":"20339480"}}},{"Relevance":1.0,"Distance":17.8,"MatchLevel":"street","MatchQuality":{"Country":1.0,"State":1.0,"County":1.0,"City":1.0,"District":1.0,"Street":[1.0],"PostalCode":1.0},"Location":{"LocationId":"NT_1wdXO.CO7lLcj7tpSkw.lA_l_1254893997_R","LocationType":"point","DisplayPosition":{"Latitude":56.40138,"Longitude":-5.47643},"MapView":{"TopLeft":{"Latitude":56.40153,"Longitude":-5.47643},"BottomRight":{"Latitude":56.40138,"Longitude":-5.47577}},"Address":{"Label":"Glengallan Road, Oban, PA34 4, United Kingdom","Country":"GBR","State":"Scotland","County":"Argyll","City":"Oban","District":"Soroba","Street":"Glengallan Road","PostalCode":"PA34 4","AdditionalData":[{"value":"United Kingdom","key":"CountryName"},{"value":"Scotland","key":"StateName"},{"value":"Argyll","key":"CountyName"}]},"MapReference":{"ReferenceId":"1254893997","Spot":0.0,"SideOfStreet":"right","StateId":"20252820","CountyId":"20291803","CityId":"20291873","DistrictId":"20339480"}}},{"Relevance":1.0,"Distance":36.1,"MatchLevel":"street","MatchQuality":{"Country":1.0,"State":1.0,"County":1.0,"City":1.0,"District":1.0,"Street":[1.0],"PostalCode":1.0},"Location":{"LocationId":"NT_1wdXO.CO7lLcj7tpSkw.lA_l_1124656522_R","LocationType":"point","DisplayPosition":{"Latitude":56.40107,"Longitude":-5.47702},"MapView":{"TopLeft":{"Latitude":56.40107,"Longitude":-5.4777},"BottomRight":{"Latitude":56.40052,"Longitude":-5.47702}},"Address":{"Label":"Glengallan Road, Oban, PA34 4, United Kingdom","Country":"GBR","State":"Scotland","County":"Argyll","City":"Oban","District":"Soroba","Street":"Glengallan Road","PostalCode":"PA34 4","AdditionalData":[{"value":"United Kingdom","key":"CountryName"},{"value":"Scotland","key":"StateName"},{"value":"Argyll","key":"CountyName"}]},"MapReference":{"ReferenceId":"1124656522","Spot":1.0,"SideOfStreet":"right","StateId":"20252820","CountyId":"20291803","CityId":"20291873","DistrictId":"20339480"}}},{"Relevance":1.0,"Distance":56.5,"MatchLevel":"street","MatchQuality":{"Country":1.0,"State":1.0,"County":1.0,"City":1.0,"District":1.0,"Street":[1.0],"PostalCode":1.0},"Location":{"LocationId":"NT_XLdq4ps659ChXA3k6NJpyC_l_1254768704_L","LocationType":"point","DisplayPosition":{"Latitude":56.40153,"Longitude":-5.47577},"MapView":{"TopLeft":{"Latitude":56.40234,"Longitude":-5.47583},"BottomRight":{"Latitude":56.40153,"Longitude":-5.47577}},"Address":{"Label":"Glenshellach Business Park, Oban, PA34 4, United Kingdom","Country":"GBR","State":"Scotland","County":"Argyll","City":"Oban","District":"Soroba","Street":"Glenshellach Business Park","PostalCode":"PA34 4","AdditionalData":[{"value":"United Kingdom","key":"CountryName"},{"value":"Scotland","key":"StateName"},{"value":"Argyll","key":"CountyName"}]},"MapReference":{"ReferenceId":"1254768704","Spot":0.0,"SideOfStreet":"left","StateId":"20252820","CountyId":"20291803","CityId":"20291873","DistrictId":"20339480"}}},{"Relevance":1.0,"Distance":56.5,"MatchLevel":"street","MatchQuality":{"Country":1.0,"State":1.0,"County":1.0,"City":1.0,"District":1.0,"Street":[1.0],"PostalCode":1.0},"Location":{"LocationId":"NT_1wdXO.CO7lLcj7tpSkw.lA_l_1254768701_L","LocationType":"point","DisplayPosition":{"Latitude":56.40153,"Longitude":-5.47577},"MapView":{"TopLeft":{"Latitude":56.40157,"Longitude":-5.47577},"BottomRight":{"Latitude":56.40152,"Longitude":-5.47451}},"Address":{"Label":"Glengallan Road, Oban, PA34 4, United Kingdom","Country":"GBR","State":"Scotland","County":"Argyll","City":"Oban","District":"Soroba","Street":"Glengallan Road","PostalCode":"PA34 4","AdditionalData":[{"value":"United Kingdom","key":"CountryName"},{"value":"Scotland","key":"StateName"},{"value":"Argyll","key":"CountyName"}]},"MapReference":{"ReferenceId":"1254768701","Spot":1.0,"SideOfStreet":"left","StateId":"20252820","CountyId":"20291803","CityId":"20291873","DistrictId":"20339480"}}},{"Relevance":1.0,"Distance":106.0,"MatchLevel":"street","MatchQuality":{"Country":1.0,"State":1.0,"County":1.0,"City":1.0,"District":1.0,"PostalCode":1.0},"Location":{"LocationId":"NT_1Q-wf3wkLYB033QauJ1hEC_l_1254769005_R","LocationType":"point","DisplayPosition":{"Latitude":56.40186,"Longitude":-5.47522},"MapView":{"TopLeft":{"Latitude":56.40206,"Longitude":-5.47522},"BottomRight":{"Latitude":56.40184,"Longitude":-5.47436}},"Address":{"Label":"Oban, PA34 4, United Kingdom","Country":"GBR","State":"Scotland","County":"Argyll","City":"Oban","District":"Soroba","PostalCode":"PA34 4","AdditionalData":[{"value":"United Kingdom","key":"CountryName"},{"value":"Scotland","key":"StateName"},{"value":"Argyll","key":"CountyName"}]},"MapReference":{"ReferenceId":"1254769005","Spot":0.0,"SideOfStreet":"right","StateId":"20252820","CountyId":"20291803","CityId":"20291873","DistrictId":"20339480"}}},{"Relevance":1.0,"Distance":106.0,"MatchLevel":"street","MatchQuality":{"Country":1.0,"State":1.0,"County":1.0,"City":1.0,"District":1.0,"PostalCode":1.0},"Location":{"LocationId":"NT_1Q-wf3wkLYB033QauJ1hEC_l_1254769008_L","LocationType":"point","DisplayPosition":{"Latitude":56.40186,"Longitude":-5.47522},"MapView":{"TopLeft":{"Latitude":56.4023,"Longitude":-5.47524},"BottomRight":{"Latitude":56.40186,"Longitude":-5.47522}},"Address":{"Label":"Oban, PA34 4, United Kingdom","Country":"GBR","State":"Scotland","County":"Argyll","City":"Oban","District":"Soroba","PostalCode":"PA34 4","AdditionalData":[{"value":"United Kingdom","key":"CountryName"},{"value":"Scotland","key":"StateName"},{"value":"Argyll","key":"CountyName"}]},"MapReference":{"ReferenceId":"1254769008","Spot":0.0,"SideOfStreet":"left","StateId":"20252820","CountyId":"20291803","CityId":"20291873","DistrictId":"20339480"}}},{"Relevance":1.0,"Distance":107.5,"MatchLevel":"street","MatchQuality":{"Country":1.0,"State":1.0,"County":1.0,"City":1.0,"District":1.0,"Street":[1.0],"PostalCode":1.0},"Location":{"LocationId":"NT_1wdXO.CO7lLcj7tpSkw.lA_l_565866653_R","LocationType":"point","DisplayPosition":{"Latitude":56.40052,"Longitude":-5.4777},"MapView":{"TopLeft":{"Latitude":56.40052,"Longitude":-5.47897},"BottomRight":{"Latitude":56.39918,"Longitude":-5.4777}},"Address":{"Label":"Glengallan Road, Oban, PA34 4, United Kingdom","Country":"GBR","State":"Scotland","County":"Argyll","City":"Oban","District":"Soroba","Street":"Glengallan Road","PostalCode":"PA34 4","AdditionalData":[{"value":"United Kingdom","key":"CountryName"},{"value":"Scotland","key":"StateName"},{"value":"Argyll","key":"CountyName"}]},"MapReference":{"ReferenceId":"565866653","Spot":1.0,"SideOfStreet":"right","StateId":"20252820","CountyId":"20291803","CityId":"20291873","DistrictId":"20339480"}}}]}]}}