{"Response":{"MetaInfo":{"Timestamp":"2020-03-28T11:55:04.129+0000","NextPageInformation":"2"},"View":[{"_type":"SearchResultsViewType","ViewId":0,"Result":[{"Relevance":1.0,"Distance":0.0,"Direction":0.0,"MatchLevel":"district","MatchQuality":{"Country":1.0,"State":1.0,"County":1.0,"City":1.0,"District":1.0,"PostalCode":1.0},"Location":{"LocationId":"NT_kLHIKFJ7ooTcvrIzZYWByD","LocationType":"point","DisplayPosition":{"Latitude":56.4751957,"Longitude":-3.0356254},"MapView":{"TopLeft":{"Latitude":56.50189,"Longitude":-3.06289},"BottomRight":{"Latitude":56.45108,"Longitude":-2.87985}},"Address":{"Label":"Dundee, Scotland, United Kingdom","Country":"GBR","State":"Scotland","County":"Angus","City":"Dundee","District":"Dundee","PostalCode":"DD1 3","AdditionalData":[{"value":"United Kingdom","key":"CountryName"},{"value":"Scotland","key":"StateName"},{"value":"Angus","key":"CountyName"}]},"MapReference":{"ReferenceId":"19200790","SideOfStreet":"neither","StateId":"20252820","CountyId":"20291762","CityId":"20291777","DistrictId":"20291778"}}},{"Relevance":1.0,"Distance":8.1,"MatchLevel":"houseNumber","MatchQuality":{"Country":1.0,"State":1.0,"County":1.0,"City":1.0,"District":1.0,"Street":[1.0],"HouseNumber":1.0,"PostalCode":1.0},"MatchType":"interpolated","Location":{"LocationId":"NT_OcnmcRsEeMy8g6KmVSQtNC_l_19197585_L_yA","LocationType":"point","DisplayPosition":{"Latitude":56.4751101,"Longitude":-3.03529},"MapView":{"TopLeft":{"Latitude":56.4762342,"Longitude":-3.0373254},"BottomRight":{"Latitude":56.4739859,"Longitude":-3.0332546}},"Address":{"Label":"2 Brownhill Road, Dundee, DD2 4LN, United Kingdom","Country":"GBR","State":"Scotland","County":"Angus","City":"Dundee","District":"Dundee","Street":"Brownhill Road","HouseNumber":"2","PostalCode":"DD2 4LN","AdditionalData":[{"value":"United Kingdom","key":"CountryName"},{"value":"Scotland","key":"StateName"},{"value":"Angus","key":"CountyName"}]},"MapReference":{"ReferenceId":"19197585","Spot":0.26,"SideOfStreet":"left","StateId":"20252820","CountyId":"20291762","CityId":"20291777","DistrictId":"20291778"}}},{"Relevance":1.0,"Distance":22.2,"MatchLevel":"postalCode","MatchQuality":{"PostalCode":1.0},"MatchType":"interpolated","Location":{"LocationId":"NT_OcnmcRsEeMy8g6KmVSQtNC_l_19197585_L_yA","LocationType":"point","DisplayPosition":{"Latitude":56.47527,"Longitude":-3.03529},"MapView":{"TopLeft":{"Latitude":56.4842632,"Longitude":-3.0515733},"BottomRight":{"Latitude":56.4662768,"Longitude":-3.0190067}},"Address":{"Label":"DD2 4LN, Dundee, Scotland, United Kingdom","Country":"GBR","State":"Scotland","County":"Angus","City":"Dundee","PostalCode":"DD2 4LN","AdditionalData":[{"value":"United Kingdom","key":"CountryName"},{"value":"Scotland","key":"StateName"},{"value":"Angus","key":"CountyName"}]},"MapReference":{"ReferenceId":"19197585","Spot":0.26,"SideOfStreet":"neither","StateId":"20252820","CountyId":"20291762","CityId":"20291777"}}},{"Relevance":1.0,"Distance":26.2,"MatchLevel":"street","MatchQuality":{"Country":1.0,"State":1.0,"County":1.0,"City":1.0,"District":1.0,"Street":[1.0],"PostalCode":1.0},"Location":{"LocationId":"NT_.43zpToF5Dht55t8wIAXJA_l_19197605_L","LocationType":"point","DisplayPosition":{"Latitude":56.4749598,"Longitude":-3.0356133},"MapView":{"TopLeft":{"Latitude":56.47498,"Longitude":-3.03698},"BottomRight":{"Latitude":56.47489,"Longitude":-3.03534}},"Address":{"Label":"Balgarthno Road, Dundee, DD2 4, United Kingdom","Country":"GBR","State":"Scotland","County":"Angus","City":"Dundee","District":"Dundee","Street":"Balgarthno Road","PostalCode":"DD2 4","AdditionalData":[{"value":"United Kingdom","key":"CountryName"},{"value":"Scotland","key":"StateName"},{"value":"Angus","key":"CountyName"}]},"MapReference":{"ReferenceId":"19197605","Spot":0.83,"SideOfStreet":"left","StateId":"20252820","CountyId":"20291762","CityId":"20291777","DistrictId":"20291778"}}},{"Relevance":1.0,"Distance":31.7,"MatchLevel":"houseNumber","MatchQuality":{"Country":1.0,"State":1.0,"County":1.0,"City":1.0,"District":1.0,"Street":[1.0],"HouseNumber":1.0,"PostalCode":1.0},"MatchType":"interpolated","Location":{"LocationId":"NT_RoDt0mGcSs2XKHkul719rC_l_19197592_L_yA","LocationType":"point","DisplayPosition":{"Latitude":56.47501,"Longitude":-3.0350998},"MapView":{"TopLeft":{"Latitude":56.4761342,"Longitude":-3.0371352},"BottomRight":{"Latitude":56.4738859,"Longitude":-3.0330644}},"Address":{"Label":"2 Balgarthno Place, Dundee, DD2 4QG, United Kingdom","Country":"GBR","State":"Scotland","County":"Angus","City":"Dundee","District":"Dundee","Street":"Balgarthno Place","HouseNumber":"2","PostalCode":"DD2 4QG","AdditionalData":[{"value":"United Kingdom","key":"CountryName"},{"value":"Scotland","key":"StateName"},{"value":"Angus","key":"CountyName"}]},"MapReference":{"ReferenceId":"19197592","Spot":0.16,"SideOfStreet":"left","StateId":"20252820","CountyId":"20291762","CityId":"20291777","DistrictId":"20291778"}}},{"Relevance":1.0,"Distance":34.9,"MatchLevel":"houseNumber","MatchQuality":{"Country":1.0,"State":1.0,"County":1.0,"City":1.0,"District":1.0,"Street":[1.0],"HouseNumber":1.0,"PostalCode":1.0},"MatchType":"interpolated","Location":{"LocationId":"NT_l6i1LQaCEPp4OE5zNwS.WD_l_19197503_R_xMD","LocationType":"point","DisplayPosition":{"Latitude":56.4755095,"Longitude":-3.035605},"MapView":{"TopLeft":{"Latitude":56.4766337,"Longitude":-3.0376404},"BottomRight":{"Latitude":56.4743853,"Longitude":-3.0335696}},"Address":{"Label":"13 Gourdie Place, Dundee, DD2 4RH, United Kingdom","Country":"GBR","State":"Scotland","County":"Angus","City":"Dundee","District":"Dundee","Street":"Gourdie Place","HouseNumber":"13","PostalCode":"DD2 4RH","AdditionalData":[{"value":"United Kingdom","key":"CountryName"},{"value":"Scotland","key":"StateName"},{"value":"Angus","key":"CountyName"}]},"MapReference":{"ReferenceId":"19197503","Spot":0.27,"SideOfStreet":"right","StateId":"20252820","CountyId":"20291762","CityId":"20291777","DistrictId":"20291778"}}},{"Relevance":1.0,"Distance":42.2,"MatchLevel":"street","MatchQuality":{"Country":1.0,"State":1.0,"County":1.0,"City":1.0,"District":1.0,"Street":[1.0],"PostalCode":1.0},"Location":{"LocationId":"NT_OcnmcRsEeMy8g6KmVSQtNC_l_19197502_L","LocationType":"point","DisplayPosition":{"Latitude":56.47548,"Longitude":-3.03517},"MapView":{"TopLeft":{"Latitude":56.47582,"Longitude":-3.03517},"BottomRight":{"Latitude":56.47548,"Longitude":-3.03499}},"Address":{"Label":"Brownhill Road, Dundee, DD2 4, United Kingdom","Country":"GBR","State":"Scotland","County":"Angus","City":"Dundee","District":"Dundee","Street":"Brownhill Road","PostalCode":"DD2 4","AdditionalData":[{"value":"United Kingdom","key":"CountryName"},{"value":"Scotland","key":"StateName"},{"value":"Angus","key":"CountyName"}]},"MapReference":{"ReferenceId":"19197502","Spot":0.0,"SideOfStreet":"left","StateId":"20252820","CountyId":"20291762","CityId":"20291777","DistrictId":"20291778"}}},{"Relevance":1.0,"Distance":77.2,"MatchLevel":"houseNumber","MatchQuality":{"Country":1.0,"State":1.0,"County":1.0,"City":1.0,"District":1.0,"Street":[1.0],"HouseNumber":1.0,"PostalCode":1.0},"MatchType":"interpolated","Location":{"LocationId":"NT_OrG9du7CS9bp5ivF.VxOmA_l_19197526_R_xED","LocationType":"point","DisplayPosition":{"Latitude":56.4755379,"Longitude":-3.0369614},"MapView":{"TopLeft":{"Latitude":56.476662,"Longitude":-3.0389968},"BottomRight":{"Latitude":56.4744137,"Longitude":-3.034926}},"Address":{"Label":"11 Gourdie Crescent, Dundee, DD2 4, United Kingdom","Country":"GBR","State":"Scotland","County":"Angus","City":"Dundee","District":"Dundee","Street":"Gourdie Crescent","HouseNumber":"11","PostalCode":"DD2 4","AdditionalData":[{"value":"United Kingdom","key":"CountryName"},{"value":"Scotland","key":"StateName"},{"value":"Angus","key":"CountyName"}]},"MapReference":{"ReferenceId":"19197526","Spot":0.48,"SideOfStreet":"right","StateId":"20252820","CountyId":"20291762","CityId":"20291777","DistrictId":"20291778"}}},{"Relevance":1.0,"Distance":81.7,"MatchLevel":"houseNumber","MatchQuality":{"Country":1.0,"State":1.0,"County":1.0,"City":1.0,"District":1.0,"Street":[1.0],"HouseNumber":1.0,"PostalCode":1.0},"MatchType":"interpolated","Location":{"LocationId":"NT_SAXf4FvDClJwzMKEsWDdsB_l_19197456_L_3QD","LocationType":"point","DisplayPosition":{"Latitude":56.4757873,"Longitude":-3.0345727},"MapView":{"TopLeft":{"Latitude":56.4769114,"Longitude":-3.0366082},"BottomRight":{"Latitude":56.4746631,"Longitude":-3.0325373}},"Address":{"Label":"74 Buttars Road, Dundee, DD2 4LQ, United Kingdom","Country":"GBR","State":"Scotland","County":"Angus","City":"Dundee","District":"Dundee","Street":"Buttars Road","HouseNumber":"74","PostalCode":"DD2 4LQ","AdditionalData":[{"value":"United Kingdom","key":"CountryName"},{"value":"Scotland","key":"StateName"},{"value":"Angus","key":"CountyName"}]},"MapReference":{"ReferenceId":"19197456","Spot":0.82,"SideOfStreet":"left","StateId":"20252820","CountyId":"20291762","CityId":"20291777","DistrictId":"20291778"}}},{"Relevance":1.0,"Distance":85.1,"MatchLevel":"postalCode","MatchQuality":{"PostalCode":1.0},"MatchType":"interpolated","Location":{"LocationId":"NT_RoDt0mGcSs2XKHkul719rC_l_19197592_L_yA","LocationType":"point","DisplayPosition":{"Latitude":56.47519,"Longitude":-3.03424},"MapView":{"TopLeft":{"Latitude":56.4841832,"Longitude":-3.0505233},"BottomRight":{"Latitude":56.4661968,"Longitude":-3.0179567}},"Address":{"Label":"DD2 4QG, Dundee, Scotland, United Kingdom","Country":"GBR","State":"Scotland","County":"Angus","City":"Dundee","PostalCode":"DD2 4QG","AdditionalData":[{"value":"United Kingdom","key":"CountryName"},{"value":"Scotland","key":"StateName"},{"value":"Angus","key":"CountyName"}]},"MapReference":{"ReferenceId":"19197592","Spot":0.16,"SideOfStreet":"neither","StateId":"20252820","CountyId":"20291762","CityId":"20291777"}}}]}]}}