{"Response":{"MetaInfo":{"Timestamp":"2020-03-28T10:37:13.767+0000","NextPageInformation":"2"},"View":[{"_type":"SearchResultsViewType","ViewId":0,"Result":[{"Relevance":1.0,"Distance":0.0,"Direction":0.0,"MatchLevel":"district","MatchQuality":{"Country":1.0,"State":1.0,"County":1.0,"City":1.0,"District":1.0,"PostalCode":1.0},"Location":{"LocationId":"NT_kLHIKFJ7ooTcvrIzZYWByD","LocationType":"point","DisplayPosition":{"Latitude":56.4577731,"Longitude":-2.9762174},"MapView":{"TopLeft":{"Latitude":56.50189,"Longitude":-3.06289},"BottomRight":{"Latitude":56.45108,"Longitude":-2.87985}},"Address":{"Label":"Dundee, Scotland, United Kingdom","Country":"GBR","State":"Scotland","County":"Angus","City":"Dundee","District":"Dundee","PostalCode":"DD1 3","AdditionalData":[{"value":"United Kingdom","key":"CountryName"},{"value":"Scotland","key":"StateName"},{"value":"Angus","key":"CountyName"}]},"MapReference":{"ReferenceId":"19200790","SideOfStreet":"neither","StateId":"20252820","CountyId":"20291762","CityId":"20291777","DistrictId":"20291778"}}},{"Relevance":1.0,"Distance":1.9,"MatchLevel":"street","MatchQuality":{"Country":1.0,"State":1.0,"County":1.0,"City":1.0,"District":1.0,"PostalCode":1.0},"Location":{"LocationId":"NT_NfBysM4bzNAzckj6ymngkB_l_909324794_L","LocationType":"point","DisplayPosition":{"Latitude":56.4577897,"Longitude":-2.9762244},"MapView":{"TopLeft":{"Latitude":56.4578,"Longitude":-2.97639},"BottomRight":{"Latitude":56.45772,"Longitude":-2.9762}},"Address":{"Label":"Dundee, DD1 1, United Kingdom","Country":"GBR","State":"Scotland","County":"Angus","City":"Dundee","District":"Dundee","PostalCode":"DD1 1","AdditionalData":[{"value":"United Kingdom","key":"CountryName"},{"value":"Scotland","key":"StateName"},{"value":"Angus","key":"CountyName"}]},"MapReference":{"ReferenceId":"909324794","Spot":0.87,"SideOfStreet":"neither","StateId":"20252820","CountyId":"20291762","CityId":"20291777","DistrictId":"20291778"}}},{"Relevance":1.0,"Distance":3.0,"MatchLevel":"street","MatchQuality":{"Country":1.0,"State":1.0,"County":1.0,"City":1.0,"District":1.0,"PostalCode":1.0},"Location":{"LocationId":"NT_NfBysM4bzNAzckj6ymngkB_l_909324792_L","LocationType":"point","DisplayPosition":{"Latitude":56.4577972,"Longitude":-2.9761967},"MapView":{"TopLeft":{"Latitude":56.4578,"Longitude":-2.9762},"BottomRight":{"Latitude":56.45774,"Longitude":-2.97613}},"Address":{"Label":"Dundee, DD1 1, United Kingdom","Country":"GBR","State":"Scotland","County":"Angus","City":"Dundee","District":"Dundee","PostalCode":"DD1 1","AdditionalData":[{"value":"United Kingdom","key":"CountryName"},{"value":"Scotland","key":"StateName"},{"value":"Angus","key":"CountyName"}]},"MapReference":{"ReferenceId":"909324792","Spot":0.95,"SideOfStreet":"neither","StateId":"20252820","CountyId":"20291762","CityId":"20291777","DistrictId":"20291778"}}},{"Relevance":1.0,"Distance":3.2,"MatchLevel":"street","MatchQuality":{"Country":1.0,"State":1.0,"County":1.0,"City":1.0,"District":1.0,"PostalCode":1.0},"Location":{"LocationId":"NT_NfBysM4bzNAzckj6ymngkB_l_1160165202_L","LocationType":"point","DisplayPosition":{"Latitude":56.4578,"Longitude":-2.9762},"MapView":{"TopLeft":{"Latitude":56.45796,"Longitude":-2.9764},"BottomRight":{"Latitude":56.4578,"Longitude":-2.9762}},"Address":{"Label":"Dundee, DD1 1, United Kingdom","Country":"GBR","State":"Scotland","County":"Angus","City":"Dundee","District":"Dundee","PostalCode":"DD1 1","AdditionalData":[{"value":"United Kingdom","key":"CountryName"},{"value":"Scotland","key":"StateName"},{"value":"Angus","key":"CountyName"}]},"MapReference":{"ReferenceId":"1160165202","Spot":0.0,"SideOfStreet":"neither","StateId":"20252820","CountyId":"20291762","CityId":"20291777","DistrictId":"20291778"}}},{"Relevance":1.0,"Distance":6.5,"MatchLevel":"street","MatchQuality":{"Country":1.0,"State":1.0,"County":1.0,"City":1.0,"District":1.0,"Street":[1.0],"PostalCode":1.0},"Location":{"LocationId":"NT_tWz9GKMhUNDvcUU6M6BP1A_l_909240343_L","LocationType":"point","DisplayPosition":{"Latitude":56.45774,"Longitude":-2.97613},"MapView":{"TopLeft":{"Latitude":56.45793,"Longitude":-2.97613},"BottomRight":{"Latitude":56.45774,"Longitude":-2.97571}},"Address":{"Label":"Tay Square, Dundee, DD1 1, United Kingdom","Country":"GBR","State":"Scotland","County":"Angus","City":"Dundee","District":"Dundee","Street":"Tay Square","PostalCode":"DD1 1","AdditionalData":[{"value":"United Kingdom","key":"CountryName"},{"value":"Scotland","key":"StateName"},{"value":"Angus","key":"CountyName"}]},"MapReference":{"ReferenceId":"909240343","Spot":0.0,"SideOfStreet":"left","StateId":"20252820","CountyId":"20291762","CityId":"20291777","DistrictId":"20291778"}}},{"Relevance":1.0,"Distance":6.5,"MatchLevel":"street","MatchQuality":{"Country":1.0,"State":1.0,"County":1.0,"City":1.0,"District":1.0,"Street":[1.0],"PostalCode":1.0},"Location":{"LocationId":"NT_tWz9GKMhUNDvcUU6M6BP1A_l_909240342_L","LocationType":"point","DisplayPosition":{"Latitude":56.45774,"Longitude":-2.97613},"MapView":{"TopLeft":{"Latitude":56.45774,"Longitude":-2.97613},"BottomRight":{"Latitude":56.45764,"Longitude":-2.97602}},"Address":{"Label":"Tay Square, Dundee, DD1 1, United Kingdom","Country":"GBR","State":"Scotland","County":"Angus","City":"Dundee","District":"Dundee","Street":"Tay Square","PostalCode":"DD1 1","AdditionalData":[{"value":"United Kingdom","key":"CountryName"},{"value":"Scotland","key":"StateName"},{"value":"Angus","key":"CountyName"}]},"MapReference":{"ReferenceId":"909240342","Spot":1.0,"SideOfStreet":"left","StateId":"20252820","CountyId":"20291762","CityId":"20291777","DistrictId":"20291778"}}},{"Relevance":1.0,"Distance":12.1,"MatchLevel":"street","MatchQuality":{"Country":1.0,"State":1.0,"County":1.0,"City":1.0,"District":1.0,"PostalCode":1.0},"Location":{"LocationId":"NT_NfBysM4bzNAzckj6ymngkB_l_909324793_R","LocationType":"point","DisplayPosition":{"Latitude":56.45772,"Longitude":-2.97639},"MapView":{"TopLeft":{"Latitude":56.45772,"Longitude":-2.97683},"BottomRight":{"Latitude":56.45757,"Longitude":-2.97639}},"Address":{"Label":"Dundee, DD1 1, United Kingdom","Country":"GBR","State":"Scotland","County":"Angus","City":"Dundee","District":"Dundee","PostalCode":"DD1 1","AdditionalData":[{"value":"United Kingdom","key":"CountryName"},{"value":"Scotland","key":"StateName"},{"value":"Angus","key":"CountyName"}]},"MapReference":{"ReferenceId":"909324793","Spot":1.0,"SideOfStreet":"right","StateId":"20252820","CountyId":"20291762","CityId":"20291777","DistrictId":"20291778"}}},{"Relevance":1.0,"Distance":19.1,"MatchLevel":"street","MatchQuality":{"Country":1.0,"State":1.0,"County":1.0,"City":1.0,"District":1.0,"Street":[1.0],"PostalCode":1.0},"Location":{"LocationId":"NT_tWz9GKMhUNDvcUU6M6BP1A_l_841513948_L","LocationType":"point","DisplayPosition":{"Latitude":56.45764,"Longitude":-2.97602},"MapView":{"TopLeft":{"Latitude":56.45776,"Longitude":-2.97602},"BottomRight":{"Latitude":56.45758,"Longitude":-2.97548}},"Address":{"Label":"Tay Square, Dundee, DD1 1, United Kingdom","Country":"GBR","State":"Scotland","County":"Angus","City":"Dundee","District":"Dundee","Street":"Tay Square","PostalCode":"DD1 1","AdditionalData":[{"value":"United Kingdom","key":"CountryName"},{"value":"Scotland","key":"StateName"},{"value":"Angus","key":"CountyName"}]},"MapReference":{"ReferenceId":"841513948","Spot":0.0,"SideOfStreet":"left","StateId":"20252820","CountyId":"20291762","CityId":"20291777","DistrictId":"20291778"}}},{"Relevance":1.0,"Distance":22.9,"MatchLevel":"houseNumber","MatchQuality":{"Country":1.0,"State":1.0,"County":1.0,"City":1.0,"District":1.0,"Street":[1.0],"HouseNumber":1.0,"PostalCode":1.0},"MatchType":"interpolated","Location":{"LocationId":"NT_Lef4zy7CE1srW3L6AHTn4A_l_841513945_L_yAD","LocationType":"point","DisplayPosition":{"Latitude":56.458035,"Longitude":-2.975845},"MapView":{"TopLeft":{"Latitude":56.4591592,"Longitude":-2.9778795},"BottomRight":{"Latitude":56.4569109,"Longitude":-2.9738105}},"Address":{"Label":"20 South Tay Street, Dundee, DD1 1PD, United Kingdom","Country":"GBR","State":"Scotland","County":"Angus","City":"Dundee","District":"Dundee","Street":"South Tay Street","HouseNumber":"20","PostalCode":"DD1 1PD","AdditionalData":[{"value":"United Kingdom","key":"CountryName"},{"value":"Scotland","key":"StateName"},{"value":"Angus","key":"CountyName"}]},"MapReference":{"ReferenceId":"841513945","Spot":0.5,"SideOfStreet":"left","StateId":"20252820","CountyId":"20291762","CityId":"20291777","DistrictId":"20291778"}}},{"Relevance":1.0,"Distance":23.6,"MatchLevel":"street","MatchQuality":{"Country":1.0,"State":1.0,"County":1.0,"City":1.0,"District":1.0,"PostalCode":1.0},"Location":{"LocationId":"NT_NfBysM4bzNAzckj6ymngkB_l_1160165200_R","LocationType":"point","DisplayPosition":{"Latitude":56.45796,"Longitude":-2.9764},"MapView":{"TopLeft":{"Latitude":56.45796,"Longitude":-2.97649},"BottomRight":{"Latitude":56.45793,"Longitude":-2.9764}},"Address":{"Label":"Dundee, DD1 1, United Kingdom","Country":"GBR","State":"Scotland","County":"Angus","City":"Dundee","District":"Dundee","PostalCode":"DD1 1","AdditionalData":[{"value":"United Kingdom","key":"CountryName"},{"value":"Scotland","key":"StateName"},{"value":"Angus","key":"CountyName"}]},"MapReference":{"ReferenceId":"1160165200","Spot":1.0,"SideOfStreet":"right","StateId":"20252820","CountyId":"20291762","CityId":"20291777","DistrictId":"20291778"}}}]}]}}