{"Response":{"MetaInfo":{"Timestamp":"2020-03-28T10:39:19.276+0000","NextPageInformation":"2"},"View":[{"_type":"SearchResultsViewType","ViewId":0,"Result":[{"Relevance":1.0,"Distance":0.0,"Direction":0.0,"MatchLevel":"district","MatchQuality":{"Country":1.0,"State":1.0,"County":1.0,"City":1.0,"District":1.0,"PostalCode":1.0},"Location":{"LocationId":"NT_nuMpoUALP02NSiwMVJFnUC","LocationType":"point","DisplayPosition":{"Latitude":56.5615225,"Longitude":-2.5782707},"MapView":{"TopLeft":{"Latitude":56.57856,"Longitude":-2.63124},"BottomRight":{"Latitude":56.54485,"Longitude":-2.55825}},"Address":{"Label":"Arbroath, Scotland, United Kingdom","Country":"GBR","State":"Scotland","County":"Angus","City":"Arbroath","District":"Arbroath","PostalCode":"DD11 3","AdditionalData":[{"value":"United Kingdom","key":"CountryName"},{"value":"Scotland","key":"StateName"},{"value":"Angus","key":"CountyName"}]},"MapReference":{"ReferenceId":"19191550","SideOfStreet":"neither","StateId":"20252820","CountyId":"20291762","CityId":"20291763","DistrictId":"20291764"}}},{"Relevance":1.0,"Distance":17.9,"MatchLevel":"postalCode","MatchQuality":{"PostalCode":1.0},"MatchType":"interpolated","Location":{"LocationId":"NT_T9z7BiQJk5eVhfh2N3LVlD_l_19191699_R_3A","LocationType":"point","DisplayPosition":{"Latitude":56.5615,"Longitude":-2.57856},"MapView":{"TopLeft":{"Latitude":56.5704932,"Longitude":-2.5948804},"BottomRight":{"Latitude":56.5525068,"Longitude":-2.5622396}},"Address":{"Label":"DD11 1HD, Arbroath, Scotland, United Kingdom","Country":"GBR","State":"Scotland","County":"Angus","City":"Arbroath","PostalCode":"DD11 1HD","AdditionalData":[{"value":"United Kingdom","key":"CountryName"},{"value":"Scotland","key":"StateName"},{"value":"Angus","key":"CountyName"}]},"MapReference":{"ReferenceId":"19191699","Spot":0.6,"SideOfStreet":"neither","StateId":"20252820","CountyId":"20291762","CityId":"20291763"}}},{"Relevance":1.0,"Distance":27.2,"MatchLevel":"houseNumber","MatchQuality":{"Country":1.0,"State":1.0,"County":1.0,"City":1.0,"District":1.0,"Street":[1.0],"HouseNumber":1.0,"PostalCode":1.0},"MatchType":"interpolated","Location":{"LocationId":"NT_T9z7BiQJk5eVhfh2N3LVlD_l_19191699_R_3A","LocationType":"point","DisplayPosition":{"Latitude":56.5615025,"Longitude":-2.5787125},"MapView":{"TopLeft":{"Latitude":56.5626267,"Longitude":-2.5807525},"BottomRight":{"Latitude":56.5603784,"Longitude":-2.5766724}},"Address":{"Label":"7 Stuart Street, Arbroath, DD11 1HD, United Kingdom","Country":"GBR","State":"Scotland","County":"Angus","City":"Arbroath","District":"Arbroath","Street":"Stuart Street","HouseNumber":"7","PostalCode":"DD11 1HD","AdditionalData":[{"value":"United Kingdom","key":"CountryName"},{"value":"Scotland","key":"StateName"},{"value":"Angus","key":"CountyName"}]},"MapReference":{"ReferenceId":"19191699","Spot":0.6,"SideOfStreet":"right","StateId":"20252820","CountyId":"20291762","CityId":"20291763","DistrictId":"20291764"}}},{"Relevance":1.0,"Distance":42.4,"MatchLevel":"houseNumber","MatchQuality":{"Country":1.0,"State":1.0,"County":1.0,"City":1.0,"District":1.0,"Street":[1.0],"HouseNumber":1.0,"PostalCode":1.0},"MatchType":"interpolated","Location":{"LocationId":"NT_m6XyyWp6xpggsjQmEklmXA_l_19191662_R_0MD","LocationType":"point","DisplayPosition":{"Latitude":56.5619545,"Longitude":-2.5787544},"MapView":{"TopLeft":{"Latitude":56.5630786,"Longitude":-2.5807945},"BottomRight":{"Latitude":56.5608303,"Longitude":-2.5767143}},"Address":{"Label":"43 Abbot Street, Arbroath, DD11 1, United Kingdom","Country":"GBR","State":"Scotland","County":"Angus","City":"Arbroath","District":"Arbroath","Street":"Abbot Street","HouseNumber":"43","PostalCode":"DD11 1","AdditionalData":[{"value":"United Kingdom","key":"CountryName"},{"value":"Scotland","key":"StateName"},{"value":"Angus","key":"CountyName"}]},"MapReference":{"ReferenceId":"19191662","Spot":0.67,"SideOfStreet":"right","StateId":"20252820","CountyId":"20291762","CityId":"20291763","DistrictId":"20291764"}}},{"Relevance":1.0,"Distance":49.5,"MatchLevel":"houseNumber","MatchQuality":{"Country":1.0,"State":1.0,"County":1.0,"City":1.0,"District":1.0,"Street":[1.0],"HouseNumber":1.0,"PostalCode":1.0},"MatchType":"interpolated","Location":{"LocationId":"NT_u0bHh0kGt0aacF01BFFETD_l_19191776_R_zcD","LocationType":"point","DisplayPosition":{"Latitude":56.5610032,"Longitude":-2.5787405},"MapView":{"TopLeft":{"Latitude":56.5621273,"Longitude":-2.5807806},"BottomRight":{"Latitude":56.559879,"Longitude":-2.5767005}},"Address":{"Label":"37 Barber's Croft, Arbroath, DD11 1, United Kingdom","Country":"GBR","State":"Scotland","County":"Angus","City":"Arbroath","District":"Arbroath","Street":"Barber's Croft","HouseNumber":"37","PostalCode":"DD11 1","AdditionalData":[{"value":"United Kingdom","key":"CountryName"},{"value":"Scotland","key":"StateName"},{"value":"Angus","key":"CountyName"}]},"MapReference":{"ReferenceId":"19191776","Spot":0.76,"SideOfStreet":"right","StateId":"20252820","CountyId":"20291762","CityId":"20291763","DistrictId":"20291764"}}},{"Relevance":1.0,"Distance":53.3,"MatchLevel":"houseNumber","MatchQuality":{"Country":1.0,"State":1.0,"County":1.0,"City":1.0,"District":1.0,"Street":[1.0],"HouseNumber":1.0,"PostalCode":1.0},"MatchType":"interpolated","Location":{"LocationId":"NT_2IS-rePWbFxWoz37qxTy4D_l_19191718_L_xAD","LocationType":"point","DisplayPosition":{"Latitude":56.561265,"Longitude":-2.579005},"MapView":{"TopLeft":{"Latitude":56.5623892,"Longitude":-2.581045},"BottomRight":{"Latitude":56.5601409,"Longitude":-2.576965}},"Address":{"Label":"10 Convent Street, Arbroath, DD11 1HA, United Kingdom","Country":"GBR","State":"Scotland","County":"Angus","City":"Arbroath","District":"Arbroath","Street":"Convent Street","HouseNumber":"10","PostalCode":"DD11 1HA","AdditionalData":[{"value":"United Kingdom","key":"CountryName"},{"value":"Scotland","key":"StateName"},{"value":"Angus","key":"CountyName"}]},"MapReference":{"ReferenceId":"19191718","Spot":0.5,"SideOfStreet":"left","StateId":"20252820","CountyId":"20291762","CityId":"20291763","DistrictId":"20291764"}}},{"Relevance":1.0,"Distance":54.1,"MatchLevel":"street","MatchQuality":{"Country":1.0,"State":1.0,"County":1.0,"City":1.0,"District":1.0,"Street":[1.0],"PostalCode":1.0},"Location":{"LocationId":"NT_2IS-rePWbFxWoz37qxTy4D_l_19191700_R","LocationType":"point","DisplayPosition":{"Latitude":56.56139,"Longitude":-2.57912},"MapView":{"TopLeft":{"Latitude":56.56168,"Longitude":-2.57938},"BottomRight":{"Latitude":56.56139,"Longitude":-2.57912}},"Address":{"Label":"Convent Street, Arbroath, DD11 1, United Kingdom","Country":"GBR","State":"Scotland","County":"Angus","City":"Arbroath","District":"Arbroath","Street":"Convent Street","PostalCode":"DD11 1","AdditionalData":[{"value":"United Kingdom","key":"CountryName"},{"value":"Scotland","key":"StateName"},{"value":"Angus","key":"CountyName"}]},"MapReference":{"ReferenceId":"19191700","Spot":0.0,"SideOfStreet":"right","StateId":"20252820","CountyId":"20291762","CityId":"20291763","DistrictId":"20291764"}}},{"Relevance":1.0,"Distance":54.6,"MatchLevel":"postalCode","MatchQuality":{"PostalCode":1.0},"MatchType":"interpolated","Location":{"LocationId":"NT_u0bHh0kGt0aacF01BFFETD_l_19191776_R_zcD","LocationType":"point","DisplayPosition":{"Latitude":56.56112,"Longitude":-2.57878},"MapView":{"TopLeft":{"Latitude":56.5701132,"Longitude":-2.5951002},"BottomRight":{"Latitude":56.5521268,"Longitude":-2.5624598}},"Address":{"Label":"DD11 1HB, Arbroath, Scotland, United Kingdom","Country":"GBR","State":"Scotland","County":"Angus","City":"Arbroath","PostalCode":"DD11 1HB","AdditionalData":[{"value":"United Kingdom","key":"CountryName"},{"value":"Scotland","key":"StateName"},{"value":"Angus","key":"CountyName"}]},"MapReference":{"ReferenceId":"19191776","Spot":0.76,"SideOfStreet":"neither","StateId":"20252820","CountyId":"20291762","CityId":"20291763"}}},{"Relevance":1.0,"Distance":55.1,"MatchLevel":"postalCode","MatchQuality":{"PostalCode":1.0},"MatchType":"interpolated","Location":{"LocationId":"NT_m6XyyWp6xpggsjQmEklmXA_l_19191662_R_0MD","LocationType":"point","DisplayPosition":{"Latitude":56.56176,"Longitude":-2.57906},"MapView":{"TopLeft":{"Latitude":56.5707532,"Longitude":-2.5953805},"BottomRight":{"Latitude":56.5527668,"Longitude":-2.5627395}},"Address":{"Label":"DD11 1HH, Arbroath, Scotland, United Kingdom","Country":"GBR","State":"Scotland","County":"Angus","City":"Arbroath","PostalCode":"DD11 1HH","AdditionalData":[{"value":"United Kingdom","key":"CountryName"},{"value":"Scotland","key":"StateName"},{"value":"Angus","key":"CountyName"}]},"MapReference":{"ReferenceId":"19191662","Spot":0.67,"SideOfStreet":"neither","StateId":"20252820","CountyId":"20291762","CityId":"20291763"}}},{"Relevance":1.0,"Distance":75.6,"MatchLevel":"houseNumber","MatchQuality":{"Country":1.0,"State":1.0,"County":1.0,"City":1.0,"District":1.0,"Street":[1.0],"HouseNumber":1.0,"PostalCode":1.0},"MatchType":"interpolated","Location":{"LocationId":"NT_Y9Ec0o9OvIUnsXsgARBu0C_l_19191775_L_ygD","LocationType":"point","DisplayPosition":{"Latitude":56.5607792,"Longitude":-2.577681},"MapView":{"TopLeft":{"Latitude":56.5619033,"Longitude":-2.579721},"BottomRight":{"Latitude":56.559655,"Longitude":-2.575641}},"Address":{"Label":"28 Ponderlaw Street, Arbroath, DD11 1, United Kingdom","Country":"GBR","State":"Scotland","County":"Angus","City":"Arbroath","District":"Arbroath","Street":"Ponderlaw Street","HouseNumber":"28","PostalCode":"DD11 1","AdditionalData":[{"value":"United Kingdom","key":"CountryName"},{"value":"Scotland","key":"StateName"},{"value":"Angus","key":"CountyName"}]},"MapReference":{"ReferenceId":"19191775","Spot":0.39,"SideOfStreet":"left","StateId":"20252820","CountyId":"20291762","CityId":"20291763","DistrictId":"20291764"}}}]}]}}