{"Response":{"MetaInfo":{"Timestamp":"2020-03-28T10:37:59.092+0000","NextPageInformation":"2"},"View":[{"_type":"SearchResultsViewType","ViewId":0,"Result":[{"Relevance":1.0,"Distance":0.0,"Direction":0.0,"MatchLevel":"district","MatchQuality":{"Country":1.0,"State":1.0,"County":1.0,"City":1.0,"District":1.0,"PostalCode":1.0},"Location":{"LocationId":"NT_IcJqRRSp99LOFR378otoLD","LocationType":"point","DisplayPosition":{"Latitude":56.500729,"Longitude":-2.7347012},"MapView":{"TopLeft":{"Latitude":56.51177,"Longitude":-2.76374},"BottomRight":{"Latitude":56.49222,"Longitude":-2.69309}},"Address":{"Label":"Carnoustie, Scotland, United Kingdom","Country":"GBR","State":"Scotland","County":"Angus","City":"Carnoustie","District":"Carnoustie","PostalCode":"DD7 7","AdditionalData":[{"value":"United Kingdom","key":"CountryName"},{"value":"Scotland","key":"StateName"},{"value":"Angus","key":"CountyName"}]},"MapReference":{"ReferenceId":"19193827","SideOfStreet":"neither","StateId":"20252820","CountyId":"20291762","CityId":"20291773","DistrictId":"20291774"}}},{"Relevance":1.0,"Distance":74.3,"MatchLevel":"postalCode","MatchQuality":{"PostalCode":1.0},"Location":{"LocationId":"NT_.5Gzaw5bzHeqEkZcjD8.OC_l_792874023_L","LocationType":"point","DisplayPosition":{"Latitude":56.50009,"Longitude":-2.73435},"MapView":{"TopLeft":{"Latitude":56.5090832,"Longitude":-2.750644},"BottomRight":{"Latitude":56.4910968,"Longitude":-2.718056}},"Address":{"Label":"DD7 7RB, Carnoustie, Scotland, United Kingdom","Country":"GBR","State":"Scotland","County":"Angus","City":"Carnoustie","PostalCode":"DD7 7RB","AdditionalData":[{"value":"United Kingdom","key":"CountryName"},{"value":"Scotland","key":"StateName"},{"value":"Angus","key":"CountyName"}]},"MapReference":{"ReferenceId":"792874023","Spot":0.49,"SideOfStreet":"neither","StateId":"20252820","CountyId":"20291762","CityId":"20291773"}}},{"Relevance":1.0,"Distance":78.4,"MatchLevel":"street","MatchQuality":{"Country":1.0,"State":1.0,"County":1.0,"City":1.0,"District":1.0,"Street":[1.0],"PostalCode":1.0},"Location":{"LocationId":"NT_.5Gzaw5bzHeqEkZcjD8.OC_l_792874023_L","LocationType":"point","DisplayPosition":{"Latitude":56.500024,"Longitude":-2.7346654},"MapView":{"TopLeft":{"Latitude":56.50007,"Longitude":-2.73553},"BottomRight":{"Latitude":56.49998,"Longitude":-2.73376}},"Address":{"Label":"Barry Road, Carnoustie, DD7 7, United Kingdom","Country":"GBR","State":"Scotland","County":"Angus","City":"Carnoustie","District":"Carnoustie","Street":"Barry Road","PostalCode":"DD7 7","AdditionalData":[{"value":"United Kingdom","key":"CountryName"},{"value":"Scotland","key":"StateName"},{"value":"Angus","key":"CountyName"}]},"MapReference":{"ReferenceId":"792874023","Spot":0.49,"SideOfStreet":"left","StateId":"20252820","CountyId":"20291762","CityId":"20291773","DistrictId":"20291774"}}},{"Relevance":1.0,"Distance":93.3,"MatchLevel":"street","MatchQuality":{"Country":1.0,"State":1.0,"County":1.0,"City":1.0,"District":1.0,"Street":[1.0],"PostalCode":1.0},"Location":{"LocationId":"NT_.5Gzaw5bzHeqEkZcjD8.OC_l_792874024_L","LocationType":"point","DisplayPosition":{"Latitude":56.50007,"Longitude":-2.73376},"MapView":{"TopLeft":{"Latitude":56.50011,"Longitude":-2.73376},"BottomRight":{"Latitude":56.50007,"Longitude":-2.73303}},"Address":{"Label":"Barry Road, Carnoustie, DD7 7, United Kingdom","Country":"GBR","State":"Scotland","County":"Angus","City":"Carnoustie","District":"Carnoustie","Street":"Barry Road","PostalCode":"DD7 7","AdditionalData":[{"value":"United Kingdom","key":"CountryName"},{"value":"Scotland","key":"StateName"},{"value":"Angus","key":"CountyName"}]},"MapReference":{"ReferenceId":"792874024","Spot":0.0,"SideOfStreet":"left","StateId":"20252820","CountyId":"20291762","CityId":"20291773","DistrictId":"20291774"}}},{"Relevance":1.0,"Distance":97.6,"MatchLevel":"street","MatchQuality":{"Country":1.0,"State":1.0,"County":1.0,"City":1.0,"District":1.0,"Street":[1.0],"PostalCode":1.0},"Location":{"LocationId":"NT_kirjHr7WL.5s8gJjOoeopB_l_19193955_R","LocationType":"point","DisplayPosition":{"Latitude":56.49998,"Longitude":-2.73553},"MapView":{"TopLeft":{"Latitude":56.49998,"Longitude":-2.73553},"BottomRight":{"Latitude":56.49929,"Longitude":-2.73515}},"Address":{"Label":"James Street, Carnoustie, DD7 7, United Kingdom","Country":"GBR","State":"Scotland","County":"Angus","City":"Carnoustie","District":"Carnoustie","Street":"James Street","PostalCode":"DD7 7","AdditionalData":[{"value":"United Kingdom","key":"CountryName"},{"value":"Scotland","key":"StateName"},{"value":"Angus","key":"CountyName"}]},"MapReference":{"ReferenceId":"19193955","Spot":1.0,"SideOfStreet":"right","StateId":"20252820","CountyId":"20291762","CityId":"20291773","DistrictId":"20291774"}}},{"Relevance":1.0,"Distance":97.6,"MatchLevel":"street","MatchQuality":{"Country":1.0,"State":1.0,"County":1.0,"City":1.0,"District":1.0,"Street":[1.0],"PostalCode":1.0},"Location":{"LocationId":"NT_jnj5ciLIuV4ZXNW-6x6yTB_l_19193898_L","LocationType":"point","DisplayPosition":{"Latitude":56.49998,"Longitude":-2.73553},"MapView":{"TopLeft":{"Latitude":56.49998,"Longitude":-2.73914},"BottomRight":{"Latitude":56.49985,"Longitude":-2.73553}},"Address":{"Label":"Barry Road, Carnoustie, DD7 7, United Kingdom","Country":"GBR","State":"Scotland","County":"Angus","City":"Carnoustie","District":"Carnoustie","Street":"Barry Road","PostalCode":"DD7 7","AdditionalData":[{"value":"United Kingdom","key":"CountryName"},{"value":"Scotland","key":"StateName"},{"value":"Angus","key":"CountyName"}]},"MapReference":{"ReferenceId":"19193898","Spot":1.0,"SideOfStreet":"left","StateId":"20252820","CountyId":"20291762","CityId":"20291773","DistrictId":"20291774"}}},{"Relevance":1.0,"Distance":103.3,"MatchLevel":"postalCode","MatchQuality":{"PostalCode":1.0},"Location":{"LocationId":"NT_jnj5ciLIuV4ZXNW-6x6yTB_l_19193898_L","LocationType":"point","DisplayPosition":{"Latitude":56.50002,"Longitude":-2.73579},"MapView":{"TopLeft":{"Latitude":56.5090132,"Longitude":-2.7520839},"BottomRight":{"Latitude":56.4910268,"Longitude":-2.7194961}},"Address":{"Label":"DD7 7QU, Carnoustie, Scotland, United Kingdom","Country":"GBR","State":"Scotland","County":"Angus","City":"Carnoustie","PostalCode":"DD7 7QU","AdditionalData":[{"value":"United Kingdom","key":"CountryName"},{"value":"Scotland","key":"StateName"},{"value":"Angus","key":"CountyName"}]},"MapReference":{"ReferenceId":"19193898","Spot":1.0,"SideOfStreet":"neither","StateId":"20252820","CountyId":"20291762","CityId":"20291773"}}},{"Relevance":1.0,"Distance":123.5,"MatchLevel":"street","MatchQuality":{"Country":1.0,"State":1.0,"County":1.0,"City":1.0,"District":1.0,"Street":[1.0],"PostalCode":1.0},"Location":{"LocationId":"NT_Asy8mCTt.jAuUYJ9ph0UlA_l_19193943_L","LocationType":"point","DisplayPosition":{"Latitude":56.50011,"Longitude":-2.73303},"MapView":{"TopLeft":{"Latitude":56.50011,"Longitude":-2.73303},"BottomRight":{"Latitude":56.49943,"Longitude":-2.7329}},"Address":{"Label":"Maclagan Road, Carnoustie, DD7 7, United Kingdom","Country":"GBR","State":"Scotland","County":"Angus","City":"Carnoustie","District":"Carnoustie","Street":"Maclagan Road","PostalCode":"DD7 7","AdditionalData":[{"value":"United Kingdom","key":"CountryName"},{"value":"Scotland","key":"StateName"},{"value":"Angus","key":"CountyName"}]},"MapReference":{"ReferenceId":"19193943","Spot":1.0,"SideOfStreet":"left","StateId":"20252820","CountyId":"20291762","CityId":"20291773","DistrictId":"20291774"}}},{"Relevance":1.0,"Distance":141.5,"MatchLevel":"street","MatchQuality":{"Country":1.0,"State":1.0,"County":1.0,"City":1.0,"District":1.0,"Street":[1.0],"PostalCode":1.0},"Location":{"LocationId":"NT_Xihq9keGeh1-djy43.8ucB_l_931748452_L","LocationType":"point","DisplayPosition":{"Latitude":56.5018599,"Longitude":-2.7336441},"MapView":{"TopLeft":{"Latitude":56.50223,"Longitude":-2.73404},"BottomRight":{"Latitude":56.50128,"Longitude":-2.73281}},"Address":{"Label":"Pitskelly Road, Carnoustie, DD7 7, United Kingdom","Country":"GBR","State":"Scotland","County":"Angus","City":"Carnoustie","District":"Carnoustie","Street":"Pitskelly Road","PostalCode":"DD7 7","AdditionalData":[{"value":"United Kingdom","key":"CountryName"},{"value":"Scotland","key":"StateName"},{"value":"Angus","key":"CountyName"}]},"MapReference":{"ReferenceId":"931748452","Spot":0.65,"SideOfStreet":"left","StateId":"20252820","CountyId":"20291762","CityId":"20291773","DistrictId":"20291774"}}},{"Relevance":1.0,"Distance":148.3,"MatchLevel":"postalCode","MatchQuality":{"PostalCode":1.0},"Location":{"LocationId":"NT_kirjHr7WL.5s8gJjOoeopB_l_19193955_R","LocationType":"point","DisplayPosition":{"Latitude":56.49942,"Longitude":-2.73516},"MapView":{"TopLeft":{"Latitude":56.5084132,"Longitude":-2.7514537},"BottomRight":{"Latitude":56.4904268,"Longitude":-2.7188663}},"Address":{"Label":"DD7 7LJ, Carnoustie, Scotland, United Kingdom","Country":"GBR","State":"Scotland","County":"Angus","City":"Carnoustie","PostalCode":"DD7 7LJ","AdditionalData":[{"value":"United Kingdom","key":"CountryName"},{"value":"Scotland","key":"StateName"},{"value":"Angus","key":"CountyName"}]},"MapReference":{"ReferenceId":"19193955","Spot":1.0,"SideOfStreet":"neither","StateId":"20252820","CountyId":"20291762","CityId":"20291773"}}}]}]}}