{"Response":{"MetaInfo":{"Timestamp":"2020-03-28T11:28:26.738+0000","NextPageInformation":"2"},"View":[{"_type":"SearchResultsViewType","ViewId":0,"Result":[{"Relevance":1.0,"Distance":0.0,"Direction":0.0,"MatchLevel":"city","MatchQuality":{"Country":1.0,"County":1.0,"City":1.0,"PostalCode":1.0},"Location":{"LocationId":"NT_aVhgEvdzCC8IquCfVAYqlD","LocationType":"point","DisplayPosition":{"Latitude":56.543121,"Longitude":27.714591},"MapView":{"TopLeft":{"Latitude":56.56605,"Longitude":27.6783},"BottomRight":{"Latitude":56.52067,"Longitude":27.74656}},"Address":{"Label":"Ludza, Latvija","Country":"LVA","County":"Ludzas novads","City":"Ludza","PostalCode":"5701","AdditionalData":[{"value":"Latvija","key":"CountryName"},{"value":"Ludzas novads","key":"CountyName"}]},"MapReference":{"ReferenceId":"750482332","SideOfStreet":"neither","CountryId":"20633737","CountyId":"23781932","CityId":"23273864"}}},{"Relevance":1.0,"Distance":43.9,"MatchLevel":"houseNumber","MatchQuality":{"Country":1.0,"County":1.0,"City":1.0,"Street":[1.0],"HouseNumber":1.0,"PostalCode":1.0},"MatchType":"interpolated","Location":{"LocationId":"NT_Ky7i7yrnJyhvsAmExK5R-D_0MD","LocationType":"point","DisplayPosition":{"Latitude":56.54248,"Longitude":27.7146},"MapView":{"TopLeft":{"Latitude":56.5436042,"Longitude":27.712561},"BottomRight":{"Latitude":56.5413558,"Longitude":27.716639}},"Address":{"Label":"Raiņa iela 43, Ludza, LV-5701, Latvija","Country":"LVA","County":"Ludzas novads","City":"Ludza","Street":"Raiņa iela","HouseNumber":"43","PostalCode":"5701","AdditionalData":[{"value":"Latvija","key":"CountryName"},{"value":"Ludzas novads","key":"CountyName"}]},"MapReference":{"ReferenceId":"750566831","Spot":0.94,"SideOfStreet":"left","CountryId":"20633737","CountyId":"23781932","CityId":"23273864","AddressId":"378650102","RoadLinkId":"146925544"}}},{"Relevance":1.0,"Distance":44.3,"MatchLevel":"street","MatchQuality":{"Country":1.0,"County":1.0,"City":1.0,"PostalCode":1.0},"Location":{"LocationId":"NT_NH-YRuuK6E.7II882-iGiB_l_1049750540_R","LocationType":"point","DisplayPosition":{"Latitude":56.54305,"Longitude":27.71388},"MapView":{"TopLeft":{"Latitude":56.54344,"Longitude":27.7126},"BottomRight":{"Latitude":56.54248,"Longitude":27.71388}},"Address":{"Label":"Ludza, LV-5701, Latvija","Country":"LVA","County":"Ludzas novads","City":"Ludza","PostalCode":"5701","AdditionalData":[{"value":"Latvija","key":"CountryName"},{"value":"Ludzas novads","key":"CountyName"}]},"MapReference":{"ReferenceId":"1049750540","Spot":0.7,"SideOfStreet":"right","CountryId":"20633737","CountyId":"23781932","CityId":"23273864"}}},{"Relevance":1.0,"Distance":47.6,"MatchLevel":"houseNumber","MatchQuality":{"Country":1.0,"County":1.0,"City":1.0,"Street":[1.0],"HouseNumber":1.0,"PostalCode":1.0},"MatchType":"interpolated","Location":{"LocationId":"NT_Ky7i7yrnJyhvsAmExK5R-D_0ED","LocationType":"point","DisplayPosition":{"Latitude":56.54286,"Longitude":27.71545},"MapView":{"TopLeft":{"Latitude":56.5439842,"Longitude":27.713411},"BottomRight":{"Latitude":56.5417358,"Longitude":27.717489}},"Address":{"Label":"Raiņa iela 41, Ludza, LV-5701, Latvija","Country":"LVA","County":"Ludzas novads","City":"Ludza","Street":"Raiņa iela","HouseNumber":"41","PostalCode":"5701","AdditionalData":[{"value":"Latvija","key":"CountryName"},{"value":"Ludzas novads","key":"CountyName"}]},"MapReference":{"ReferenceId":"750645856","Spot":0.62,"SideOfStreet":"left","CountryId":"20633737","CountyId":"23781932","CityId":"23273864","AddressId":"378650101","RoadLinkId":"146990722"}}},{"Relevance":1.0,"Distance":68.1,"MatchLevel":"street","MatchQuality":{"Country":1.0,"County":1.0,"City":1.0,"PostalCode":1.0},"Location":{"LocationId":"NT_NH-YRuuK6E.7II882-iGiB_l_750564988_R","LocationType":"point","DisplayPosition":{"Latitude":56.54251,"Longitude":27.71467},"MapView":{"TopLeft":{"Latitude":56.54251,"Longitude":27.71467},"BottomRight":{"Latitude":56.54156,"Longitude":27.71618}},"Address":{"Label":"Ludza, LV-5701, Latvija","Country":"LVA","County":"Ludzas novads","City":"Ludza","PostalCode":"5701","AdditionalData":[{"value":"Latvija","key":"CountryName"},{"value":"Ludzas novads","key":"CountyName"}]},"MapReference":{"ReferenceId":"750564988","Spot":1.0,"SideOfStreet":"right","CountryId":"20633737","CountyId":"23781932","CityId":"23273864"}}},{"Relevance":1.0,"Distance":75.4,"MatchLevel":"houseNumber","MatchQuality":{"Country":1.0,"County":1.0,"City":1.0,"Street":[1.0],"HouseNumber":1.0,"PostalCode":1.0},"MatchType":"interpolated","Location":{"LocationId":"NT_h1OnjI-sflZW9XM8DvBAnB_zAD","LocationType":"point","DisplayPosition":{"Latitude":56.54372,"Longitude":27.71543},"MapView":{"TopLeft":{"Latitude":56.5448442,"Longitude":27.7133909},"BottomRight":{"Latitude":56.5425958,"Longitude":27.7174691}},"Address":{"Label":"Stroda iela 30, Ludza, LV-5701, Latvija","Country":"LVA","County":"Ludzas novads","City":"Ludza","Street":"Stroda iela","HouseNumber":"30","PostalCode":"5701","AdditionalData":[{"value":"Latvija","key":"CountryName"},{"value":"Ludzas novads","key":"CountyName"}]},"MapReference":{"ReferenceId":"750627933","Spot":0.33,"SideOfStreet":"left","CountryId":"20633737","CountyId":"23781932","CityId":"23273864","AddressId":"325068801","RoadLinkId":"146947939"}}},{"Relevance":1.0,"Distance":103.9,"MatchLevel":"houseNumber","MatchQuality":{"Country":1.0,"County":1.0,"City":1.0,"Street":[1.0],"HouseNumber":1.0,"PostalCode":1.0},"MatchType":"interpolated","Location":{"LocationId":"NT_Ky7i7yrnJyhvsAmExK5R-D_yYTY","LocationType":"point","DisplayPosition":{"Latitude":56.5432,"Longitude":27.71628},"MapView":{"TopLeft":{"Latitude":56.5443242,"Longitude":27.7142409},"BottomRight":{"Latitude":56.5420758,"Longitude":27.7183191}},"Address":{"Label":"Raiņa iela 26a, Ludza, LV-5701, Latvija","Country":"LVA","County":"Ludzas novads","City":"Ludza","Street":"Raiņa iela","HouseNumber":"26a","PostalCode":"5701","AdditionalData":[{"value":"Latvija","key":"CountryName"},{"value":"Ludzas novads","key":"CountyName"}]},"MapReference":{"ReferenceId":"1232528284","Spot":0.72,"SideOfStreet":"right","CountryId":"20633737","CountyId":"23781932","CityId":"23273864","AddressId":"325061811","RoadLinkId":"552499045"}}},{"Relevance":1.0,"Distance":120.4,"MatchLevel":"houseNumber","MatchQuality":{"Country":1.0,"County":1.0,"City":1.0,"Street":[1.0],"HouseNumber":1.0,"PostalCode":1.0},"MatchType":"interpolated","Location":{"LocationId":"NT_h1OnjI-sflZW9XM8DvBAnB_0AD","LocationType":"point","DisplayPosition":{"Latitude":56.54266,"Longitude":27.71657},"MapView":{"TopLeft":{"Latitude":56.5437842,"Longitude":27.714531},"BottomRight":{"Latitude":56.5415358,"Longitude":27.718609}},"Address":{"Label":"Stroda iela 40, Ludza, LV-5701, Latvija","Country":"LVA","County":"Ludzas novads","City":"Ludza","Street":"Stroda iela","HouseNumber":"40","PostalCode":"5701","AdditionalData":[{"value":"Latvija","key":"CountryName"},{"value":"Ludzas novads","key":"CountyName"}]},"MapReference":{"ReferenceId":"750591911","Spot":0.04,"SideOfStreet":"left","CountryId":"20633737","CountyId":"23781932","CityId":"23273864","AddressId":"325212837","RoadLinkId":"147039014"}}},{"Relevance":1.0,"Distance":130.0,"MatchLevel":"houseNumber","MatchQuality":{"Country":1.0,"County":1.0,"City":1.0,"Street":[1.0],"HouseNumber":1.0,"PostalCode":1.0},"MatchType":"interpolated","Location":{"LocationId":"NT_Ky7i7yrnJyhvsAmExK5R-D_zUD","LocationType":"point","DisplayPosition":{"Latitude":56.54336,"Longitude":27.71674},"MapView":{"TopLeft":{"Latitude":56.5444842,"Longitude":27.7147009},"BottomRight":{"Latitude":56.5422358,"Longitude":27.7187791}},"Address":{"Label":"Raiņa iela 35, Ludza, LV-5701, Latvija","Country":"LVA","County":"Ludzas novads","City":"Ludza","Street":"Raiņa iela","HouseNumber":"35","PostalCode":"5701","AdditionalData":[{"value":"Latvija","key":"CountryName"},{"value":"Ludzas novads","key":"CountyName"}]},"MapReference":{"ReferenceId":"1232528285","Spot":0.14,"SideOfStreet":"left","CountryId":"20633737","CountyId":"23781932","CityId":"23273864","AddressId":"325061819","RoadLinkId":"552499046"}}},{"Relevance":1.0,"Distance":132.4,"MatchLevel":"street","MatchQuality":{"Country":1.0,"County":1.0,"City":1.0,"PostalCode":1.0},"Location":{"LocationId":"NT_NH-YRuuK6E.7II882-iGiB_l_750699033_R","LocationType":"point","DisplayPosition":{"Latitude":56.54193,"Longitude":27.71457},"MapView":{"TopLeft":{"Latitude":56.54193,"Longitude":27.71395},"BottomRight":{"Latitude":56.54117,"Longitude":27.71571}},"Address":{"Label":"Ludza, LV-5701, Latvija","Country":"LVA","County":"Ludzas novads","City":"Ludza","PostalCode":"5701","AdditionalData":[{"value":"Latvija","key":"CountryName"},{"value":"Ludzas novads","key":"CountyName"}]},"MapReference":{"ReferenceId":"750699033","Spot":0.67,"SideOfStreet":"right","CountryId":"20633737","CountyId":"23781932","CityId":"23273864"}}}]}]}}