{"Response":{"MetaInfo":{"Timestamp":"2020-03-28T11:15:10.261+0000","NextPageInformation":"2"},"View":[{"_type":"SearchResultsViewType","ViewId":0,"Result":[{"Relevance":1.0,"Distance":0.0,"Direction":0.0,"MatchLevel":"district","MatchQuality":{"Country":1.0,"State":1.0,"County":1.0,"City":1.0,"District":1.0,"PostalCode":1.0},"Location":{"LocationId":"NT_nuMpoUALP02NSiwMVJFnUC","LocationType":"point","DisplayPosition":{"Latitude":56.5548323,"Longitude":-2.5986635},"MapView":{"TopLeft":{"Latitude":56.57856,"Longitude":-2.63124},"BottomRight":{"Latitude":56.54485,"Longitude":-2.55825}},"Address":{"Label":"Arbroath, Scotland, United Kingdom","Country":"GBR","State":"Scotland","County":"Angus","City":"Arbroath","District":"Arbroath","PostalCode":"DD11 3","AdditionalData":[{"value":"United Kingdom","key":"CountryName"},{"value":"Scotland","key":"StateName"},{"value":"Angus","key":"CountyName"}]},"MapReference":{"ReferenceId":"19191550","SideOfStreet":"neither","StateId":"20252820","CountyId":"20291762","CityId":"20291763","DistrictId":"20291764"}}},{"Relevance":1.0,"Distance":5.2,"MatchLevel":"street","MatchQuality":{"Country":1.0,"State":1.0,"County":1.0,"City":1.0,"District":1.0,"Street":[1.0],"PostalCode":1.0},"Location":{"LocationId":"NT_hND1O1swWAnaaa-sSipXtA_l_19192217_R","LocationType":"point","DisplayPosition":{"Latitude":56.5547917,"Longitude":-2.598706},"MapView":{"TopLeft":{"Latitude":56.55489,"Longitude":-2.5988},"BottomRight":{"Latitude":56.55432,"Longitude":-2.59829}},"Address":{"Label":"Viewfield Road, Arbroath, DD11 2, United Kingdom","Country":"GBR","State":"Scotland","County":"Angus","City":"Arbroath","District":"Arbroath","Street":"Viewfield Road","PostalCode":"DD11 2","AdditionalData":[{"value":"United Kingdom","key":"CountryName"},{"value":"Scotland","key":"StateName"},{"value":"Angus","key":"CountyName"}]},"MapReference":{"ReferenceId":"19192217","Spot":0.82,"SideOfStreet":"right","StateId":"20252820","CountyId":"20291762","CityId":"20291763","DistrictId":"20291764"}}},{"Relevance":1.0,"Distance":10.3,"MatchLevel":"houseNumber","MatchQuality":{"Country":1.0,"State":1.0,"County":1.0,"City":1.0,"District":1.0,"Street":[1.0],"HouseNumber":1.0,"PostalCode":1.0},"MatchType":"interpolated","Location":{"LocationId":"NT_.4YhmanRbF3z9d1lmT0GTC_l_19192186_R_yA","LocationType":"point","DisplayPosition":{"Latitude":56.55495,"Longitude":-2.59858},"MapView":{"TopLeft":{"Latitude":56.5560742,"Longitude":-2.6006197},"BottomRight":{"Latitude":56.5538259,"Longitude":-2.5965403}},"Address":{"Label":"2 Roseberry Place, Arbroath, DD11 2AW, United Kingdom","Country":"GBR","State":"Scotland","County":"Angus","City":"Arbroath","District":"Arbroath","Street":"Roseberry Place","HouseNumber":"2","PostalCode":"DD11 2AW","AdditionalData":[{"value":"United Kingdom","key":"CountryName"},{"value":"Scotland","key":"StateName"},{"value":"Angus","key":"CountyName"}]},"MapReference":{"ReferenceId":"19192186","Spot":0.16,"SideOfStreet":"right","StateId":"20252820","CountyId":"20291762","CityId":"20291763","DistrictId":"20291764"}}},{"Relevance":1.0,"Distance":24.0,"MatchLevel":"houseNumber","MatchQuality":{"Country":1.0,"State":1.0,"County":1.0,"City":1.0,"District":1.0,"Street":[1.0],"HouseNumber":1.0,"PostalCode":1.0},"MatchType":"interpolated","Location":{"LocationId":"NT_hND1O1swWAnaaa-sSipXtA_l_19192187_R_0YD","LocationType":"point","DisplayPosition":{"Latitude":56.5550001,"Longitude":-2.5989101},"MapView":{"TopLeft":{"Latitude":56.5561242,"Longitude":-2.6009498},"BottomRight":{"Latitude":56.5538759,"Longitude":-2.5968704}},"Address":{"Label":"46 Viewfield Road, Arbroath, DD11 2, United Kingdom","Country":"GBR","State":"Scotland","County":"Angus","City":"Arbroath","District":"Arbroath","Street":"Viewfield Road","HouseNumber":"46","PostalCode":"DD11 2","AdditionalData":[{"value":"United Kingdom","key":"CountryName"},{"value":"Scotland","key":"StateName"},{"value":"Angus","key":"CountyName"}]},"MapReference":{"ReferenceId":"19192187","Spot":0.1,"SideOfStreet":"right","StateId":"20252820","CountyId":"20291762","CityId":"20291763","DistrictId":"20291764"}}},{"Relevance":1.0,"Distance":37.4,"MatchLevel":"houseNumber","MatchQuality":{"Country":1.0,"State":1.0,"County":1.0,"City":1.0,"District":1.0,"Street":[1.0],"HouseNumber":1.0,"PostalCode":1.0},"MatchType":"interpolated","Location":{"LocationId":"NT_YAQACAMTxqn7NvHHTmxZpA_l_19192199_R_yA","LocationType":"point","DisplayPosition":{"Latitude":56.55482,"Longitude":-2.5992733},"MapView":{"TopLeft":{"Latitude":56.5559442,"Longitude":-2.601313},"BottomRight":{"Latitude":56.5536958,"Longitude":-2.5972336}},"Address":{"Label":"2 Monkbarns Drive, Arbroath, DD11 2DS, United Kingdom","Country":"GBR","State":"Scotland","County":"Angus","City":"Arbroath","District":"Arbroath","Street":"Monkbarns Drive","HouseNumber":"2","PostalCode":"DD11 2DS","AdditionalData":[{"value":"United Kingdom","key":"CountryName"},{"value":"Scotland","key":"StateName"},{"value":"Angus","key":"CountyName"}]},"MapReference":{"ReferenceId":"19192199","Spot":0.6,"SideOfStreet":"right","StateId":"20252820","CountyId":"20291762","CityId":"20291763","DistrictId":"20291764"}}},{"Relevance":1.0,"Distance":59.7,"MatchLevel":"postalCode","MatchQuality":{"PostalCode":1.0},"MatchType":"interpolated","Location":{"LocationId":"NT_.4YhmanRbF3z9d1lmT0GTC_l_19192186_R_yA","LocationType":"point","DisplayPosition":{"Latitude":56.55522,"Longitude":-2.59799},"MapView":{"TopLeft":{"Latitude":56.5642132,"Longitude":-2.6143077},"BottomRight":{"Latitude":56.5462268,"Longitude":-2.5816723}},"Address":{"Label":"DD11 2AW, Arbroath, Scotland, United Kingdom","Country":"GBR","State":"Scotland","County":"Angus","City":"Arbroath","PostalCode":"DD11 2AW","AdditionalData":[{"value":"United Kingdom","key":"CountryName"},{"value":"Scotland","key":"StateName"},{"value":"Angus","key":"CountyName"}]},"MapReference":{"ReferenceId":"19192186","Spot":0.16,"SideOfStreet":"neither","StateId":"20252820","CountyId":"20291762","CityId":"20291763"}}},{"Relevance":1.0,"Distance":61.4,"MatchLevel":"street","MatchQuality":{"Country":1.0,"State":1.0,"County":1.0,"City":1.0,"District":1.0,"Street":[1.0],"PostalCode":1.0},"Location":{"LocationId":"NT_BdNnQyU2BfSobFnLaGTKZB_l_19331225_L","LocationType":"point","DisplayPosition":{"Latitude":56.55432,"Longitude":-2.59829},"MapView":{"TopLeft":{"Latitude":56.55432,"Longitude":-2.59846},"BottomRight":{"Latitude":56.55323,"Longitude":-2.59826}},"Address":{"Label":"Dundee Road, Arbroath, DD11 2, United Kingdom","Country":"GBR","State":"Scotland","County":"Angus","City":"Arbroath","District":"Arbroath","Street":"Dundee Road","PostalCode":"DD11 2","AdditionalData":[{"value":"United Kingdom","key":"CountryName"},{"value":"Scotland","key":"StateName"},{"value":"Angus","key":"CountyName"}]},"MapReference":{"ReferenceId":"19331225","Spot":1.0,"SideOfStreet":"left","StateId":"20252820","CountyId":"20291762","CityId":"20291763","DistrictId":"20291764"}}},{"Relevance":1.0,"Distance":61.4,"MatchLevel":"street","MatchQuality":{"Country":1.0,"State":1.0,"County":1.0,"City":1.0,"District":1.0,"Street":[1.0],"PostalCode":1.0},"Location":{"LocationId":"NT_ITlgS.jTbozbTQoEE-FdJB_l_19192223_R","LocationType":"point","DisplayPosition":{"Latitude":56.55432,"Longitude":-2.59829},"MapView":{"TopLeft":{"Latitude":56.55432,"Longitude":-2.59829},"BottomRight":{"Latitude":56.55404,"Longitude":-2.59727}},"Address":{"Label":"Infirmary Brae, Arbroath, DD11 2, United Kingdom","Country":"GBR","State":"Scotland","County":"Angus","City":"Arbroath","District":"Arbroath","Street":"Infirmary Brae","PostalCode":"DD11 2","AdditionalData":[{"value":"United Kingdom","key":"CountryName"},{"value":"Scotland","key":"StateName"},{"value":"Angus","key":"CountyName"}]},"MapReference":{"ReferenceId":"19192223","Spot":1.0,"SideOfStreet":"right","StateId":"20252820","CountyId":"20291762","CityId":"20291763","DistrictId":"20291764"}}},{"Relevance":1.0,"Distance":79.0,"MatchLevel":"houseNumber","MatchQuality":{"Country":1.0,"State":1.0,"County":1.0,"City":1.0,"District":1.0,"Street":[1.0],"HouseNumber":1.0,"PostalCode":1.0},"MatchType":"interpolated","Location":{"LocationId":"NT_b3DY.a6ZsJarSqQOBmmpnC_l_19192200_R_xYD","LocationType":"point","DisplayPosition":{"Latitude":56.5548501,"Longitude":-2.60008},"MapView":{"TopLeft":{"Latitude":56.5559742,"Longitude":-2.6021197},"BottomRight":{"Latitude":56.5537259,"Longitude":-2.5980404}},"Address":{"Label":"16 Monkbarns Avenue, Arbroath, DD11 2, United Kingdom","Country":"GBR","State":"Scotland","County":"Angus","City":"Arbroath","District":"Arbroath","Street":"Monkbarns Avenue","HouseNumber":"16","PostalCode":"DD11 2","AdditionalData":[{"value":"United Kingdom","key":"CountryName"},{"value":"Scotland","key":"StateName"},{"value":"Angus","key":"CountyName"}]},"MapReference":{"ReferenceId":"19192200","Spot":0.11,"SideOfStreet":"right","StateId":"20252820","CountyId":"20291762","CityId":"20291763","DistrictId":"20291764"}}},{"Relevance":1.0,"Distance":79.4,"MatchLevel":"postalCode","MatchQuality":{"PostalCode":1.0},"MatchType":"interpolated","Location":{"LocationId":"NT_hND1O1swWAnaaa-sSipXtA_l_19192187_R_0YD","LocationType":"point","DisplayPosition":{"Latitude":56.55542,"Longitude":-2.5994},"MapView":{"TopLeft":{"Latitude":56.5644132,"Longitude":-2.6157178},"BottomRight":{"Latitude":56.5464268,"Longitude":-2.5830822}},"Address":{"Label":"DD11 2DW, Arbroath, Scotland, United Kingdom","Country":"GBR","State":"Scotland","County":"Angus","City":"Arbroath","PostalCode":"DD11 2DW","AdditionalData":[{"value":"United Kingdom","key":"CountryName"},{"value":"Scotland","key":"StateName"},{"value":"Angus","key":"CountyName"}]},"MapReference":{"ReferenceId":"19192187","Spot":0.1,"SideOfStreet":"neither","StateId":"20252820","CountyId":"20291762","CityId":"20291763"}}}]}]}}