{"Response":{"MetaInfo":{"Timestamp":"2020-03-28T10:12:39.314+0000","NextPageInformation":"2"},"View":[{"_type":"SearchResultsViewType","ViewId":0,"Result":[{"Relevance":1.0,"Distance":0.0,"Direction":0.0,"MatchLevel":"district","MatchQuality":{"Country":1.0,"County":1.0,"City":1.0,"District":1.0,"PostalCode":1.0},"Location":{"LocationId":"NT_i794BURMGLkz3u4FBCrD3B","LocationType":"point","DisplayPosition":{"Latitude":56.7392369,"Longitude":24.3955608},"MapView":{"TopLeft":{"Latitude":56.74036,"Longitude":24.37613},"BottomRight":{"Latitude":56.73594,"Longitude":24.413}},"Address":{"Label":"Avoti, Baldones pagasts, Latvija","Country":"LVA","County":"Baldones novads","City":"Baldones pagasts","District":"Avoti","PostalCode":"2125","AdditionalData":[{"value":"Latvija","key":"CountryName"},{"value":"Baldones novads","key":"CountyName"}]},"MapReference":{"ReferenceId":"1149409499","SideOfStreet":"neither","CountryId":"20633737","CountyId":"23781757","CityId":"23273535","DistrictId":"23274684"}}},{"Relevance":1.0,"Distance":20.9,"MatchLevel":"houseNumber","MatchQuality":{"Country":1.0,"County":1.0,"City":1.0,"District":1.0,"Street":[1.0],"PostalCode":1.0},"MatchType":"interpolated","Location":{"LocationId":"NT_KDk3jf2mkTOdEWDCWPH1vD","LocationType":"point","DisplayPosition":{"Latitude":56.73926,"Longitude":24.39601},"MapView":{"TopLeft":{"Latitude":56.7403842,"Longitude":24.3939603},"BottomRight":{"Latitude":56.7381358,"Longitude":24.3980597}},"Address":{"Label":"\"Veģi\" Morisona iela, Avoti, Baldones pagasts, Baldones novads, LV-2125, Latvija","Country":"LVA","County":"Baldones novads","City":"Baldones pagasts","District":"Avoti","Street":"Morisona iela","PostalCode":"2125","AdditionalData":[{"value":"Latvija","key":"CountryName"},{"value":"Baldones novads","key":"CountyName"}],"Building":"Veģi"},"MapReference":{"ReferenceId":"750402475","Spot":0.54,"SideOfStreet":"left","CountryId":"20633737","CountyId":"23781757","CityId":"23273535","DistrictId":"23274684","AddressId":"683263966","RoadLinkId":"147091182"}}},{"Relevance":1.0,"Distance":31.8,"MatchLevel":"street","MatchQuality":{"Country":1.0,"County":1.0,"City":1.0,"District":1.0,"PostalCode":1.0},"Location":{"LocationId":"NT_NnrHd4naoGk4LRqBGKs7LD_l_750833022_R","LocationType":"point","DisplayPosition":{"Latitude":56.73896,"Longitude":24.39569},"MapView":{"TopLeft":{"Latitude":56.73896,"Longitude":24.39569},"BottomRight":{"Latitude":56.73844,"Longitude":24.39597}},"Address":{"Label":"Baldones pagasts, LV-2125, Latvija","Country":"LVA","County":"Baldones novads","City":"Baldones pagasts","District":"Avoti","PostalCode":"2125","AdditionalData":[{"value":"Latvija","key":"CountryName"},{"value":"Baldones novads","key":"CountyName"}]},"MapReference":{"ReferenceId":"750833022","Spot":1.0,"SideOfStreet":"right","CountryId":"20633737","CountyId":"23781757","CityId":"23273535","DistrictId":"23274684"}}},{"Relevance":1.0,"Distance":38.0,"MatchLevel":"houseNumber","MatchQuality":{"Country":1.0,"County":1.0,"City":1.0,"District":1.0,"Street":[1.0],"PostalCode":1.0},"MatchType":"interpolated","Location":{"LocationId":"NT_zYwzh8yxNNhIcKv8iH3XIC","LocationType":"point","DisplayPosition":{"Latitude":56.73961,"Longitude":24.39606},"MapView":{"TopLeft":{"Latitude":56.7407342,"Longitude":24.3940103},"BottomRight":{"Latitude":56.7384858,"Longitude":24.3981097}},"Address":{"Label":"\"Jaunkučieriņi\" Zīļu iela, Avoti, Baldones pagasts, Baldones novads, LV-2125, Latvija","Country":"LVA","County":"Baldones novads","City":"Baldones pagasts","District":"Avoti","Street":"Zīļu iela","PostalCode":"2125","AdditionalData":[{"value":"Latvija","key":"CountryName"},{"value":"Baldones novads","key":"CountyName"}],"Building":"Jaunkučieriņi"},"MapReference":{"ReferenceId":"750748690","Spot":0.65,"SideOfStreet":"left","CountryId":"20633737","CountyId":"23781757","CityId":"23273535","DistrictId":"23274684","AddressId":"683263957","RoadLinkId":"146766670"}}},{"Relevance":1.0,"Distance":51.4,"MatchLevel":"houseNumber","MatchQuality":{"Country":1.0,"County":1.0,"City":1.0,"Street":[1.0],"HouseNumber":1.0,"PostalCode":1.0},"MatchType":"interpolated","Location":{"LocationId":"NT_C.RE9dcfcSeXCkbx9gGZfB_3A","LocationType":"point","DisplayPosition":{"Latitude":56.73951,"Longitude":24.39624},"MapView":{"TopLeft":{"Latitude":56.7406342,"Longitude":24.3941903},"BottomRight":{"Latitude":56.7383858,"Longitude":24.3982897}},"Address":{"Label":"Zīļu iela 7, Baldone, LV-2125, Latvija","Country":"LVA","County":"Baldones novads","City":"Baldone","Street":"Zīļu iela","HouseNumber":"7","PostalCode":"2125","AdditionalData":[{"value":"Latvija","key":"CountryName"},{"value":"Baldones novads","key":"CountyName"}]},"MapReference":{"ReferenceId":"750552617","Spot":0.56,"SideOfStreet":"right","CountryId":"20633737","CountyId":"23781757","CityId":"23274112","AddressId":"325178700","RoadLinkId":"147051167"}}},{"Relevance":1.0,"Distance":55.3,"MatchLevel":"street","MatchQuality":{"Country":1.0,"County":1.0,"City":1.0,"Street":[1.0],"PostalCode":1.0},"Location":{"LocationId":"NT_-T1MC3SaA9DyAVIcRhgsCB_l_750363600_L","LocationType":"point","DisplayPosition":{"Latitude":56.7396877,"Longitude":24.3959439},"MapView":{"TopLeft":{"Latitude":56.73981,"Longitude":24.3958},"BottomRight":{"Latitude":56.73964,"Longitude":24.396}},"Address":{"Label":"Zīļu iela, Baldones pagasts, LV-2125, Latvija","Country":"LVA","County":"Baldones novads","City":"Baldones pagasts","Street":"Zīļu iela","PostalCode":"2125","AdditionalData":[{"value":"Latvija","key":"CountryName"},{"value":"Baldones novads","key":"CountyName"}]},"MapReference":{"ReferenceId":"750363600","Spot":0.28,"SideOfStreet":"left","CountryId":"20633737","CountyId":"23781757","CityId":"23273535"}}},{"Relevance":1.0,"Distance":56.6,"MatchLevel":"houseNumber","MatchQuality":{"Country":1.0,"County":1.0,"City":1.0,"District":1.0,"Street":[1.0],"PostalCode":1.0},"MatchType":"interpolated","Location":{"LocationId":"NT_KDk3jf2mkTOdEWDCWPH1vD","LocationType":"point","DisplayPosition":{"Latitude":56.73873,"Longitude":24.39548},"MapView":{"TopLeft":{"Latitude":56.7398542,"Longitude":24.3934303},"BottomRight":{"Latitude":56.7376058,"Longitude":24.3975297}},"Address":{"Label":"\"Spūlīši\" Morisona iela, Avoti, Baldones pagasts, Baldones novads, LV-2125, Latvija","Country":"LVA","County":"Baldones novads","City":"Baldones pagasts","District":"Avoti","Street":"Morisona iela","PostalCode":"2125","AdditionalData":[{"value":"Latvija","key":"CountryName"},{"value":"Baldones novads","key":"CountyName"}],"Building":"Spūlīši"},"MapReference":{"ReferenceId":"750491447","Spot":0.7,"SideOfStreet":"left","CountryId":"20633737","CountyId":"23781757","CityId":"23273535","DistrictId":"23274684","AddressId":"683263912","RoadLinkId":"146858176"}}},{"Relevance":1.0,"Distance":69.1,"MatchLevel":"houseNumber","MatchQuality":{"Country":1.0,"County":1.0,"City":1.0,"Street":[1.0],"HouseNumber":1.0,"PostalCode":1.0},"MatchType":"interpolated","Location":{"LocationId":"NT_C.RE9dcfcSeXCkbx9gGZfB_1IG","LocationType":"point","DisplayPosition":{"Latitude":56.73985,"Longitude":24.39575},"MapView":{"TopLeft":{"Latitude":56.7409742,"Longitude":24.3937003},"BottomRight":{"Latitude":56.7387258,"Longitude":24.3977997}},"Address":{"Label":"Zīļu iela 5b, Baldone, LV-2125, Latvija","Country":"LVA","County":"Baldones novads","City":"Baldone","Street":"Zīļu iela","HouseNumber":"5b","PostalCode":"2125","AdditionalData":[{"value":"Latvija","key":"CountryName"},{"value":"Baldones novads","key":"CountyName"}]},"MapReference":{"ReferenceId":"750560548","Spot":0.15,"SideOfStreet":"right","CountryId":"20633737","CountyId":"23781757","CityId":"23274112","AddressId":"325194761","RoadLinkId":"147087287"}}},{"Relevance":1.0,"Distance":86.1,"MatchLevel":"houseNumber","MatchQuality":{"Country":1.0,"County":1.0,"City":1.0,"Street":[1.0],"HouseNumber":1.0,"PostalCode":1.0},"MatchType":"interpolated","Location":{"LocationId":"NT_jwe1PVmve0iLC8C7CdDpcB_xYD","LocationType":"point","DisplayPosition":{"Latitude":56.74009,"Longitude":24.39496},"MapView":{"TopLeft":{"Latitude":56.7412142,"Longitude":24.3929103},"BottomRight":{"Latitude":56.7389658,"Longitude":24.3970097}},"Address":{"Label":"Dārza iela 16, Baldone, LV-2125, Latvija","Country":"LVA","County":"Baldones novads","City":"Baldone","Street":"Dārza iela","HouseNumber":"16","PostalCode":"2125","AdditionalData":[{"value":"Latvija","key":"CountryName"},{"value":"Baldones novads","key":"CountyName"}]},"MapReference":{"ReferenceId":"750383923","Spot":0.31,"SideOfStreet":"left","CountryId":"20633737","CountyId":"23781757","CityId":"23274112","AddressId":"325055076","RoadLinkId":"146832790"}}},{"Relevance":1.0,"Distance":92.1,"MatchLevel":"street","MatchQuality":{"Country":1.0,"County":1.0,"City":1.0,"PostalCode":1.0},"Location":{"LocationId":"NT_D-6oR-LfM4ZONZKWWSQVXA_l_750676738_R","LocationType":"point","DisplayPosition":{"Latitude":56.73844,"Longitude":24.39597},"MapView":{"TopLeft":{"Latitude":56.73844,"Longitude":24.39597},"BottomRight":{"Latitude":56.73827,"Longitude":24.3964}},"Address":{"Label":"Baldones pagasts, LV-2125, Latvija","Country":"LVA","County":"Baldones novads","City":"Baldones pagasts","PostalCode":"2125","AdditionalData":[{"value":"Latvija","key":"CountryName"},{"value":"Baldones novads","key":"CountyName"}]},"MapReference":{"ReferenceId":"750676738","Spot":1.0,"SideOfStreet":"right","CountryId":"20633737","CountyId":"23781757","CityId":"23273535"}}}]}]}}