{"Response":{"MetaInfo":{"Timestamp":"2020-03-28T11:18:21.636+0000","NextPageInformation":"2"},"View":[{"_type":"SearchResultsViewType","ViewId":0,"Result":[{"Relevance":1.0,"Distance":0.0,"Direction":0.0,"MatchLevel":"district","MatchQuality":{"Country":1.0,"State":1.0,"County":1.0,"City":1.0,"District":1.0,"PostalCode":1.0},"Location":{"LocationId":"NT_7afDcBH3wPEi2w9rUVHGvC","LocationType":"point","DisplayPosition":{"Latitude":56.7004466,"Longitude":-3.7366597},"MapView":{"TopLeft":{"Latitude":56.71462,"Longitude":-3.74926},"BottomRight":{"Latitude":56.69563,"Longitude":-3.71401}},"Address":{"Label":"Pitlochry, Scotland, United Kingdom","Country":"GBR","State":"Scotland","County":"Perthshire","City":"Pitlochry","District":"Pitlochry","PostalCode":"PH16 5","AdditionalData":[{"value":"United Kingdom","key":"CountryName"},{"value":"Scotland","key":"StateName"},{"value":"Perthshire","key":"CountyName"}]},"MapReference":{"ReferenceId":"19185716","SideOfStreet":"neither","StateId":"20252820","CountyId":"20292490","CityId":"20292539","DistrictId":"20292540"}}},{"Relevance":1.0,"Distance":80.5,"MatchLevel":"street","MatchQuality":{"Country":1.0,"State":1.0,"County":1.0,"City":1.0,"District":1.0,"PostalCode":1.0},"Location":{"LocationId":"NT_xYnOQbmk1hdeyLHAAmNY7A_l_1035875370_R","LocationType":"point","DisplayPosition":{"Latitude":56.70117,"Longitude":-3.73672},"MapView":{"TopLeft":{"Latitude":56.70161,"Longitude":-3.73672},"BottomRight":{"Latitude":56.70117,"Longitude":-3.7326}},"Address":{"Label":"Pitlochry, PH16 5, United Kingdom","Country":"GBR","State":"Scotland","County":"Perthshire","City":"Pitlochry","District":"Pitlochry","PostalCode":"PH16 5","AdditionalData":[{"value":"United Kingdom","key":"CountryName"},{"value":"Scotland","key":"StateName"},{"value":"Perthshire","key":"CountyName"}]},"MapReference":{"ReferenceId":"1035875370","Spot":0.0,"SideOfStreet":"right","StateId":"20252820","CountyId":"20292490","CityId":"20292539","DistrictId":"20292540"}}},{"Relevance":1.0,"Distance":86.5,"MatchLevel":"houseNumber","MatchQuality":{"Country":1.0,"State":1.0,"County":1.0,"City":1.0,"District":1.0,"Street":[1.0],"HouseNumber":1.0,"PostalCode":1.0},"MatchType":"interpolated","Location":{"LocationId":"NT_QmeqsT3QESIYMhkpLH9fpA_l_19295289_L_5A","LocationType":"point","DisplayPosition":{"Latitude":56.6997803,"Longitude":-3.7355987},"MapView":{"TopLeft":{"Latitude":56.7009044,"Longitude":-3.7376462},"BottomRight":{"Latitude":56.6986561,"Longitude":-3.7335512}},"Address":{"Label":"9 Tummel Crescent, Pitlochry, PH16 5DF, United Kingdom","Country":"GBR","State":"Scotland","County":"Perthshire","City":"Pitlochry","District":"Pitlochry","Street":"Tummel Crescent","HouseNumber":"9","PostalCode":"PH16 5DF","AdditionalData":[{"value":"United Kingdom","key":"CountryName"},{"value":"Scotland","key":"StateName"},{"value":"Perthshire","key":"CountyName"}]},"MapReference":{"ReferenceId":"19295289","Spot":0.43,"SideOfStreet":"left","StateId":"20252820","CountyId":"20292490","CityId":"20292539","DistrictId":"20292540"}}},{"Relevance":1.0,"Distance":108.7,"MatchLevel":"houseNumber","MatchQuality":{"Country":1.0,"State":1.0,"County":1.0,"City":1.0,"District":1.0,"Street":[1.0],"HouseNumber":1.0,"PostalCode":1.0},"MatchType":"interpolated","Location":{"LocationId":"NT_QmeqsT3QESIYMhkpLH9fpA_l_19295288_L_3A","LocationType":"point","DisplayPosition":{"Latitude":56.6996409,"Longitude":-3.7356522},"MapView":{"TopLeft":{"Latitude":56.700765,"Longitude":-3.7376998},"BottomRight":{"Latitude":56.6985167,"Longitude":-3.7336047}},"Address":{"Label":"7 Tummel Crescent, Pitlochry, PH16 5DF, United Kingdom","Country":"GBR","State":"Scotland","County":"Perthshire","City":"Pitlochry","District":"Pitlochry","Street":"Tummel Crescent","HouseNumber":"7","PostalCode":"PH16 5DF","AdditionalData":[{"value":"United Kingdom","key":"CountryName"},{"value":"Scotland","key":"StateName"},{"value":"Perthshire","key":"CountyName"}]},"MapReference":{"ReferenceId":"19295288","Spot":0.62,"SideOfStreet":"left","StateId":"20252820","CountyId":"20292490","CityId":"20292539","DistrictId":"20292540"}}},{"Relevance":1.0,"Distance":113.2,"MatchLevel":"houseNumber","MatchQuality":{"Country":1.0,"State":1.0,"County":1.0,"City":1.0,"District":1.0,"Street":[1.0],"HouseNumber":1.0,"PostalCode":1.0},"MatchType":"interpolated","Location":{"LocationId":"NT_QmeqsT3QESIYMhkpLH9fpA_l_19295287_R_2A","LocationType":"point","DisplayPosition":{"Latitude":56.6997028,"Longitude":-3.7353925},"MapView":{"TopLeft":{"Latitude":56.700827,"Longitude":-3.7374401},"BottomRight":{"Latitude":56.6985787,"Longitude":-3.733345}},"Address":{"Label":"6 Tummel Crescent, Pitlochry, PH16 5DF, United Kingdom","Country":"GBR","State":"Scotland","County":"Perthshire","City":"Pitlochry","District":"Pitlochry","Street":"Tummel Crescent","HouseNumber":"6","PostalCode":"PH16 5DF","AdditionalData":[{"value":"United Kingdom","key":"CountryName"},{"value":"Scotland","key":"StateName"},{"value":"Perthshire","key":"CountyName"}]},"MapReference":{"ReferenceId":"19295287","Spot":0.6,"SideOfStreet":"right","StateId":"20252820","CountyId":"20292490","CityId":"20292539","DistrictId":"20292540"}}},{"Relevance":1.0,"Distance":116.5,"MatchLevel":"houseNumber","MatchQuality":{"Country":1.0,"State":1.0,"County":1.0,"City":1.0,"District":1.0,"Street":[1.0],"HouseNumber":1.0,"PostalCode":1.0},"MatchType":"interpolated","Location":{"LocationId":"NT_QmeqsT3QESIYMhkpLH9fpA_l_19185900_R_xAD","LocationType":"point","DisplayPosition":{"Latitude":56.6997675,"Longitude":-3.7350334},"MapView":{"TopLeft":{"Latitude":56.7008916,"Longitude":-3.7370809},"BottomRight":{"Latitude":56.6986433,"Longitude":-3.7329858}},"Address":{"Label":"10 Tummel Crescent, Pitlochry, PH16 5DF, United Kingdom","Country":"GBR","State":"Scotland","County":"Perthshire","City":"Pitlochry","District":"Pitlochry","Street":"Tummel Crescent","HouseNumber":"10","PostalCode":"PH16 5DF","AdditionalData":[{"value":"United Kingdom","key":"CountryName"},{"value":"Scotland","key":"StateName"},{"value":"Perthshire","key":"CountyName"}]},"MapReference":{"ReferenceId":"19185900","Spot":0.8,"SideOfStreet":"right","StateId":"20252820","CountyId":"20292490","CityId":"20292539","DistrictId":"20292540"}}},{"Relevance":1.0,"Distance":147.0,"MatchLevel":"postalCode","MatchQuality":{"PostalCode":1.0},"Location":{"LocationId":"NT_xYnOQbmk1hdeyLHAAmNY7A_l_1035875370_R","LocationType":"point","DisplayPosition":{"Latitude":56.70162,"Longitude":-3.73555},"MapView":{"TopLeft":{"Latitude":56.7106132,"Longitude":-3.7519311},"BottomRight":{"Latitude":56.6926268,"Longitude":-3.7191689}},"Address":{"Label":"PH16 5BP, Pitlochry, Scotland, United Kingdom","Country":"GBR","State":"Scotland","County":"Perthshire","City":"Pitlochry","PostalCode":"PH16 5BP","AdditionalData":[{"value":"United Kingdom","key":"CountryName"},{"value":"Scotland","key":"StateName"},{"value":"Perthshire","key":"CountyName"}]},"MapReference":{"ReferenceId":"1035875370","Spot":0.0,"SideOfStreet":"neither","StateId":"20252820","CountyId":"20292490","CityId":"20292539"}}},{"Relevance":1.0,"Distance":153.6,"MatchLevel":"street","MatchQuality":{"Country":1.0,"State":1.0,"County":1.0,"City":1.0,"District":1.0,"PostalCode":1.0},"Location":{"LocationId":"NT_xYnOQbmk1hdeyLHAAmNY7A_l_1221714087_R","LocationType":"point","DisplayPosition":{"Latitude":56.7006,"Longitude":-3.73916},"MapView":{"TopLeft":{"Latitude":56.70109,"Longitude":-3.73952},"BottomRight":{"Latitude":56.70044,"Longitude":-3.73916}},"Address":{"Label":"Pitlochry, PH16 5, United Kingdom","Country":"GBR","State":"Scotland","County":"Perthshire","City":"Pitlochry","District":"Pitlochry","PostalCode":"PH16 5","AdditionalData":[{"value":"United Kingdom","key":"CountryName"},{"value":"Scotland","key":"StateName"},{"value":"Perthshire","key":"CountyName"}]},"MapReference":{"ReferenceId":"1221714087","Spot":0.29,"SideOfStreet":"right","StateId":"20252820","CountyId":"20292490","CityId":"20292539","DistrictId":"20292540"}}},{"Relevance":1.0,"Distance":154.9,"MatchLevel":"postalCode","MatchQuality":{"PostalCode":1.0},"MatchType":"interpolated","Location":{"LocationId":"NT_QmeqsT3QESIYMhkpLH9fpA_l_19185900_R_xAD","LocationType":"point","DisplayPosition":{"Latitude":56.69969,"Longitude":-3.73453},"MapView":{"TopLeft":{"Latitude":56.7086832,"Longitude":-3.7509103},"BottomRight":{"Latitude":56.6906968,"Longitude":-3.7181497}},"Address":{"Label":"PH16 5DF, Pitlochry, Scotland, United Kingdom","Country":"GBR","State":"Scotland","County":"Perthshire","City":"Pitlochry","PostalCode":"PH16 5DF","AdditionalData":[{"value":"United Kingdom","key":"CountryName"},{"value":"Scotland","key":"StateName"},{"value":"Perthshire","key":"CountyName"}]},"MapReference":{"ReferenceId":"19185900","Spot":0.8,"SideOfStreet":"neither","StateId":"20252820","CountyId":"20292490","CityId":"20292539"}}},{"Relevance":1.0,"Distance":159.7,"MatchLevel":"postalCode","MatchQuality":{"PostalCode":1.0},"Location":{"LocationId":"NT_FR2iCBPG9KSGEKSu3AMUeA_l_1198233963_L","LocationType":"point","DisplayPosition":{"Latitude":56.70188,"Longitude":-3.73683},"MapView":{"TopLeft":{"Latitude":56.7108732,"Longitude":-3.7532112},"BottomRight":{"Latitude":56.6928868,"Longitude":-3.7204488}},"Address":{"Label":"PH16 5FG, Pitlochry, Scotland, United Kingdom","Country":"GBR","State":"Scotland","County":"Perthshire","City":"Pitlochry","PostalCode":"PH16 5FG","AdditionalData":[{"value":"United Kingdom","key":"CountryName"},{"value":"Scotland","key":"StateName"},{"value":"Perthshire","key":"CountyName"}]},"MapReference":{"ReferenceId":"1198233963","Spot":0.0,"SideOfStreet":"neither","StateId":"20252820","CountyId":"20292490","CityId":"20292539"}}}]}]}}