{"Response":{"MetaInfo":{"Timestamp":"2020-03-28T10:06:15.075+0000","NextPageInformation":"2"},"View":[{"_type":"SearchResultsViewType","ViewId":0,"Result":[{"Relevance":1.0,"Distance":0.0,"Direction":0.0,"MatchLevel":"city","MatchQuality":{"Country":1.0,"State":1.0,"County":1.0,"City":1.0,"PostalCode":1.0},"Location":{"LocationId":"NT_QU6gcPMqpYS6vkp3voVIRC","LocationType":"point","DisplayPosition":{"Latitude":56.8348356,"Longitude":9.8872658},"MapView":{"TopLeft":{"Latitude":56.85078,"Longitude":9.88008},"BottomRight":{"Latitude":56.82933,"Longitude":9.90437}},"Address":{"Label":"Skørping, Nordjylland, Danmark","Country":"DNK","State":"Nordjylland","County":"Rebild","City":"Skørping","PostalCode":"9520","AdditionalData":[{"value":"Danmark","key":"CountryName"},{"value":"Nordjylland","key":"StateName"},{"value":"Rebild","key":"CountyName"}]},"MapReference":{"ReferenceId":"34346316","SideOfStreet":"neither","CountryId":"20298369","StateId":"20367279","CountyId":"20709201","CityId":"20367306"}}},{"Relevance":1.0,"Distance":6.1,"MatchLevel":"houseNumber","MatchQuality":{"Country":1.0,"State":1.0,"County":1.0,"City":1.0,"Street":[1.0],"HouseNumber":1.0,"PostalCode":1.0},"MatchType":"interpolated","Location":{"LocationId":"NT_G7hXaSJcDwiLRu6RSlcn4D_yA","LocationType":"point","DisplayPosition":{"Latitude":56.83495,"Longitude":9.88719},"MapView":{"TopLeft":{"Latitude":56.8360742,"Longitude":9.8851351},"BottomRight":{"Latitude":56.8338258,"Longitude":9.8892449}},"Address":{"Label":"Jyllandsgade 2, 9520 Skørping, Danmark","Country":"DNK","State":"Nordjylland","County":"Rebild","City":"Skørping","Street":"Jyllandsgade","HouseNumber":"2","PostalCode":"9520","AdditionalData":[{"value":"Danmark","key":"CountryName"},{"value":"Nordjylland","key":"StateName"},{"value":"Rebild","key":"CountyName"}]},"MapReference":{"ReferenceId":"34346295","Spot":0.07,"SideOfStreet":"left","CountryId":"20298369","StateId":"20367279","CountyId":"20709201","CityId":"20367306","AddressId":"200083725","RoadLinkId":"100219594"}}},{"Relevance":1.0,"Distance":34.3,"MatchLevel":"houseNumber","MatchQuality":{"Country":1.0,"State":1.0,"County":1.0,"City":1.0,"Street":[1.0],"HouseNumber":1.0,"PostalCode":1.0},"MatchType":"interpolated","Location":{"LocationId":"NT_G7hXaSJcDwiLRu6RSlcn4D_0A","LocationType":"point","DisplayPosition":{"Latitude":56.83482,"Longitude":9.88771},"MapView":{"TopLeft":{"Latitude":56.8359442,"Longitude":9.8856551},"BottomRight":{"Latitude":56.8336958,"Longitude":9.8897649}},"Address":{"Label":"Jyllandsgade 4, 9520 Skørping, Danmark","Country":"DNK","State":"Nordjylland","County":"Rebild","City":"Skørping","Street":"Jyllandsgade","HouseNumber":"4","PostalCode":"9520","AdditionalData":[{"value":"Danmark","key":"CountryName"},{"value":"Nordjylland","key":"StateName"},{"value":"Rebild","key":"CountyName"}]},"MapReference":{"ReferenceId":"34346316","Spot":0.39,"SideOfStreet":"left","CountryId":"20298369","StateId":"20367279","CountyId":"20709201","CityId":"20367306","AddressId":"199998574","RoadLinkId":"100170735"}}},{"Relevance":1.0,"Distance":47.7,"MatchLevel":"street","MatchQuality":{"Country":1.0,"State":1.0,"County":1.0,"City":1.0,"Street":[1.0],"PostalCode":1.0},"Location":{"LocationId":"NT_G7hXaSJcDwiLRu6RSlcn4D_l_940960049_L","LocationType":"point","DisplayPosition":{"Latitude":56.8347,"Longitude":9.88801},"MapView":{"TopLeft":{"Latitude":56.8347,"Longitude":9.88801},"BottomRight":{"Latitude":56.83466,"Longitude":9.88816}},"Address":{"Label":"Jyllandsgade, 9520 Skørping, Danmark","Country":"DNK","State":"Nordjylland","County":"Rebild","City":"Skørping","Street":"Jyllandsgade","PostalCode":"9520","AdditionalData":[{"value":"Danmark","key":"CountryName"},{"value":"Nordjylland","key":"StateName"},{"value":"Rebild","key":"CountyName"}]},"MapReference":{"ReferenceId":"940960049","Spot":1.0,"SideOfStreet":"left","CountryId":"20298369","StateId":"20367279","CountyId":"20709201","CityId":"20367306"}}},{"Relevance":1.0,"Distance":49.7,"MatchLevel":"houseNumber","MatchQuality":{"Country":1.0,"State":1.0,"County":1.0,"City":1.0,"Street":[1.0],"HouseNumber":1.0,"PostalCode":1.0},"MatchType":"interpolated","Location":{"LocationId":"NT_b7Rdm1pAMr5ns8W5eCbTVC_xA","LocationType":"point","DisplayPosition":{"Latitude":56.83496,"Longitude":9.88645},"MapView":{"TopLeft":{"Latitude":56.8360842,"Longitude":9.8843951},"BottomRight":{"Latitude":56.8338358,"Longitude":9.8885049}},"Address":{"Label":"Himmerlandsvej 1, 9520 Skørping, Danmark","Country":"DNK","State":"Nordjylland","County":"Rebild","City":"Skørping","Street":"Himmerlandsvej","HouseNumber":"1","PostalCode":"9520","AdditionalData":[{"value":"Danmark","key":"CountryName"},{"value":"Nordjylland","key":"StateName"},{"value":"Rebild","key":"CountyName"}]},"MapReference":{"ReferenceId":"34346292","Spot":0.32,"SideOfStreet":"right","CountryId":"20298369","StateId":"20367279","CountyId":"20709201","CityId":"20367306","AddressId":"200440157","RoadLinkId":"100118056"}}},{"Relevance":1.0,"Distance":51.5,"MatchLevel":"houseNumber","MatchQuality":{"Country":1.0,"State":1.0,"County":1.0,"City":1.0,"Street":[1.0],"HouseNumber":1.0,"PostalCode":1.0},"MatchType":"interpolated","Location":{"LocationId":"NT_fCdOFGJYc9rKRUUI2Cb9FA_yEE","LocationType":"point","DisplayPosition":{"Latitude":56.83529,"Longitude":9.88743},"MapView":{"TopLeft":{"Latitude":56.8364142,"Longitude":9.8853751},"BottomRight":{"Latitude":56.8341658,"Longitude":9.8894849}},"Address":{"Label":"Sverriggårdsvej 2A, 9520 Skørping, Danmark","Country":"DNK","State":"Nordjylland","County":"Rebild","City":"Skørping","Street":"Sverriggårdsvej","HouseNumber":"2A","PostalCode":"9520","AdditionalData":[{"value":"Danmark","key":"CountryName"},{"value":"Nordjylland","key":"StateName"},{"value":"Rebild","key":"CountyName"}]},"MapReference":{"ReferenceId":"940938363","Spot":0.82,"SideOfStreet":"right","CountryId":"20298369","StateId":"20367279","CountyId":"20709201","CityId":"20367306","AddressId":"199743219","RoadLinkId":"290988930"}}},{"Relevance":1.0,"Distance":60.0,"MatchLevel":"houseNumber","MatchQuality":{"Country":1.0,"State":1.0,"County":1.0,"City":1.0,"Street":[1.0],"HouseNumber":1.0,"PostalCode":1.0},"MatchType":"interpolated","Location":{"LocationId":"NT_b7Rdm1pAMr5ns8W5eCbTVC_zA","LocationType":"point","DisplayPosition":{"Latitude":56.83491,"Longitude":9.88617},"MapView":{"TopLeft":{"Latitude":56.8360342,"Longitude":9.8841151},"BottomRight":{"Latitude":56.8337858,"Longitude":9.8882249}},"Address":{"Label":"Himmerlandsvej 3, 9520 Skørping, Danmark","Country":"DNK","State":"Nordjylland","County":"Rebild","City":"Skørping","Street":"Himmerlandsvej","HouseNumber":"3","PostalCode":"9520","AdditionalData":[{"value":"Danmark","key":"CountryName"},{"value":"Nordjylland","key":"StateName"},{"value":"Rebild","key":"CountyName"}]},"MapReference":{"ReferenceId":"940938379","Spot":0.78,"SideOfStreet":"right","CountryId":"20298369","StateId":"20367279","CountyId":"20709201","CityId":"20367306","AddressId":"199238927","RoadLinkId":"290988951"}}},{"Relevance":1.0,"Distance":60.1,"MatchLevel":"houseNumber","MatchQuality":{"Country":1.0,"State":1.0,"County":1.0,"City":1.0,"Street":[1.0],"HouseNumber":1.0,"PostalCode":1.0},"MatchType":"interpolated","Location":{"LocationId":"NT_G7hXaSJcDwiLRu6RSlcn4D_1EE","LocationType":"point","DisplayPosition":{"Latitude":56.83466,"Longitude":9.8882},"MapView":{"TopLeft":{"Latitude":56.8357842,"Longitude":9.8861451},"BottomRight":{"Latitude":56.8335358,"Longitude":9.8902549}},"Address":{"Label":"Jyllandsgade 5A, 9520 Skørping, Danmark","Country":"DNK","State":"Nordjylland","County":"Rebild","City":"Skørping","Street":"Jyllandsgade","HouseNumber":"5A","PostalCode":"9520","AdditionalData":[{"value":"Danmark","key":"CountryName"},{"value":"Nordjylland","key":"StateName"},{"value":"Rebild","key":"CountyName"}]},"MapReference":{"ReferenceId":"940960048","Spot":0.91,"SideOfStreet":"right","CountryId":"20298369","StateId":"20367279","CountyId":"20709201","CityId":"20367306","AddressId":"200167655","RoadLinkId":"291008190"}}},{"Relevance":1.0,"Distance":65.2,"MatchLevel":"houseNumber","MatchQuality":{"Country":1.0,"State":1.0,"County":1.0,"City":1.0,"Street":[1.0],"HouseNumber":1.0,"PostalCode":1.0},"MatchType":"interpolated","Location":{"LocationId":"NT_wyX6YozzgjN-OlY-O8eNYD_0A","LocationType":"point","DisplayPosition":{"Latitude":56.8354,"Longitude":9.88628},"MapView":{"TopLeft":{"Latitude":56.8365242,"Longitude":9.8842251},"BottomRight":{"Latitude":56.8342758,"Longitude":9.8883349}},"Address":{"Label":"Egholmsvej 4, 9520 Skørping, Danmark","Country":"DNK","State":"Nordjylland","County":"Rebild","City":"Skørping","Street":"Egholmsvej","HouseNumber":"4","PostalCode":"9520","AdditionalData":[{"value":"Danmark","key":"CountryName"},{"value":"Nordjylland","key":"StateName"},{"value":"Rebild","key":"CountyName"}]},"MapReference":{"ReferenceId":"573807426","Spot":0.16,"SideOfStreet":"right","CountryId":"20298369","StateId":"20367279","CountyId":"20709201","CityId":"20367306","AddressId":"200799184","RoadLinkId":"100152683"}}},{"Relevance":1.0,"Distance":78.5,"MatchLevel":"houseNumber","MatchQuality":{"Country":1.0,"State":1.0,"County":1.0,"City":1.0,"Street":[1.0],"HouseNumber":1.0,"PostalCode":1.0},"MatchType":"interpolated","Location":{"LocationId":"NT_CX6A69kSovsDaRS59jm3lA_yIE","LocationType":"point","DisplayPosition":{"Latitude":56.83406,"Longitude":9.88773},"MapView":{"TopLeft":{"Latitude":56.8351842,"Longitude":9.8856751},"BottomRight":{"Latitude":56.8329358,"Longitude":9.8897849}},"Address":{"Label":"Møldrupvej 2B, 9520 Skørping, Danmark","Country":"DNK","State":"Nordjylland","County":"Rebild","City":"Skørping","Street":"Møldrupvej","HouseNumber":"2B","PostalCode":"9520","AdditionalData":[{"value":"Danmark","key":"CountryName"},{"value":"Nordjylland","key":"StateName"},{"value":"Rebild","key":"CountyName"}]},"MapReference":{"ReferenceId":"1224307999","Spot":0.15,"SideOfStreet":"left","CountryId":"20298369","StateId":"20367279","CountyId":"20709201","CityId":"20367306","AddressId":"198866068","RoadLinkId":"542437360"}}}]}]}}