{"Response":{"MetaInfo":{"Timestamp":"2020-03-28T10:06:12.513+0000","NextPageInformation":"2"},"View":[{"_type":"SearchResultsViewType","ViewId":0,"Result":[{"Relevance":1.0,"Distance":0.0,"Direction":0.0,"MatchLevel":"city","MatchQuality":{"Country":1.0,"State":1.0,"County":1.0,"City":1.0,"PostalCode":1.0},"Location":{"LocationId":"NT_zd1qvEcH67cYCvEoB3s9QA","LocationType":"point","DisplayPosition":{"Latitude":56.9680754,"Longitude":9.2533214},"MapView":{"TopLeft":{"Latitude":56.97499,"Longitude":9.23561},"BottomRight":{"Latitude":56.95069,"Longitude":9.28991}},"Address":{"Label":"Løgstør, Nordjylland, Danmark","Country":"DNK","State":"Nordjylland","County":"Vesthimmerlands","City":"Løgstør","PostalCode":"9670","AdditionalData":[{"value":"Danmark","key":"CountryName"},{"value":"Nordjylland","key":"StateName"},{"value":"Vesthimmerlands","key":"CountyName"}]},"MapReference":{"ReferenceId":"34301619","SideOfStreet":"neither","CountryId":"20298369","StateId":"20367279","CountyId":"20709203","CityId":"20367392"}}},{"Relevance":1.0,"Distance":9.9,"MatchLevel":"houseNumber","MatchQuality":{"Country":1.0,"State":1.0,"County":1.0,"City":1.0,"Street":[1.0],"HouseNumber":1.0,"PostalCode":1.0},"MatchType":"interpolated","Location":{"LocationId":"NT_ySPTZ6NfBjJbHdjDntUMSA_yAzR","LocationType":"point","DisplayPosition":{"Latitude":56.96804,"Longitude":9.25289},"MapView":{"TopLeft":{"Latitude":56.9691642,"Longitude":9.2508277},"BottomRight":{"Latitude":56.9669158,"Longitude":9.2549523}},"Address":{"Label":"Østerbrogade 20G, 9670 Løgstør, Danmark","Country":"DNK","State":"Nordjylland","County":"Vesthimmerlands","City":"Løgstør","Street":"Østerbrogade","HouseNumber":"20G","PostalCode":"9670","AdditionalData":[{"value":"Danmark","key":"CountryName"},{"value":"Nordjylland","key":"StateName"},{"value":"Vesthimmerlands","key":"CountyName"}]},"MapReference":{"ReferenceId":"34301533","Spot":0.18,"SideOfStreet":"right","CountryId":"20298369","StateId":"20367279","CountyId":"20709203","CityId":"20367392","AddressId":"198526176","RoadLinkId":"100059180"}}},{"Relevance":1.0,"Distance":14.4,"MatchLevel":"street","MatchQuality":{"Country":1.0,"State":1.0,"County":1.0,"City":1.0,"Street":[1.0],"PostalCode":1.0},"Location":{"LocationId":"NT_8GKlfRux1V44pMBS9xl8UB_l_34301532_L","LocationType":"point","DisplayPosition":{"Latitude":56.96797,"Longitude":9.25346},"MapView":{"TopLeft":{"Latitude":56.96811,"Longitude":9.25346},"BottomRight":{"Latitude":56.96797,"Longitude":9.25432}},"Address":{"Label":"Anlægsvej, 9670 Løgstør, Danmark","Country":"DNK","State":"Nordjylland","County":"Vesthimmerlands","City":"Løgstør","Street":"Anlægsvej","PostalCode":"9670","AdditionalData":[{"value":"Danmark","key":"CountryName"},{"value":"Nordjylland","key":"StateName"},{"value":"Vesthimmerlands","key":"CountyName"}]},"MapReference":{"ReferenceId":"34301532","Spot":0.0,"SideOfStreet":"left","CountryId":"20298369","StateId":"20367279","CountyId":"20709203","CityId":"20367392"}}},{"Relevance":1.0,"Distance":18.1,"MatchLevel":"houseNumber","MatchQuality":{"Country":1.0,"State":1.0,"County":1.0,"City":1.0,"Street":[1.0],"HouseNumber":1.0,"PostalCode":1.0},"MatchType":"interpolated","Location":{"LocationId":"NT_ySPTZ6NfBjJbHdjDntUMSA_yIzQ","LocationType":"point","DisplayPosition":{"Latitude":56.96795,"Longitude":9.25298},"MapView":{"TopLeft":{"Latitude":56.9690742,"Longitude":9.2509177},"BottomRight":{"Latitude":56.9668258,"Longitude":9.2550423}},"Address":{"Label":"Østerbrogade 22C, 9670 Løgstør, Danmark","Country":"DNK","State":"Nordjylland","County":"Vesthimmerlands","City":"Løgstør","Street":"Østerbrogade","HouseNumber":"22C","PostalCode":"9670","AdditionalData":[{"value":"Danmark","key":"CountryName"},{"value":"Nordjylland","key":"StateName"},{"value":"Vesthimmerlands","key":"CountyName"}]},"MapReference":{"ReferenceId":"34301534","Spot":0.17,"SideOfStreet":"left","CountryId":"20298369","StateId":"20367279","CountyId":"20709203","CityId":"20367392","AddressId":"199643377","RoadLinkId":"99869515"}}},{"Relevance":1.0,"Distance":19.0,"MatchLevel":"houseNumber","MatchQuality":{"Country":1.0,"State":1.0,"County":1.0,"City":1.0,"Street":[1.0],"HouseNumber":1.0,"PostalCode":1.0},"MatchType":"interpolated","Location":{"LocationId":"NT_In-INiQxButKiSzwRU78aD_yEE","LocationType":"point","DisplayPosition":{"Latitude":56.96837,"Longitude":9.25318},"MapView":{"TopLeft":{"Latitude":56.9694942,"Longitude":9.2511177},"BottomRight":{"Latitude":56.9672458,"Longitude":9.2552423}},"Address":{"Label":"Jernbanegade 2A, 9670 Løgstør, Danmark","Country":"DNK","State":"Nordjylland","County":"Vesthimmerlands","City":"Løgstør","Street":"Jernbanegade","HouseNumber":"2A","PostalCode":"9670","AdditionalData":[{"value":"Danmark","key":"CountryName"},{"value":"Nordjylland","key":"StateName"},{"value":"Vesthimmerlands","key":"CountyName"}]},"MapReference":{"ReferenceId":"34301520","Spot":0.27,"SideOfStreet":"right","CountryId":"20298369","StateId":"20367279","CountyId":"20709203","CityId":"20367392","AddressId":"200758148","RoadLinkId":"100253614"}}},{"Relevance":1.0,"Distance":23.5,"MatchLevel":"houseNumber","MatchQuality":{"Country":1.0,"State":1.0,"County":1.0,"City":1.0,"Street":[1.0],"HouseNumber":1.0,"PostalCode":1.0},"MatchType":"interpolated","Location":{"LocationId":"NT_ySPTZ6NfBjJbHdjDntUMSA_yADR","LocationType":"point","DisplayPosition":{"Latitude":56.96794,"Longitude":9.25286},"MapView":{"TopLeft":{"Latitude":56.9690642,"Longitude":9.2507977},"BottomRight":{"Latitude":56.9668158,"Longitude":9.2549223}},"Address":{"Label":"Østerbrogade 20D, 9670 Løgstør, Danmark","Country":"DNK","State":"Nordjylland","County":"Vesthimmerlands","City":"Løgstør","Street":"Østerbrogade","HouseNumber":"20D","PostalCode":"9670","AdditionalData":[{"value":"Danmark","key":"CountryName"},{"value":"Nordjylland","key":"StateName"},{"value":"Vesthimmerlands","key":"CountyName"}]},"MapReference":{"ReferenceId":"34301550","Spot":0.94,"SideOfStreet":"right","CountryId":"20298369","StateId":"20367279","CountyId":"20709203","CityId":"20367392","AddressId":"199932615","RoadLinkId":"99975368"}}},{"Relevance":1.0,"Distance":39.6,"MatchLevel":"houseNumber","MatchQuality":{"Country":1.0,"State":1.0,"County":1.0,"City":1.0,"Street":[1.0],"HouseNumber":1.0,"PostalCode":1.0},"MatchType":"interpolated","Location":{"LocationId":"NT_8GKlfRux1V44pMBS9xl8UB_xAD","LocationType":"point","DisplayPosition":{"Latitude":56.96773,"Longitude":9.25348},"MapView":{"TopLeft":{"Latitude":56.9688542,"Longitude":9.2514178},"BottomRight":{"Latitude":56.9666058,"Longitude":9.2555422}},"Address":{"Label":"Anlægsvej 10, 9670 Løgstør, Danmark","Country":"DNK","State":"Nordjylland","County":"Vesthimmerlands","City":"Løgstør","Street":"Anlægsvej","HouseNumber":"10","PostalCode":"9670","AdditionalData":[{"value":"Danmark","key":"CountryName"},{"value":"Nordjylland","key":"StateName"},{"value":"Vesthimmerlands","key":"CountyName"}]},"MapReference":{"ReferenceId":"34301571","Spot":0.74,"SideOfStreet":"right","CountryId":"20298369","StateId":"20367279","CountyId":"20709203","CityId":"20367392","AddressId":"199295877","RoadLinkId":"100184607"}}},{"Relevance":1.0,"Distance":45.1,"MatchLevel":"houseNumber","MatchQuality":{"Country":1.0,"State":1.0,"County":1.0,"City":1.0,"Street":[1.0],"HouseNumber":1.0,"PostalCode":1.0},"MatchType":"interpolated","Location":{"LocationId":"NT_ySPTZ6NfBjJbHdjDntUMSA_yYD","LocationType":"point","DisplayPosition":{"Latitude":56.96838,"Longitude":9.25279},"MapView":{"TopLeft":{"Latitude":56.9695042,"Longitude":9.2507277},"BottomRight":{"Latitude":56.9672558,"Longitude":9.2548523}},"Address":{"Label":"Østerbrogade 26, 9670 Løgstør, Danmark","Country":"DNK","State":"Nordjylland","County":"Vesthimmerlands","City":"Løgstør","Street":"Østerbrogade","HouseNumber":"26","PostalCode":"9670","AdditionalData":[{"value":"Danmark","key":"CountryName"},{"value":"Nordjylland","key":"StateName"},{"value":"Vesthimmerlands","key":"CountyName"}]},"MapReference":{"ReferenceId":"34301521","Spot":0.17,"SideOfStreet":"right","CountryId":"20298369","StateId":"20367279","CountyId":"20709203","CityId":"20367392","AddressId":"198800442","RoadLinkId":"100004967"}}},{"Relevance":1.0,"Distance":55.3,"MatchLevel":"houseNumber","MatchQuality":{"Country":1.0,"State":1.0,"County":1.0,"City":1.0,"Street":[1.0],"HouseNumber":1.0,"PostalCode":1.0},"MatchType":"interpolated","Location":{"LocationId":"NT_8GKlfRux1V44pMBS9xl8UB_yEE","LocationType":"point","DisplayPosition":{"Latitude":56.96837,"Longitude":9.2542},"MapView":{"TopLeft":{"Latitude":56.9694942,"Longitude":9.2521377},"BottomRight":{"Latitude":56.9672458,"Longitude":9.2562623}},"Address":{"Label":"Anlægsvej 2A, 9670 Løgstør, Danmark","Country":"DNK","State":"Nordjylland","County":"Vesthimmerlands","City":"Løgstør","Street":"Anlægsvej","HouseNumber":"2A","PostalCode":"9670","AdditionalData":[{"value":"Danmark","key":"CountryName"},{"value":"Nordjylland","key":"StateName"},{"value":"Vesthimmerlands","key":"CountyName"}]},"MapReference":{"ReferenceId":"34301528","Spot":0.69,"SideOfStreet":"left","CountryId":"20298369","StateId":"20367279","CountyId":"20709203","CityId":"20367392","AddressId":"200402850","RoadLinkId":"100006143"}}},{"Relevance":1.0,"Distance":57.4,"MatchLevel":"houseNumber","MatchQuality":{"Country":1.0,"State":1.0,"County":1.0,"City":1.0,"Street":[1.0],"HouseNumber":1.0,"PostalCode":1.0},"MatchType":"interpolated","Location":{"LocationId":"NT_8GKlfRux1V44pMBS9xl8UB_0EE","LocationType":"point","DisplayPosition":{"Latitude":56.96794,"Longitude":9.25438},"MapView":{"TopLeft":{"Latitude":56.9690642,"Longitude":9.2523177},"BottomRight":{"Latitude":56.9668158,"Longitude":9.2564423}},"Address":{"Label":"Anlægsvej 4A, 9670 Løgstør, Danmark","Country":"DNK","State":"Nordjylland","County":"Vesthimmerlands","City":"Løgstør","Street":"Anlægsvej","HouseNumber":"4A","PostalCode":"9670","AdditionalData":[{"value":"Danmark","key":"CountryName"},{"value":"Nordjylland","key":"StateName"},{"value":"Vesthimmerlands","key":"CountyName"}]},"MapReference":{"ReferenceId":"573794654","Spot":0.47,"SideOfStreet":"left","CountryId":"20298369","StateId":"20367279","CountyId":"20709203","CityId":"20367392","AddressId":"198753684","RoadLinkId":"100430139"}}}]}]}}