{"Response":{"MetaInfo":{"Timestamp":"2020-03-28T10:39:42.327+0000","NextPageInformation":"2"},"View":[{"_type":"SearchResultsViewType","ViewId":0,"Result":[{"Relevance":1.0,"Distance":0.0,"Direction":0.0,"MatchLevel":"district","MatchQuality":{"Country":1.0,"State":1.0,"County":1.0,"City":1.0,"District":1.0,"PostalCode":1.0},"Location":{"LocationId":"NT_Kt38NEokos-63b209qZHLD","LocationType":"point","DisplayPosition":{"Latitude":56.9666245,"Longitude":-2.2126628},"MapView":{"TopLeft":{"Latitude":56.97633,"Longitude":-2.2403},"BottomRight":{"Latitude":56.95402,"Longitude":-2.19461}},"Address":{"Label":"Stonehaven, Scotland, United Kingdom","Country":"GBR","State":"Scotland","County":"Kincardineshire","City":"Stonehaven","District":"Stonehaven","PostalCode":"AB39 2","AdditionalData":[{"value":"United Kingdom","key":"CountryName"},{"value":"Scotland","key":"StateName"},{"value":"Kincardineshire","key":"CountyName"}]},"MapReference":{"ReferenceId":"19180299","SideOfStreet":"neither","StateId":"20252820","CountyId":"20292322","CityId":"20292335","DistrictId":"20292336"}}},{"Relevance":1.0,"Distance":7.0,"MatchLevel":"houseNumber","MatchQuality":{"Country":1.0,"State":1.0,"County":1.0,"City":1.0,"District":1.0,"Street":[1.0],"HouseNumber":1.0,"PostalCode":1.0},"MatchType":"interpolated","Location":{"LocationId":"NT_99KLz5jq5WWzJX8RBZlGeA_l_19180191_R_xkD","LocationType":"point","DisplayPosition":{"Latitude":56.9665976,"Longitude":-2.212795},"MapView":{"TopLeft":{"Latitude":56.9677218,"Longitude":-2.2148572},"BottomRight":{"Latitude":56.9654735,"Longitude":-2.2107328}},"Address":{"Label":"19 Gurney Street, Stonehaven, AB39 2EB, United Kingdom","Country":"GBR","State":"Scotland","County":"Kincardineshire","City":"Stonehaven","District":"Stonehaven","Street":"Gurney Street","HouseNumber":"19","PostalCode":"AB39 2EB","AdditionalData":[{"value":"United Kingdom","key":"CountryName"},{"value":"Scotland","key":"StateName"},{"value":"Kincardineshire","key":"CountyName"}]},"MapReference":{"ReferenceId":"19180191","Spot":0.24,"SideOfStreet":"right","StateId":"20252820","CountyId":"20292322","CityId":"20292335","DistrictId":"20292336"}}},{"Relevance":1.0,"Distance":41.6,"MatchLevel":"street","MatchQuality":{"Country":1.0,"State":1.0,"County":1.0,"City":1.0,"District":1.0,"Street":[1.0],"PostalCode":1.0},"Location":{"LocationId":"NT_vktlZPnvnmEKuBof7cB8AC_l_19180193_L","LocationType":"point","DisplayPosition":{"Latitude":56.96625,"Longitude":-2.2126628},"MapView":{"TopLeft":{"Latitude":56.96625,"Longitude":-2.21278},"BottomRight":{"Latitude":56.96625,"Longitude":-2.2117}},"Address":{"Label":"Duke Street, Stonehaven, AB39 2, United Kingdom","Country":"GBR","State":"Scotland","County":"Kincardineshire","City":"Stonehaven","District":"Stonehaven","Street":"Duke Street","PostalCode":"AB39 2","AdditionalData":[{"value":"United Kingdom","key":"CountryName"},{"value":"Scotland","key":"StateName"},{"value":"Kincardineshire","key":"CountyName"}]},"MapReference":{"ReferenceId":"19180193","Spot":0.11,"SideOfStreet":"left","StateId":"20252820","CountyId":"20292322","CityId":"20292335","DistrictId":"20292336"}}},{"Relevance":1.0,"Distance":45.3,"MatchLevel":"postalCode","MatchQuality":{"PostalCode":1.0},"MatchType":"interpolated","Location":{"LocationId":"NT_99KLz5jq5WWzJX8RBZlGeA_l_19180191_R_xkD","LocationType":"point","DisplayPosition":{"Latitude":56.96629,"Longitude":-2.21309},"MapView":{"TopLeft":{"Latitude":56.9752832,"Longitude":-2.2295873},"BottomRight":{"Latitude":56.9572968,"Longitude":-2.1965927}},"Address":{"Label":"AB39 2EB, Stonehaven, Scotland, United Kingdom","Country":"GBR","State":"Scotland","County":"Kincardineshire","City":"Stonehaven","PostalCode":"AB39 2EB","AdditionalData":[{"value":"United Kingdom","key":"CountryName"},{"value":"Scotland","key":"StateName"},{"value":"Kincardineshire","key":"CountyName"}]},"MapReference":{"ReferenceId":"19180191","Spot":0.24,"SideOfStreet":"neither","StateId":"20252820","CountyId":"20292322","CityId":"20292335"}}},{"Relevance":1.0,"Distance":49.9,"MatchLevel":"houseNumber","MatchQuality":{"Country":1.0,"State":1.0,"County":1.0,"City":1.0,"District":1.0,"Street":[1.0],"HouseNumber":1.0,"PostalCode":1.0},"MatchType":"interpolated","Location":{"LocationId":"NT_YECo3ArZNyNpP76uEbMRZD_l_19180196_R_xUD","LocationType":"point","DisplayPosition":{"Latitude":56.9663501,"Longitude":-2.2135601},"MapView":{"TopLeft":{"Latitude":56.9674742,"Longitude":-2.2156222},"BottomRight":{"Latitude":56.9652259,"Longitude":-2.2114979}},"Address":{"Label":"15 Urie Crescent, Stonehaven, AB39 2DY, United Kingdom","Country":"GBR","State":"Scotland","County":"Kincardineshire","City":"Stonehaven","District":"Stonehaven","Street":"Urie Crescent","HouseNumber":"15","PostalCode":"AB39 2DY","AdditionalData":[{"value":"United Kingdom","key":"CountryName"},{"value":"Scotland","key":"StateName"},{"value":"Kincardineshire","key":"CountyName"}]},"MapReference":{"ReferenceId":"19180196","Spot":0.05,"SideOfStreet":"right","StateId":"20252820","CountyId":"20292322","CityId":"20292335","DistrictId":"20292336"}}},{"Relevance":1.0,"Distance":50.8,"MatchLevel":"houseNumber","MatchQuality":{"Country":1.0,"State":1.0,"County":1.0,"City":1.0,"District":1.0,"Street":[1.0],"HouseNumber":1.0,"PostalCode":1.0},"MatchType":"interpolated","Location":{"LocationId":"NT_YECo3ArZNyNpP76uEbMRZD_l_19180195_R_xQD","LocationType":"point","DisplayPosition":{"Latitude":56.9662357,"Longitude":-2.2131021},"MapView":{"TopLeft":{"Latitude":56.9673598,"Longitude":-2.2151643},"BottomRight":{"Latitude":56.9651115,"Longitude":-2.2110399}},"Address":{"Label":"14 Urie Crescent, Stonehaven, AB39 2DY, United Kingdom","Country":"GBR","State":"Scotland","County":"Kincardineshire","City":"Stonehaven","District":"Stonehaven","Street":"Urie Crescent","HouseNumber":"14","PostalCode":"AB39 2DY","AdditionalData":[{"value":"United Kingdom","key":"CountryName"},{"value":"Scotland","key":"StateName"},{"value":"Kincardineshire","key":"CountyName"}]},"MapReference":{"ReferenceId":"19180195","Spot":0.53,"SideOfStreet":"right","StateId":"20252820","CountyId":"20292322","CityId":"20292335","DistrictId":"20292336"}}},{"Relevance":1.0,"Distance":54.7,"MatchLevel":"postalCode","MatchQuality":{"PostalCode":1.0},"MatchType":"interpolated","Location":{"LocationId":"NT_kIqfkC-7lxxH7wrw9H-soB_l_19180192_R_zED","LocationType":"point","DisplayPosition":{"Latitude":56.96661,"Longitude":-2.21176},"MapView":{"TopLeft":{"Latitude":56.9756032,"Longitude":-2.2282574},"BottomRight":{"Latitude":56.9576168,"Longitude":-2.1952626}},"Address":{"Label":"AB39 2EL, Stonehaven, Scotland, United Kingdom","Country":"GBR","State":"Scotland","County":"Kincardineshire","City":"Stonehaven","PostalCode":"AB39 2EL","AdditionalData":[{"value":"United Kingdom","key":"CountryName"},{"value":"Scotland","key":"StateName"},{"value":"Kincardineshire","key":"CountyName"}]},"MapReference":{"ReferenceId":"19180192","Spot":0.1,"SideOfStreet":"neither","StateId":"20252820","CountyId":"20292322","CityId":"20292335"}}},{"Relevance":1.0,"Distance":58.9,"MatchLevel":"postalCode","MatchQuality":{"PostalCode":1.0},"MatchType":"interpolated","Location":{"LocationId":"NT_YECo3ArZNyNpP76uEbMRZD_l_19180195_R_xQD","LocationType":"point","DisplayPosition":{"Latitude":56.96619,"Longitude":-2.21322},"MapView":{"TopLeft":{"Latitude":56.9751832,"Longitude":-2.2297173},"BottomRight":{"Latitude":56.9571968,"Longitude":-2.1967227}},"Address":{"Label":"AB39 2DY, Stonehaven, Scotland, United Kingdom","Country":"GBR","State":"Scotland","County":"Kincardineshire","City":"Stonehaven","PostalCode":"AB39 2DY","AdditionalData":[{"value":"United Kingdom","key":"CountryName"},{"value":"Scotland","key":"StateName"},{"value":"Kincardineshire","key":"CountyName"}]},"MapReference":{"ReferenceId":"19180195","Spot":0.53,"SideOfStreet":"neither","StateId":"20252820","CountyId":"20292322","CityId":"20292335"}}},{"Relevance":1.0,"Distance":61.8,"MatchLevel":"houseNumber","MatchQuality":{"Country":1.0,"State":1.0,"County":1.0,"City":1.0,"District":1.0,"Street":[1.0],"HouseNumber":1.0,"PostalCode":1.0},"MatchType":"interpolated","Location":{"LocationId":"NT_99KLz5jq5WWzJX8RBZlGeA_l_19180226_R_yUD","LocationType":"point","DisplayPosition":{"Latitude":56.9660583,"Longitude":-2.2127667},"MapView":{"TopLeft":{"Latitude":56.9671825,"Longitude":-2.2148288},"BottomRight":{"Latitude":56.9649342,"Longitude":-2.2107045}},"Address":{"Label":"25 Gurney Street, Stonehaven, AB39 2, United Kingdom","Country":"GBR","State":"Scotland","County":"Kincardineshire","City":"Stonehaven","District":"Stonehaven","Street":"Gurney Street","HouseNumber":"25","PostalCode":"AB39 2","AdditionalData":[{"value":"United Kingdom","key":"CountryName"},{"value":"Scotland","key":"StateName"},{"value":"Kincardineshire","key":"CountyName"}]},"MapReference":{"ReferenceId":"19180226","Spot":0.67,"SideOfStreet":"right","StateId":"20252820","CountyId":"20292322","CityId":"20292335","DistrictId":"20292336"}}},{"Relevance":1.0,"Distance":64.4,"MatchLevel":"houseNumber","MatchQuality":{"Country":1.0,"State":1.0,"County":1.0,"City":1.0,"District":1.0,"Street":[1.0],"HouseNumber":1.0,"PostalCode":1.0},"MatchType":"interpolated","Location":{"LocationId":"NT_kIqfkC-7lxxH7wrw9H-soB_l_19180192_R_zED","LocationType":"point","DisplayPosition":{"Latitude":56.96638,"Longitude":-2.2117},"MapView":{"TopLeft":{"Latitude":56.9675042,"Longitude":-2.2137622},"BottomRight":{"Latitude":56.9652559,"Longitude":-2.2096378}},"Address":{"Label":"31 Robert Street, Stonehaven, AB39 2, United Kingdom","Country":"GBR","State":"Scotland","County":"Kincardineshire","City":"Stonehaven","District":"Stonehaven","Street":"Robert Street","HouseNumber":"31","PostalCode":"AB39 2","AdditionalData":[{"value":"United Kingdom","key":"CountryName"},{"value":"Scotland","key":"StateName"},{"value":"Kincardineshire","key":"CountyName"}]},"MapReference":{"ReferenceId":"19180192","Spot":0.1,"SideOfStreet":"right","StateId":"20252820","CountyId":"20292322","CityId":"20292335","DistrictId":"20292336"}}}]}]}}