{"Response":{"MetaInfo":{"Timestamp":"2020-03-28T12:04:37.506+0000","NextPageInformation":"2"},"View":[{"_type":"SearchResultsViewType","ViewId":0,"Result":[{"Relevance":1.0,"Distance":0.0,"Direction":0.0,"MatchLevel":"district","MatchQuality":{"Country":1.0,"City":1.0,"District":1.0,"PostalCode":1.0},"Location":{"LocationId":"NT_u-lLwSirKzSXLHnZW1OziD","LocationType":"point","DisplayPosition":{"Latitude":56.9142595,"Longitude":24.0962732},"MapView":{"TopLeft":{"Latitude":56.92475,"Longitude":24.06924},"BottomRight":{"Latitude":56.87552,"Longitude":24.13524}},"Address":{"Label":"Ziepniekkalns, Rīga, Latvija","Country":"LVA","City":"Rīga","District":"Ziepniekkalns","PostalCode":"1021","AdditionalData":[{"value":"Latvija","key":"CountryName"}]},"MapReference":{"ReferenceId":"750720507","SideOfStreet":"neither","CountryId":"20633737","CityId":"23218690"}}},{"Relevance":1.0,"Distance":4.4,"MatchLevel":"houseNumber","MatchQuality":{"Country":1.0,"County":1.0,"City":1.0,"District":1.0,"Street":[1.0],"HouseNumber":1.0,"PostalCode":1.0},"MatchType":"interpolated","Location":{"LocationId":"NT_OaZCjPIGkN5AFEQreecZ9C_yMD","LocationType":"point","DisplayPosition":{"Latitude":56.91426,"Longitude":24.0962},"MapView":{"TopLeft":{"Latitude":56.9153842,"Longitude":24.0941407},"BottomRight":{"Latitude":56.9131358,"Longitude":24.0982593}},"Address":{"Label":"Valdeķu iela 23, Rīga, LV-1004, Latvija","Country":"LVA","County":"Rīga","City":"Rīga","District":"Ziepniekkalns","Street":"Valdeķu iela","HouseNumber":"23","PostalCode":"1004","AdditionalData":[{"value":"Latvija","key":"CountryName"},{"value":"Rīga","key":"CountyName"}]},"MapReference":{"ReferenceId":"750690354","Spot":0.58,"SideOfStreet":"left","CountryId":"20633737","CountyId":"23218688","CityId":"23218690","AddressId":"325331006","RoadLinkId":"457241745"}}},{"Relevance":1.0,"Distance":6.2,"MatchLevel":"houseNumber","MatchQuality":{"Country":1.0,"County":1.0,"City":1.0,"District":1.0,"Street":[1.0],"HouseNumber":1.0,"PostalCode":1.0},"MatchType":"interpolated","Location":{"LocationId":"NT_OaZCjPIGkN5AFEQreecZ9C_l_1151875919_L_yMD","LocationType":"point","DisplayPosition":{"Latitude":56.9141775,"Longitude":24.0965866},"MapView":{"TopLeft":{"Latitude":56.9153016,"Longitude":24.0945273},"BottomRight":{"Latitude":56.9130533,"Longitude":24.0986459}},"Address":{"Label":"Valdeķu iela 23, Rīga, LV-1004, Latvija","Country":"LVA","County":"Rīga","City":"Rīga","District":"Ziepniekkalns","Street":"Valdeķu iela","HouseNumber":"23","PostalCode":"1004","AdditionalData":[{"value":"Latvija","key":"CountryName"},{"value":"Rīga","key":"CountyName"}]},"MapReference":{"ReferenceId":"1151875919","Spot":0.55,"SideOfStreet":"left","CountryId":"20633737","CountyId":"23218688","CityId":"23218690"}}},{"Relevance":1.0,"Distance":20.0,"MatchLevel":"street","MatchQuality":{"Country":1.0,"County":1.0,"City":1.0,"District":1.0,"Street":[1.0],"PostalCode":1.0},"Location":{"LocationId":"NT_OaZCjPIGkN5AFEQreecZ9C_l_750863259_L","LocationType":"point","DisplayPosition":{"Latitude":56.91424,"Longitude":24.0966},"MapView":{"TopLeft":{"Latitude":56.91452,"Longitude":24.0966},"BottomRight":{"Latitude":56.91424,"Longitude":24.09667}},"Address":{"Label":"Valdeķu iela, Rīga, LV-1004, Latvija","Country":"LVA","County":"Rīga","City":"Rīga","District":"Ziepniekkalns","Street":"Valdeķu iela","PostalCode":"1004","AdditionalData":[{"value":"Latvija","key":"CountryName"},{"value":"Rīga","key":"CountyName"}]},"MapReference":{"ReferenceId":"750863259","Spot":0.0,"SideOfStreet":"left","CountryId":"20633737","CountyId":"23218688","CityId":"23218690"}}},{"Relevance":1.0,"Distance":22.2,"MatchLevel":"street","MatchQuality":{"Country":1.0,"County":1.0,"City":1.0,"District":1.0,"PostalCode":1.0},"Location":{"LocationId":"NT_zVE0Vj4a-rOx3MNPxwssLC_l_750623235_R","LocationType":"point","DisplayPosition":{"Latitude":56.91428,"Longitude":24.09591},"MapView":{"TopLeft":{"Latitude":56.91434,"Longitude":24.0959},"BottomRight":{"Latitude":56.91428,"Longitude":24.09591}},"Address":{"Label":"Rīga, LV-1004, Latvija","Country":"LVA","County":"Rīga","City":"Rīga","District":"Ziepniekkalns","PostalCode":"1004","AdditionalData":[{"value":"Latvija","key":"CountryName"},{"value":"Rīga","key":"CountyName"}]},"MapReference":{"ReferenceId":"750623235","Spot":0.0,"SideOfStreet":"right","CountryId":"20633737","CountyId":"23218688","CityId":"23218690"}}},{"Relevance":1.0,"Distance":24.4,"MatchLevel":"street","MatchQuality":{"Country":1.0,"County":1.0,"City":1.0,"District":1.0,"PostalCode":1.0},"Location":{"LocationId":"NT_Jc36bhbQd1KxB-pR8kiiuD_l_750656100_R","LocationType":"point","DisplayPosition":{"Latitude":56.91434,"Longitude":24.0959},"MapView":{"TopLeft":{"Latitude":56.91567,"Longitude":24.09582},"BottomRight":{"Latitude":56.91434,"Longitude":24.09606}},"Address":{"Label":"Rīga, LV-1004, Latvija","Country":"LVA","County":"Rīga","City":"Rīga","District":"Ziepniekkalns","PostalCode":"1004","AdditionalData":[{"value":"Latvija","key":"CountryName"},{"value":"Rīga","key":"CountyName"}]},"MapReference":{"ReferenceId":"750656100","Spot":0.0,"SideOfStreet":"right","CountryId":"20633737","CountyId":"23218688","CityId":"23218690"}}},{"Relevance":1.0,"Distance":37.0,"MatchLevel":"houseNumber","MatchQuality":{"Country":1.0,"County":1.0,"City":1.0,"District":1.0,"Street":[1.0],"HouseNumber":1.0,"PostalCode":1.0},"MatchType":"interpolated","Location":{"LocationId":"NT_MY6-IGHoR71b34eIiO9T8C_zMD","LocationType":"point","DisplayPosition":{"Latitude":56.91427,"Longitude":24.09563},"MapView":{"TopLeft":{"Latitude":56.9153942,"Longitude":24.0935707},"BottomRight":{"Latitude":56.9131458,"Longitude":24.0976893}},"Address":{"Label":"Bērzupes iela 33, Rīga, LV-1004, Latvija","Country":"LVA","County":"Rīga","City":"Rīga","District":"Ziepniekkalns","Street":"Bērzupes iela","HouseNumber":"33","PostalCode":"1004","AdditionalData":[{"value":"Latvija","key":"CountryName"},{"value":"Rīga","key":"CountyName"}]},"MapReference":{"ReferenceId":"1242786597","Spot":0.35,"SideOfStreet":"right","CountryId":"20633737","CountyId":"23218688","CityId":"23218690","AddressId":"786599655","RoadLinkId":"563950760"}}},{"Relevance":1.0,"Distance":37.7,"MatchLevel":"street","MatchQuality":{"Country":1.0,"County":1.0,"City":1.0,"District":1.0,"Street":[1.0],"PostalCode":1.0},"Location":{"LocationId":"NT_WDXyF2rDsxZbuIYD-nKeQB_l_1166722435_L","LocationType":"point","DisplayPosition":{"Latitude":56.91452,"Longitude":24.09667},"MapView":{"TopLeft":{"Latitude":56.91452,"Longitude":24.09667},"BottomRight":{"Latitude":56.91448,"Longitude":24.09698}},"Address":{"Label":"Saulkalnes iela, Rīga, LV-1004, Latvija","Country":"LVA","County":"Rīga","City":"Rīga","District":"Ziepniekkalns","Street":"Saulkalnes iela","PostalCode":"1004","AdditionalData":[{"value":"Latvija","key":"CountryName"},{"value":"Rīga","key":"CountyName"}]},"MapReference":{"ReferenceId":"1166722435","Spot":1.0,"SideOfStreet":"left","CountryId":"20633737","CountyId":"23218688","CityId":"23218690"}}},{"Relevance":1.0,"Distance":40.6,"MatchLevel":"houseNumber","MatchQuality":{"Country":1.0,"County":1.0,"City":1.0,"District":1.0,"Street":[1.0],"HouseNumber":1.0,"PostalCode":1.0},"MatchType":"interpolated","Location":{"LocationId":"NT_OaZCjPIGkN5AFEQreecZ9C_yUD","LocationType":"point","DisplayPosition":{"Latitude":56.91387,"Longitude":24.09652},"MapView":{"TopLeft":{"Latitude":56.9149942,"Longitude":24.0944607},"BottomRight":{"Latitude":56.9127458,"Longitude":24.0985793}},"Address":{"Label":"Valdeķu iela 25, Rīga, LV-1004, Latvija","Country":"LVA","County":"Rīga","City":"Rīga","District":"Ziepniekkalns","Street":"Valdeķu iela","HouseNumber":"25","PostalCode":"1004","AdditionalData":[{"value":"Latvija","key":"CountryName"},{"value":"Rīga","key":"CountyName"}]},"MapReference":{"ReferenceId":"1151875918","Spot":0.61,"SideOfStreet":"left","CountryId":"20633737","CountyId":"23218688","CityId":"23218690","AddressId":"325331008","RoadLinkId":"457232960"}}},{"Relevance":1.0,"Distance":41.1,"MatchLevel":"street","MatchQuality":{"Country":1.0,"County":1.0,"City":1.0,"District":1.0,"PostalCode":1.0},"Location":{"LocationId":"NT_zVE0Vj4a-rOx3MNPxwssLC_l_1166722434_L","LocationType":"point","DisplayPosition":{"Latitude":56.9141236,"Longitude":24.0969031},"MapView":{"TopLeft":{"Latitude":56.91448,"Longitude":24.0966},"BottomRight":{"Latitude":56.91253,"Longitude":24.09698}},"Address":{"Label":"Rīga, LV-1058, Latvija","Country":"LVA","County":"Rīga","City":"Rīga","District":"Ziepniekkalns","PostalCode":"1058","AdditionalData":[{"value":"Latvija","key":"CountryName"},{"value":"Rīga","key":"CountyName"}]},"MapReference":{"ReferenceId":"1166722434","Spot":0.82,"SideOfStreet":"left","CountryId":"20633737","CountyId":"23218688","CityId":"23218690"}}}]}]}}