{"Response":{"MetaInfo":{"Timestamp":"2020-03-28T10:12:40.033+0000","NextPageInformation":"2"},"View":[{"_type":"SearchResultsViewType","ViewId":0,"Result":[{"Relevance":1.0,"Distance":0.0,"Direction":0.0,"MatchLevel":"district","MatchQuality":{"Country":1.0,"County":1.0,"City":1.0,"District":1.0,"PostalCode":1.0},"Location":{"LocationId":"NT_7fFAf4eRnbaj.FFbGKGvIA","LocationType":"point","DisplayPosition":{"Latitude":56.954815,"Longitude":24.0540142},"MapView":{"TopLeft":{"Latitude":56.96514,"Longitude":24.04523},"BottomRight":{"Latitude":56.94826,"Longitude":24.08067}},"Address":{"Label":"Dzirciems, Rīga, Latvija","Country":"LVA","County":"Rīga","City":"Rīga","District":"Dzirciems","PostalCode":"1007","AdditionalData":[{"value":"Latvija","key":"CountryName"},{"value":"Rīga","key":"CountyName"}]},"MapReference":{"ReferenceId":"750666507","SideOfStreet":"neither","CountryId":"20633737","CountyId":"23218688","CityId":"23218690"}}},{"Relevance":1.0,"Distance":14.9,"MatchLevel":"houseNumber","MatchQuality":{"Country":1.0,"County":1.0,"City":1.0,"District":1.0,"Street":[1.0],"HouseNumber":1.0,"PostalCode":1.0},"MatchType":"interpolated","Location":{"LocationId":"NT_G9SwyTdbDmEoLS9YFjVE1A_yAD","LocationType":"point","DisplayPosition":{"Latitude":56.95512,"Longitude":24.05408},"MapView":{"TopLeft":{"Latitude":56.9562442,"Longitude":24.0520185},"BottomRight":{"Latitude":56.9539958,"Longitude":24.0561415}},"Address":{"Label":"Dzirciema iela 20, Rīga, LV-1007, Latvija","Country":"LVA","County":"Rīga","City":"Rīga","District":"Dzirciems","Street":"Dzirciema iela","HouseNumber":"20","PostalCode":"1007","AdditionalData":[{"value":"Latvija","key":"CountryName"},{"value":"Rīga","key":"CountyName"}]},"MapReference":{"ReferenceId":"1120960068","Spot":0.42,"SideOfStreet":"left","CountryId":"20633737","CountyId":"23218688","CityId":"23218690","AddressId":"325361287","RoadLinkId":"431082952"}}},{"Relevance":1.0,"Distance":17.9,"MatchLevel":"houseNumber","MatchQuality":{"Country":1.0,"County":1.0,"City":1.0,"District":1.0,"Street":[1.0],"HouseNumber":1.0,"PostalCode":1.0},"MatchType":"interpolated","Location":{"LocationId":"NT_G9SwyTdbDmEoLS9YFjVE1A_yAzatMD","LocationType":"point","DisplayPosition":{"Latitude":56.9547,"Longitude":24.05306},"MapView":{"TopLeft":{"Latitude":56.9558242,"Longitude":24.0509985},"BottomRight":{"Latitude":56.9535758,"Longitude":24.0551215}},"Address":{"Label":"Dzirciema iela 20k-3, Rīga, LV-1007, Latvija","Country":"LVA","County":"Rīga","City":"Rīga","District":"Dzirciems","Street":"Dzirciema iela","HouseNumber":"20k-3","PostalCode":"1007","AdditionalData":[{"value":"Latvija","key":"CountryName"},{"value":"Rīga","key":"CountyName"}]},"MapReference":{"ReferenceId":"992004734","Spot":0.43,"SideOfStreet":"right","CountryId":"20633737","CountyId":"23218688","CityId":"23218690","AddressId":"683108403","RoadLinkId":"320592112"}}},{"Relevance":1.0,"Distance":28.6,"MatchLevel":"street","MatchQuality":{"Country":1.0,"County":1.0,"City":1.0,"District":1.0,"PostalCode":1.0},"Location":{"LocationId":"NT_2XJ01n9zrmyDCBqPlKGytC_l_1046382552_R","LocationType":"point","DisplayPosition":{"Latitude":56.9546538,"Longitude":24.0536458},"MapView":{"TopLeft":{"Latitude":56.95517,"Longitude":24.05342},"BottomRight":{"Latitude":56.95423,"Longitude":24.05394}},"Address":{"Label":"Rīga, LV-1007, Latvija","Country":"LVA","County":"Rīga","City":"Rīga","District":"Dzirciems","PostalCode":"1007","AdditionalData":[{"value":"Latvija","key":"CountryName"},{"value":"Rīga","key":"CountyName"}]},"MapReference":{"ReferenceId":"1046382552","Spot":0.49,"SideOfStreet":"right","CountryId":"20633737","CountyId":"23218688","CityId":"23218690"}}},{"Relevance":1.0,"Distance":53.4,"MatchLevel":"street","MatchQuality":{"Country":1.0,"County":1.0,"City":1.0,"District":1.0,"Street":[1.0],"PostalCode":1.0},"Location":{"LocationId":"NT_G9SwyTdbDmEoLS9YFjVE1A_l_1120960070_R","LocationType":"point","DisplayPosition":{"Latitude":56.95517,"Longitude":24.05342},"MapView":{"TopLeft":{"Latitude":56.95517,"Longitude":24.05293},"BottomRight":{"Latitude":56.95515,"Longitude":24.05342}},"Address":{"Label":"Dzirciema iela, Rīga, LV-1007, Latvija","Country":"LVA","County":"Rīga","City":"Rīga","District":"Dzirciems","Street":"Dzirciema iela","PostalCode":"1007","AdditionalData":[{"value":"Latvija","key":"CountryName"},{"value":"Rīga","key":"CountyName"}]},"MapReference":{"ReferenceId":"1120960070","Spot":1.0,"SideOfStreet":"right","CountryId":"20633737","CountyId":"23218688","CityId":"23218690"}}},{"Relevance":1.0,"Distance":53.4,"MatchLevel":"street","MatchQuality":{"Country":1.0,"County":1.0,"City":1.0,"District":1.0,"PostalCode":1.0},"Location":{"LocationId":"NT_2XJ01n9zrmyDCBqPlKGytC_l_1120960069_R","LocationType":"point","DisplayPosition":{"Latitude":56.95517,"Longitude":24.05342},"MapView":{"TopLeft":{"Latitude":56.95561,"Longitude":24.05278},"BottomRight":{"Latitude":56.95517,"Longitude":24.05342}},"Address":{"Label":"Rīga, LV-1007, Latvija","Country":"LVA","County":"Rīga","City":"Rīga","District":"Dzirciems","PostalCode":"1007","AdditionalData":[{"value":"Latvija","key":"CountryName"},{"value":"Rīga","key":"CountyName"}]},"MapReference":{"ReferenceId":"1120960069","Spot":0.0,"SideOfStreet":"right","CountryId":"20633737","CountyId":"23218688","CityId":"23218690"}}},{"Relevance":1.0,"Distance":61.3,"MatchLevel":"street","MatchQuality":{"Country":1.0,"County":1.0,"City":1.0,"District":1.0,"PostalCode":1.0},"Location":{"LocationId":"NT_2XJ01n9zrmyDCBqPlKGytC_l_1046382551_L","LocationType":"point","DisplayPosition":{"Latitude":56.9542668,"Longitude":24.0541238},"MapView":{"TopLeft":{"Latitude":56.9544,"Longitude":24.05394},"BottomRight":{"Latitude":56.95423,"Longitude":24.05505}},"Address":{"Label":"Rīga, LV-1083, Latvija","Country":"LVA","County":"Rīga","City":"Rīga","District":"Dzirciems","PostalCode":"1083","AdditionalData":[{"value":"Latvija","key":"CountryName"},{"value":"Rīga","key":"CountyName"}]},"MapReference":{"ReferenceId":"1046382551","Spot":0.17,"SideOfStreet":"left","CountryId":"20633737","CountyId":"23218688","CityId":"23218690"}}},{"Relevance":1.0,"Distance":65.2,"MatchLevel":"street","MatchQuality":{"Country":1.0,"County":1.0,"City":1.0,"District":1.0,"PostalCode":1.0},"Location":{"LocationId":"NT_2XJ01n9zrmyDCBqPlKGytC_l_1046382555_L","LocationType":"point","DisplayPosition":{"Latitude":56.95423,"Longitude":24.05394},"MapView":{"TopLeft":{"Latitude":56.95423,"Longitude":24.05323},"BottomRight":{"Latitude":56.95414,"Longitude":24.05394}},"Address":{"Label":"Rīga, LV-1083, Latvija","Country":"LVA","County":"Rīga","City":"Rīga","District":"Dzirciems","PostalCode":"1083","AdditionalData":[{"value":"Latvija","key":"CountryName"},{"value":"Rīga","key":"CountyName"}]},"MapReference":{"ReferenceId":"1046382555","Spot":1.0,"SideOfStreet":"left","CountryId":"20633737","CountyId":"23218688","CityId":"23218690"}}},{"Relevance":1.0,"Distance":72.4,"MatchLevel":"street","MatchQuality":{"Country":1.0,"County":1.0,"City":1.0,"District":1.0,"PostalCode":1.0},"Location":{"LocationId":"NT_2XJ01n9zrmyDCBqPlKGytC_l_992004735_L","LocationType":"point","DisplayPosition":{"Latitude":56.95436,"Longitude":24.05316},"MapView":{"TopLeft":{"Latitude":56.95436,"Longitude":24.05247},"BottomRight":{"Latitude":56.95429,"Longitude":24.05316}},"Address":{"Label":"Rīga, LV-1083, Latvija","Country":"LVA","County":"Rīga","City":"Rīga","District":"Dzirciems","PostalCode":"1083","AdditionalData":[{"value":"Latvija","key":"CountryName"},{"value":"Rīga","key":"CountyName"}]},"MapReference":{"ReferenceId":"992004735","Spot":1.0,"SideOfStreet":"left","CountryId":"20633737","CountyId":"23218688","CityId":"23218690"}}},{"Relevance":1.0,"Distance":75.6,"MatchLevel":"street","MatchQuality":{"Country":1.0,"County":1.0,"City":1.0,"District":1.0,"Street":[1.0],"PostalCode":1.0},"Location":{"LocationId":"NT_l-FKkquQwMwfFvCPeFfGPC_l_750343705_R","LocationType":"point","DisplayPosition":{"Latitude":56.95515,"Longitude":24.05293},"MapView":{"TopLeft":{"Latitude":56.95515,"Longitude":24.05163},"BottomRight":{"Latitude":56.9551,"Longitude":24.05293}},"Address":{"Label":"Jaunsaules iela, Rīga, LV-1083, Latvija","Country":"LVA","County":"Rīga","City":"Rīga","District":"Dzirciems","Street":"Jaunsaules iela","PostalCode":"1083","AdditionalData":[{"value":"Latvija","key":"CountryName"},{"value":"Rīga","key":"CountyName"}]},"MapReference":{"ReferenceId":"750343705","Spot":1.0,"SideOfStreet":"right","CountryId":"20633737","CountyId":"23218688","CityId":"23218690"}}}]}]}}