{"Response":{"MetaInfo":{"Timestamp":"2020-03-28T11:17:15.805+0000","NextPageInformation":"2"},"View":[{"_type":"SearchResultsViewType","ViewId":0,"Result":[{"Relevance":1.0,"Distance":0.0,"Direction":0.0,"MatchLevel":"district","MatchQuality":{"Country":1.0,"State":1.0,"County":1.0,"City":1.0,"District":1.0,"PostalCode":1.0},"Location":{"LocationId":"NT_Kt38NEokos-63b209qZHLD","LocationType":"point","DisplayPosition":{"Latitude":56.9688045,"Longitude":-2.2322414},"MapView":{"TopLeft":{"Latitude":56.97633,"Longitude":-2.2403},"BottomRight":{"Latitude":56.95402,"Longitude":-2.19461}},"Address":{"Label":"Stonehaven, Scotland, United Kingdom","Country":"GBR","State":"Scotland","County":"Kincardineshire","City":"Stonehaven","District":"Stonehaven","PostalCode":"AB39 2","AdditionalData":[{"value":"United Kingdom","key":"CountryName"},{"value":"Scotland","key":"StateName"},{"value":"Kincardineshire","key":"CountyName"}]},"MapReference":{"ReferenceId":"19180299","SideOfStreet":"neither","StateId":"20252820","CountyId":"20292322","CityId":"20292335","DistrictId":"20292336"}}},{"Relevance":1.0,"Distance":27.0,"MatchLevel":"houseNumber","MatchQuality":{"Country":1.0,"State":1.0,"County":1.0,"City":1.0,"District":1.0,"Street":[1.0],"HouseNumber":1.0,"PostalCode":1.0},"MatchType":"interpolated","Location":{"LocationId":"NT_scBFGiKUuhi0BESCpAOYiD_l_19180084_R_xgD","LocationType":"point","DisplayPosition":{"Latitude":56.968513,"Longitude":-2.2326311},"MapView":{"TopLeft":{"Latitude":56.9696372,"Longitude":-2.2346933},"BottomRight":{"Latitude":56.9673889,"Longitude":-2.2305688}},"Address":{"Label":"18 Bernham Avenue, Stonehaven, AB39 2WD, United Kingdom","Country":"GBR","State":"Scotland","County":"Kincardineshire","City":"Stonehaven","District":"Stonehaven","Street":"Bernham Avenue","HouseNumber":"18","PostalCode":"AB39 2WD","AdditionalData":[{"value":"United Kingdom","key":"CountryName"},{"value":"Scotland","key":"StateName"},{"value":"Kincardineshire","key":"CountyName"}]},"MapReference":{"ReferenceId":"19180084","Spot":0.22,"SideOfStreet":"right","StateId":"20252820","CountyId":"20292322","CityId":"20292335","DistrictId":"20292336"}}},{"Relevance":1.0,"Distance":34.3,"MatchLevel":"houseNumber","MatchQuality":{"Country":1.0,"State":1.0,"County":1.0,"City":1.0,"District":1.0,"Street":[1.0],"HouseNumber":1.0,"PostalCode":1.0},"MatchType":"interpolated","Location":{"LocationId":"NT_ACqpvHQSTVZZfXeNYX8FcD_l_872844348_R_xA","LocationType":"point","DisplayPosition":{"Latitude":56.9683768,"Longitude":-2.2320469},"MapView":{"TopLeft":{"Latitude":56.9695009,"Longitude":-2.2341092},"BottomRight":{"Latitude":56.9672526,"Longitude":-2.2299846}},"Address":{"Label":"1 Bernham Terrace, Stonehaven, AB39 2WP, United Kingdom","Country":"GBR","State":"Scotland","County":"Kincardineshire","City":"Stonehaven","District":"Stonehaven","Street":"Bernham Terrace","HouseNumber":"1","PostalCode":"AB39 2WP","AdditionalData":[{"value":"United Kingdom","key":"CountryName"},{"value":"Scotland","key":"StateName"},{"value":"Kincardineshire","key":"CountyName"}]},"MapReference":{"ReferenceId":"872844348","Spot":0.74,"SideOfStreet":"right","StateId":"20252820","CountyId":"20292322","CityId":"20292335","DistrictId":"20292336"}}},{"Relevance":1.0,"Distance":42.0,"MatchLevel":"houseNumber","MatchQuality":{"Country":1.0,"State":1.0,"County":1.0,"City":1.0,"District":1.0,"Street":[1.0],"HouseNumber":1.0,"PostalCode":1.0},"MatchType":"interpolated","Location":{"LocationId":"NT_IXUiokfnlVnxeXeudpeQIC_l_19295208_L_3kD","LocationType":"point","DisplayPosition":{"Latitude":56.9692798,"Longitude":-2.2325921},"MapView":{"TopLeft":{"Latitude":56.970404,"Longitude":-2.2346544},"BottomRight":{"Latitude":56.9681556,"Longitude":-2.2305298}},"Address":{"Label":"79 Martin Drive, Stonehaven, AB39 2LU, United Kingdom","Country":"GBR","State":"Scotland","County":"Kincardineshire","City":"Stonehaven","District":"Stonehaven","Street":"Martin Drive","HouseNumber":"79","PostalCode":"AB39 2LU","AdditionalData":[{"value":"United Kingdom","key":"CountryName"},{"value":"Scotland","key":"StateName"},{"value":"Kincardineshire","key":"CountyName"}]},"MapReference":{"ReferenceId":"19295208","Spot":0.26,"SideOfStreet":"left","StateId":"20252820","CountyId":"20292322","CityId":"20292335","DistrictId":"20292336"}}},{"Relevance":1.0,"Distance":47.0,"MatchLevel":"street","MatchQuality":{"Country":1.0,"State":1.0,"County":1.0,"City":1.0,"District":1.0,"PostalCode":1.0},"Location":{"LocationId":"NT_S581CPCelQ3D5zLBkrb10C_l_1067351729_L","LocationType":"point","DisplayPosition":{"Latitude":56.96905,"Longitude":-2.23161},"MapView":{"TopLeft":{"Latitude":56.96905,"Longitude":-2.23161},"BottomRight":{"Latitude":56.96843,"Longitude":-2.23055}},"Address":{"Label":"Stonehaven, AB39 2, United Kingdom","Country":"GBR","State":"Scotland","County":"Kincardineshire","City":"Stonehaven","District":"Stonehaven","PostalCode":"AB39 2","AdditionalData":[{"value":"United Kingdom","key":"CountryName"},{"value":"Scotland","key":"StateName"},{"value":"Kincardineshire","key":"CountyName"}]},"MapReference":{"ReferenceId":"1067351729","Spot":1.0,"SideOfStreet":"left","StateId":"20252820","CountyId":"20292322","CityId":"20292335","DistrictId":"20292336"}}},{"Relevance":1.0,"Distance":72.0,"MatchLevel":"postalCode","MatchQuality":{"PostalCode":1.0},"Location":{"LocationId":"NT_S581CPCelQ3D5zLBkrb10C_l_1067351729_L","LocationType":"point","DisplayPosition":{"Latitude":56.96894,"Longitude":-2.23108},"MapView":{"TopLeft":{"Latitude":56.9779332,"Longitude":-2.2475785},"BottomRight":{"Latitude":56.9599468,"Longitude":-2.2145815}},"Address":{"Label":"AB39 2NJ, Stonehaven, Scotland, United Kingdom","Country":"GBR","State":"Scotland","County":"Kincardineshire","City":"Stonehaven","PostalCode":"AB39 2NJ","AdditionalData":[{"value":"United Kingdom","key":"CountryName"},{"value":"Scotland","key":"StateName"},{"value":"Kincardineshire","key":"CountyName"}]},"MapReference":{"ReferenceId":"1067351729","Spot":1.0,"SideOfStreet":"neither","StateId":"20252820","CountyId":"20292322","CityId":"20292335"}}},{"Relevance":1.0,"Distance":78.2,"MatchLevel":"houseNumber","MatchQuality":{"Country":1.0,"State":1.0,"County":1.0,"City":1.0,"District":1.0,"Street":[1.0],"HouseNumber":1.0,"PostalCode":1.0},"MatchType":"interpolated","Location":{"LocationId":"NT_scBFGiKUuhi0BESCpAOYiD_l_19180103_R_xQD","LocationType":"point","DisplayPosition":{"Latitude":56.9681068,"Longitude":-2.2324098},"MapView":{"TopLeft":{"Latitude":56.969231,"Longitude":-2.234472},"BottomRight":{"Latitude":56.9669827,"Longitude":-2.2303475}},"Address":{"Label":"14 Bernham Avenue, Stonehaven, AB39 2WD, United Kingdom","Country":"GBR","State":"Scotland","County":"Kincardineshire","City":"Stonehaven","District":"Stonehaven","Street":"Bernham Avenue","HouseNumber":"14","PostalCode":"AB39 2WD","AdditionalData":[{"value":"United Kingdom","key":"CountryName"},{"value":"Scotland","key":"StateName"},{"value":"Kincardineshire","key":"CountyName"}]},"MapReference":{"ReferenceId":"19180103","Spot":0.62,"SideOfStreet":"right","StateId":"20252820","CountyId":"20292322","CityId":"20292335","DistrictId":"20292336"}}},{"Relevance":1.0,"Distance":82.4,"MatchLevel":"houseNumber","MatchQuality":{"Country":1.0,"State":1.0,"County":1.0,"City":1.0,"District":1.0,"Street":[1.0],"HouseNumber":1.0,"PostalCode":1.0},"MatchType":"interpolated","Location":{"LocationId":"NT_IXUiokfnlVnxeXeudpeQIC_l_19295207_L_4QD","LocationType":"point","DisplayPosition":{"Latitude":56.96967,"Longitude":-2.23231},"MapView":{"TopLeft":{"Latitude":56.9707942,"Longitude":-2.2343724},"BottomRight":{"Latitude":56.9685459,"Longitude":-2.2302477}},"Address":{"Label":"84 Martin Drive, Stonehaven, AB39 2LU, United Kingdom","Country":"GBR","State":"Scotland","County":"Kincardineshire","City":"Stonehaven","District":"Stonehaven","Street":"Martin Drive","HouseNumber":"84","PostalCode":"AB39 2LU","AdditionalData":[{"value":"United Kingdom","key":"CountryName"},{"value":"Scotland","key":"StateName"},{"value":"Kincardineshire","key":"CountyName"}]},"MapReference":{"ReferenceId":"19295207","Spot":0.0,"SideOfStreet":"left","StateId":"20252820","CountyId":"20292322","CityId":"20292335","DistrictId":"20292336"}}},{"Relevance":1.0,"Distance":93.2,"MatchLevel":"street","MatchQuality":{"Country":1.0,"State":1.0,"County":1.0,"City":1.0,"District":1.0,"PostalCode":1.0},"Location":{"LocationId":"NT_S581CPCelQ3D5zLBkrb10C_l_19180083_R","LocationType":"point","DisplayPosition":{"Latitude":56.9684155,"Longitude":-2.233603},"MapView":{"TopLeft":{"Latitude":56.96858,"Longitude":-2.23378},"BottomRight":{"Latitude":56.96834,"Longitude":-2.23359}},"Address":{"Label":"Stonehaven, AB39 2, United Kingdom","Country":"GBR","State":"Scotland","County":"Kincardineshire","City":"Stonehaven","District":"Stonehaven","PostalCode":"AB39 2","AdditionalData":[{"value":"United Kingdom","key":"CountryName"},{"value":"Scotland","key":"StateName"},{"value":"Kincardineshire","key":"CountyName"}]},"MapReference":{"ReferenceId":"19180083","Spot":0.58,"SideOfStreet":"right","StateId":"20252820","CountyId":"20292322","CityId":"20292335","DistrictId":"20292336"}}},{"Relevance":1.0,"Distance":96.5,"MatchLevel":"postalCode","MatchQuality":{"PostalCode":1.0},"MatchType":"interpolated","Location":{"LocationId":"NT_ACqpvHQSTVZZfXeNYX8FcD_l_872844347_L_4A","LocationType":"point","DisplayPosition":{"Latitude":56.96801,"Longitude":-2.2316},"MapView":{"TopLeft":{"Latitude":56.9770032,"Longitude":-2.2480981},"BottomRight":{"Latitude":56.9590168,"Longitude":-2.2151019}},"Address":{"Label":"AB39 2WP, Stonehaven, Scotland, United Kingdom","Country":"GBR","State":"Scotland","County":"Kincardineshire","City":"Stonehaven","PostalCode":"AB39 2WP","AdditionalData":[{"value":"United Kingdom","key":"CountryName"},{"value":"Scotland","key":"StateName"},{"value":"Kincardineshire","key":"CountyName"}]},"MapReference":{"ReferenceId":"872844347","Spot":0.51,"SideOfStreet":"neither","StateId":"20252820","CountyId":"20292322","CityId":"20292335"}}}]}]}}