{"Response":{"MetaInfo":{"Timestamp":"2020-03-28T10:44:48.287+0000","NextPageInformation":"2"},"View":[{"_type":"SearchResultsViewType","ViewId":0,"Result":[{"Relevance":1.0,"Distance":0.0,"Direction":0.0,"MatchLevel":"district","MatchQuality":{"Country":1.0,"County":1.0,"City":1.0,"District":1.0,"PostalCode":1.0},"Location":{"LocationId":"NT_dWDwaZKjN9V2CTel4apIfD","LocationType":"point","DisplayPosition":{"Latitude":56.9126946,"Longitude":24.1815204},"MapView":{"TopLeft":{"Latitude":56.92736,"Longitude":24.15735},"BottomRight":{"Latitude":56.89664,"Longitude":24.21744}},"Address":{"Label":"Ķengarags, Rīga, Latvija","Country":"LVA","County":"Rīga","City":"Rīga","District":"Ķengarags","PostalCode":"1057","AdditionalData":[{"value":"Latvija","key":"CountryName"},{"value":"Rīga","key":"CountyName"}]},"MapReference":{"ReferenceId":"1123467625","SideOfStreet":"neither","CountryId":"20633737","CountyId":"23218688","CityId":"23218690"}}},{"Relevance":1.0,"Distance":2.6,"MatchLevel":"street","MatchQuality":{"Country":1.0,"County":1.0,"City":1.0,"District":1.0,"PostalCode":1.0},"Location":{"LocationId":"NT_VP4Dv4ED2CKJYnJFnWZnFC_l_750678677_L","LocationType":"point","DisplayPosition":{"Latitude":56.912716,"Longitude":24.181502},"MapView":{"TopLeft":{"Latitude":56.91276,"Longitude":24.18122},"BottomRight":{"Latitude":56.91268,"Longitude":24.18153}},"Address":{"Label":"Rīga, LV-1057, Latvija","Country":"LVA","County":"Rīga","City":"Rīga","District":"Ķengarags","PostalCode":"1057","AdditionalData":[{"value":"Latvija","key":"CountryName"},{"value":"Rīga","key":"CountyName"}]},"MapReference":{"ReferenceId":"750678677","Spot":0.11,"SideOfStreet":"neither","CountryId":"20633737","CountyId":"23218688","CityId":"23218690"}}},{"Relevance":1.0,"Distance":4.9,"MatchLevel":"street","MatchQuality":{"Country":1.0,"County":1.0,"City":1.0,"District":1.0,"PostalCode":1.0},"Location":{"LocationId":"NT_VP4Dv4ED2CKJYnJFnWZnFC_l_750641101_L","LocationType":"point","DisplayPosition":{"Latitude":56.9127383,"Longitude":24.1815351},"MapView":{"TopLeft":{"Latitude":56.91274,"Longitude":24.18153},"BottomRight":{"Latitude":56.91247,"Longitude":24.18233}},"Address":{"Label":"Rīga, LV-1057, Latvija","Country":"LVA","County":"Rīga","City":"Rīga","District":"Ķengarags","PostalCode":"1057","AdditionalData":[{"value":"Latvija","key":"CountryName"},{"value":"Rīga","key":"CountyName"}]},"MapReference":{"ReferenceId":"750641101","Spot":0.99,"SideOfStreet":"left","CountryId":"20633737","CountyId":"23218688","CityId":"23218690"}}},{"Relevance":1.0,"Distance":5.1,"MatchLevel":"street","MatchQuality":{"Country":1.0,"County":1.0,"City":1.0,"District":1.0,"PostalCode":1.0},"Location":{"LocationId":"NT_VP4Dv4ED2CKJYnJFnWZnFC_l_750671468_R","LocationType":"point","DisplayPosition":{"Latitude":56.91274,"Longitude":24.18153},"MapView":{"TopLeft":{"Latitude":56.91324,"Longitude":24.18153},"BottomRight":{"Latitude":56.91274,"Longitude":24.18212}},"Address":{"Label":"Rīga, LV-1057, Latvija","Country":"LVA","County":"Rīga","City":"Rīga","District":"Ķengarags","PostalCode":"1057","AdditionalData":[{"value":"Latvija","key":"CountryName"},{"value":"Rīga","key":"CountyName"}]},"MapReference":{"ReferenceId":"750671468","Spot":0.0,"SideOfStreet":"right","CountryId":"20633737","CountyId":"23218688","CityId":"23218690"}}},{"Relevance":1.0,"Distance":19.6,"MatchLevel":"street","MatchQuality":{"Country":1.0,"County":1.0,"City":1.0,"District":1.0,"PostalCode":1.0},"Location":{"LocationId":"NT_VP4Dv4ED2CKJYnJFnWZnFC_l_750544647_R","LocationType":"point","DisplayPosition":{"Latitude":56.91276,"Longitude":24.18122},"MapView":{"TopLeft":{"Latitude":56.91276,"Longitude":24.1809},"BottomRight":{"Latitude":56.91243,"Longitude":24.18122}},"Address":{"Label":"Rīga, LV-1057, Latvija","Country":"LVA","County":"Rīga","City":"Rīga","District":"Ķengarags","PostalCode":"1057","AdditionalData":[{"value":"Latvija","key":"CountryName"},{"value":"Rīga","key":"CountyName"}]},"MapReference":{"ReferenceId":"750544647","Spot":1.0,"SideOfStreet":"right","CountryId":"20633737","CountyId":"23218688","CityId":"23218690"}}},{"Relevance":1.0,"Distance":23.2,"MatchLevel":"street","MatchQuality":{"Country":1.0,"County":1.0,"City":1.0,"District":1.0,"PostalCode":1.0},"Location":{"LocationId":"NT_VP4Dv4ED2CKJYnJFnWZnFC_l_750849372_R","LocationType":"point","DisplayPosition":{"Latitude":56.9128761,"Longitude":24.1813316},"MapView":{"TopLeft":{"Latitude":56.91323,"Longitude":24.1809},"BottomRight":{"Latitude":56.91276,"Longitude":24.18147}},"Address":{"Label":"Rīga, LV-1057, Latvija","Country":"LVA","County":"Rīga","City":"Rīga","District":"Ķengarags","PostalCode":"1057","AdditionalData":[{"value":"Latvija","key":"CountryName"},{"value":"Rīga","key":"CountyName"}]},"MapReference":{"ReferenceId":"750849372","Spot":0.17,"SideOfStreet":"right","CountryId":"20633737","CountyId":"23218688","CityId":"23218690"}}},{"Relevance":1.0,"Distance":35.5,"MatchLevel":"houseNumber","MatchQuality":{"Country":1.0,"County":1.0,"City":1.0,"District":1.0,"Street":[1.0],"HouseNumber":1.0,"PostalCode":1.0},"MatchType":"interpolated","Location":{"LocationId":"NT_4e8KilFbF6LQIEGK20mSvC_xEG","LocationType":"point","DisplayPosition":{"Latitude":56.91312,"Longitude":24.18075},"MapView":{"TopLeft":{"Latitude":56.9142442,"Longitude":24.1786908},"BottomRight":{"Latitude":56.9119958,"Longitude":24.1828092}},"Address":{"Label":"Izvaltas iela 1a, Rīga, LV-1057, Latvija","Country":"LVA","County":"Rīga","City":"Rīga","District":"Ķengarags","Street":"Izvaltas iela","HouseNumber":"1a","PostalCode":"1057","AdditionalData":[{"value":"Latvija","key":"CountryName"},{"value":"Rīga","key":"CountyName"}]},"MapReference":{"ReferenceId":"750802241","Spot":0.79,"SideOfStreet":"right","CountryId":"20633737","CountyId":"23218688","CityId":"23218690","AddressId":"735267392","RoadLinkId":"146784390"}}},{"Relevance":1.0,"Distance":37.8,"MatchLevel":"houseNumber","MatchQuality":{"Country":1.0,"County":1.0,"City":1.0,"District":1.0,"Street":[1.0],"HouseNumber":1.0,"PostalCode":1.0},"MatchType":"interpolated","Location":{"LocationId":"NT_MIv0ToQMS8HLBxpOfZQCvD_xUD","LocationType":"point","DisplayPosition":{"Latitude":56.9123,"Longitude":24.18215},"MapView":{"TopLeft":{"Latitude":56.9134242,"Longitude":24.1800908},"BottomRight":{"Latitude":56.9111758,"Longitude":24.1842092}},"Address":{"Label":"Rušonu iela 15, Rīga, LV-1057, Latvija","Country":"LVA","County":"Rīga","City":"Rīga","District":"Ķengarags","Street":"Rušonu iela","HouseNumber":"15","PostalCode":"1057","AdditionalData":[{"value":"Latvija","key":"CountryName"},{"value":"Rīga","key":"CountyName"}]},"MapReference":{"ReferenceId":"750516068","Spot":0.55,"SideOfStreet":"left","CountryId":"20633737","CountyId":"23218688","CityId":"23218690","AddressId":"357855081","RoadLinkId":"147058977"}}},{"Relevance":1.0,"Distance":47.4,"MatchLevel":"street","MatchQuality":{"Country":1.0,"County":1.0,"City":1.0,"District":1.0,"PostalCode":1.0},"Location":{"LocationId":"NT_VP4Dv4ED2CKJYnJFnWZnFC_l_750859180_R","LocationType":"point","DisplayPosition":{"Latitude":56.91228,"Longitude":24.18134},"MapView":{"TopLeft":{"Latitude":56.91243,"Longitude":24.1809},"BottomRight":{"Latitude":56.91228,"Longitude":24.18134}},"Address":{"Label":"Rīga, LV-1057, Latvija","Country":"LVA","County":"Rīga","City":"Rīga","District":"Ķengarags","PostalCode":"1057","AdditionalData":[{"value":"Latvija","key":"CountryName"},{"value":"Rīga","key":"CountyName"}]},"MapReference":{"ReferenceId":"750859180","Spot":0.0,"SideOfStreet":"right","CountryId":"20633737","CountyId":"23218688","CityId":"23218690"}}},{"Relevance":1.0,"Distance":47.8,"MatchLevel":"street","MatchQuality":{"Country":1.0,"County":1.0,"City":1.0,"District":1.0,"PostalCode":1.0},"Location":{"LocationId":"NT_VP4Dv4ED2CKJYnJFnWZnFC_l_750754070_R","LocationType":"point","DisplayPosition":{"Latitude":56.91243,"Longitude":24.1809},"MapView":{"TopLeft":{"Latitude":56.91246,"Longitude":24.18082},"BottomRight":{"Latitude":56.91243,"Longitude":24.1809}},"Address":{"Label":"Rīga, LV-1057, Latvija","Country":"LVA","County":"Rīga","City":"Rīga","District":"Ķengarags","PostalCode":"1057","AdditionalData":[{"value":"Latvija","key":"CountryName"},{"value":"Rīga","key":"CountyName"}]},"MapReference":{"ReferenceId":"750754070","Spot":0.0,"SideOfStreet":"right","CountryId":"20633737","CountyId":"23218688","CityId":"23218690"}}}]}]}}