{"Response":{"MetaInfo":{"Timestamp":"2020-03-28T10:34:47.595+0000","NextPageInformation":"2"},"View":[{"_type":"SearchResultsViewType","ViewId":0,"Result":[{"Relevance":1.0,"Distance":-6800.5,"MatchLevel":"landmark","MatchQuality":{"Country":1.0,"State":1.0,"County":1.0,"City":1.0,"District":1.0,"Street":[1.0],"PostalCode":1.0,"Name":1.0},"Location":{"LocationId":"NT_IFuEBAexphd-0bIjQBvNGD_p_489bhfc2KpvAMV8Jbiol5C","LocationType":"park","Name":"Cairngorms National Park","DisplayPosition":{"Latitude":56.97411,"Longitude":-4.42046},"MapView":{"TopLeft":{"Latitude":57.41069,"Longitude":-4.4771},"BottomRight":{"Latitude":56.74165,"Longitude":-2.80032}},"Address":{"Label":"A86, Newtonmore, PH20 1, United Kingdom","Country":"GBR","State":"Scotland","County":"Inverness-Shire","City":"Newtonmore","District":"Kinloch Laggan","Street":"A86","PostalCode":"PH20 1","AdditionalData":[{"value":"United Kingdom","key":"CountryName"},{"value":"Scotland","key":"StateName"},{"value":"Inverness-Shire","key":"CountyName"}]},"MapReference":{"StateId":"20252820","CountyId":"20292114","CityId":"20292172","DistrictId":"20292174","PlaceId":"1103584495"}}},{"Relevance":1.0,"Distance":0.0,"Direction":0.0,"MatchLevel":"district","MatchQuality":{"Country":1.0,"State":1.0,"County":1.0,"City":1.0,"District":1.0,"PostalCode":1.0},"Location":{"LocationId":"NT_oR4cnXQg1ZY1mBfMRXLZuB","LocationType":"point","DisplayPosition":{"Latitude":57.0202485,"Longitude":-4.2859258},"MapView":{"TopLeft":{"Latitude":57.02149,"Longitude":-4.29876},"BottomRight":{"Latitude":57.00709,"Longitude":-4.24097}},"Address":{"Label":"Laggan, Newtonmore, Scotland, United Kingdom","Country":"GBR","State":"Scotland","County":"Inverness-Shire","City":"Newtonmore","District":"Laggan","PostalCode":"PH20 1","AdditionalData":[{"value":"United Kingdom","key":"CountryName"},{"value":"Scotland","key":"StateName"},{"value":"Inverness-Shire","key":"CountyName"}]},"MapReference":{"ReferenceId":"19314000","SideOfStreet":"neither","StateId":"20252820","CountyId":"20292114","CityId":"20292172","DistrictId":"20339935"}}},{"Relevance":1.0,"Distance":24.1,"MatchLevel":"street","MatchQuality":{"Country":1.0,"State":1.0,"County":1.0,"City":1.0,"District":1.0,"PostalCode":1.0},"Location":{"LocationId":"NT_tUMnC6xdbFsw7QX1SrqueA_l_19179036_L","LocationType":"point","DisplayPosition":{"Latitude":57.0204627,"Longitude":-4.2858649},"MapView":{"TopLeft":{"Latitude":57.0207,"Longitude":-4.2867},"BottomRight":{"Latitude":57.01935,"Longitude":-4.28317}},"Address":{"Label":"Newtonmore, PH20 1, United Kingdom","Country":"GBR","State":"Scotland","County":"Inverness-Shire","City":"Newtonmore","District":"Laggan","PostalCode":"PH20 1","AdditionalData":[{"value":"United Kingdom","key":"CountryName"},{"value":"Scotland","key":"StateName"},{"value":"Inverness-Shire","key":"CountyName"}]},"MapReference":{"ReferenceId":"19179036","Spot":0.77,"SideOfStreet":"left","StateId":"20252820","CountyId":"20292114","CityId":"20292172","DistrictId":"20339935"}}},{"Relevance":1.0,"Distance":63.3,"MatchLevel":"street","MatchQuality":{"Country":1.0,"State":1.0,"County":1.0,"City":1.0,"District":1.0,"Street":[1.0],"PostalCode":1.0},"Location":{"LocationId":"NT_NWrhl6OJadIpLNBj1znxTA_l_873248785_R","LocationType":"point","DisplayPosition":{"Latitude":57.01975,"Longitude":-4.28643},"MapView":{"TopLeft":{"Latitude":57.01975,"Longitude":-4.28643},"BottomRight":{"Latitude":57.01954,"Longitude":-4.28639}},"Address":{"Label":"Gergask Avenue, Newtonmore, PH20 1, United Kingdom","Country":"GBR","State":"Scotland","County":"Inverness-Shire","City":"Newtonmore","District":"Laggan","Street":"Gergask Avenue","PostalCode":"PH20 1","AdditionalData":[{"value":"United Kingdom","key":"CountryName"},{"value":"Scotland","key":"StateName"},{"value":"Inverness-Shire","key":"CountyName"}]},"MapReference":{"ReferenceId":"873248785","Spot":1.0,"SideOfStreet":"right","StateId":"20252820","CountyId":"20292114","CityId":"20292172","DistrictId":"20339935"}}},{"Relevance":1.0,"Distance":68.7,"MatchLevel":"street","MatchQuality":{"Country":1.0,"State":1.0,"County":1.0,"City":1.0,"District":1.0,"Street":[1.0],"PostalCode":1.0},"Location":{"LocationId":"NT_NWrhl6OJadIpLNBj1znxTA_l_19179017_R","LocationType":"point","DisplayPosition":{"Latitude":57.0207,"Longitude":-4.2867},"MapView":{"TopLeft":{"Latitude":57.0207,"Longitude":-4.28765},"BottomRight":{"Latitude":57.02035,"Longitude":-4.2867}},"Address":{"Label":"Gergask Avenue, Newtonmore, PH20 1, United Kingdom","Country":"GBR","State":"Scotland","County":"Inverness-Shire","City":"Newtonmore","District":"Laggan","Street":"Gergask Avenue","PostalCode":"PH20 1","AdditionalData":[{"value":"United Kingdom","key":"CountryName"},{"value":"Scotland","key":"StateName"},{"value":"Inverness-Shire","key":"CountyName"}]},"MapReference":{"ReferenceId":"19179017","Spot":1.0,"SideOfStreet":"right","StateId":"20252820","CountyId":"20292114","CityId":"20292172","DistrictId":"20339935"}}},{"Relevance":1.0,"Distance":68.7,"MatchLevel":"street","MatchQuality":{"Country":1.0,"State":1.0,"County":1.0,"City":1.0,"District":1.0,"PostalCode":1.0},"Location":{"LocationId":"NT_tUMnC6xdbFsw7QX1SrqueA_l_19179012_L","LocationType":"point","DisplayPosition":{"Latitude":57.0207,"Longitude":-4.2867},"MapView":{"TopLeft":{"Latitude":57.02149,"Longitude":-4.29876},"BottomRight":{"Latitude":57.0207,"Longitude":-4.2867}},"Address":{"Label":"Newtonmore, PH20 1, United Kingdom","Country":"GBR","State":"Scotland","County":"Inverness-Shire","City":"Newtonmore","District":"Laggan","PostalCode":"PH20 1","AdditionalData":[{"value":"United Kingdom","key":"CountryName"},{"value":"Scotland","key":"StateName"},{"value":"Inverness-Shire","key":"CountyName"}]},"MapReference":{"ReferenceId":"19179012","Spot":0.0,"SideOfStreet":"left","StateId":"20252820","CountyId":"20292114","CityId":"20292172","DistrictId":"20339935"}}},{"Relevance":1.0,"Distance":76.7,"MatchLevel":"street","MatchQuality":{"Country":1.0,"State":1.0,"County":1.0,"City":1.0,"District":1.0,"Street":[1.0],"PostalCode":1.0},"Location":{"LocationId":"NT_NWrhl6OJadIpLNBj1znxTA_l_873248784_L","LocationType":"point","DisplayPosition":{"Latitude":57.01958,"Longitude":-4.28624},"MapView":{"TopLeft":{"Latitude":57.01958,"Longitude":-4.28639},"BottomRight":{"Latitude":57.01954,"Longitude":-4.28624}},"Address":{"Label":"Gergask Avenue, Newtonmore, PH20 1, United Kingdom","Country":"GBR","State":"Scotland","County":"Inverness-Shire","City":"Newtonmore","District":"Laggan","Street":"Gergask Avenue","PostalCode":"PH20 1","AdditionalData":[{"value":"United Kingdom","key":"CountryName"},{"value":"Scotland","key":"StateName"},{"value":"Inverness-Shire","key":"CountyName"}]},"MapReference":{"ReferenceId":"873248784","Spot":1.0,"SideOfStreet":"left","StateId":"20252820","CountyId":"20292114","CityId":"20292172","DistrictId":"20339935"}}},{"Relevance":1.0,"Distance":80.1,"MatchLevel":"postalCode","MatchQuality":{"PostalCode":1.0},"Location":{"LocationId":"NT_NWrhl6OJadIpLNBj1znxTA_l_19179017_R","LocationType":"point","DisplayPosition":{"Latitude":57.02046,"Longitude":-4.28719},"MapView":{"TopLeft":{"Latitude":57.0294532,"Longitude":-4.3037113},"BottomRight":{"Latitude":57.0114668,"Longitude":-4.2706687}},"Address":{"Label":"PH20 1AH, Newtonmore, Scotland, United Kingdom","Country":"GBR","State":"Scotland","County":"Inverness-Shire","City":"Newtonmore","PostalCode":"PH20 1AH","AdditionalData":[{"value":"United Kingdom","key":"CountryName"},{"value":"Scotland","key":"StateName"},{"value":"Inverness-Shire","key":"CountyName"}]},"MapReference":{"ReferenceId":"19179017","Spot":1.0,"SideOfStreet":"neither","StateId":"20252820","CountyId":"20292114","CityId":"20292172"}}},{"Relevance":1.0,"Distance":83.6,"MatchLevel":"street","MatchQuality":{"Country":1.0,"State":1.0,"County":1.0,"City":1.0,"District":1.0,"Street":[1.0],"PostalCode":1.0},"Location":{"LocationId":"NT_NWrhl6OJadIpLNBj1znxTA_l_873248783_L","LocationType":"point","DisplayPosition":{"Latitude":57.01954,"Longitude":-4.28639},"MapView":{"TopLeft":{"Latitude":57.01954,"Longitude":-4.28705},"BottomRight":{"Latitude":57.01954,"Longitude":-4.28639}},"Address":{"Label":"Gergask Avenue, Newtonmore, PH20 1, United Kingdom","Country":"GBR","State":"Scotland","County":"Inverness-Shire","City":"Newtonmore","District":"Laggan","Street":"Gergask Avenue","PostalCode":"PH20 1","AdditionalData":[{"value":"United Kingdom","key":"CountryName"},{"value":"Scotland","key":"StateName"},{"value":"Inverness-Shire","key":"CountyName"}]},"MapReference":{"ReferenceId":"873248783","Spot":1.0,"SideOfStreet":"left","StateId":"20252820","CountyId":"20292114","CityId":"20292172","DistrictId":"20339935"}}},{"Relevance":1.0,"Distance":86.4,"MatchLevel":"street","MatchQuality":{"Country":1.0,"State":1.0,"County":1.0,"City":1.0,"District":1.0,"Street":[1.0],"PostalCode":1.0},"Location":{"LocationId":"NT_NWrhl6OJadIpLNBj1znxTA_l_873248782_R","LocationType":"point","DisplayPosition":{"Latitude":57.01984,"Longitude":-4.28714},"MapView":{"TopLeft":{"Latitude":57.02035,"Longitude":-4.28765},"BottomRight":{"Latitude":57.01954,"Longitude":-4.28705}},"Address":{"Label":"Gergask Avenue, Newtonmore, PH20 1, United Kingdom","Country":"GBR","State":"Scotland","County":"Inverness-Shire","City":"Newtonmore","District":"Laggan","Street":"Gergask Avenue","PostalCode":"PH20 1","AdditionalData":[{"value":"United Kingdom","key":"CountryName"},{"value":"Scotland","key":"StateName"},{"value":"Inverness-Shire","key":"CountyName"}]},"MapReference":{"ReferenceId":"873248782","Spot":0.3,"SideOfStreet":"right","StateId":"20252820","CountyId":"20292114","CityId":"20292172","DistrictId":"20339935"}}}]}]}}