{"Response":{"MetaInfo":{"Timestamp":"2020-03-28T09:50:14.670+0000","NextPageInformation":"2"},"View":[{"_type":"SearchResultsViewType","ViewId":0,"Result":[{"Relevance":1.0,"Distance":0.0,"Direction":0.0,"MatchLevel":"district","MatchQuality":{"Country":1.0,"State":1.0,"County":1.0,"City":1.0,"District":1.0,"PostalCode":1.0},"Location":{"LocationId":"NT_siDtKHJ6yeyrWkAo5yQSBB","LocationType":"point","DisplayPosition":{"Latitude":57.1659426,"Longitude":-2.160389},"MapView":{"TopLeft":{"Latitude":57.20576,"Longitude":-2.1879},"BottomRight":{"Latitude":57.1066,"Longitude":-2.06567}},"Address":{"Label":"Aberdeen, Scotland, United Kingdom","Country":"GBR","State":"Scotland","County":"Aberdeenshire","City":"Aberdeen","District":"Aberdeen","PostalCode":"AB11 6","AdditionalData":[{"value":"United Kingdom","key":"CountryName"},{"value":"Scotland","key":"StateName"},{"value":"Aberdeenshire","key":"CountyName"}]},"MapReference":{"ReferenceId":"19248394","SideOfStreet":"neither","StateId":"20252820","CountyId":"20291697","CityId":"20291698","DistrictId":"20291699"}}},{"Relevance":1.0,"Distance":21.9,"MatchLevel":"houseNumber","MatchQuality":{"Country":1.0,"State":1.0,"County":1.0,"City":1.0,"District":1.0,"Street":[1.0],"HouseNumber":1.0,"PostalCode":1.0},"MatchType":"interpolated","Location":{"LocationId":"NT_rnI.jIorspjlmzFlTDvXkC_l_19244913_R_2A","LocationType":"point","DisplayPosition":{"Latitude":57.165985,"Longitude":-2.160035},"MapView":{"TopLeft":{"Latitude":57.1671092,"Longitude":-2.1621083},"BottomRight":{"Latitude":57.1648609,"Longitude":-2.1579617}},"Address":{"Label":"6 Marchburn Road, Aberdeen, AB16 7NN, United Kingdom","Country":"GBR","State":"Scotland","County":"Aberdeenshire","City":"Aberdeen","District":"Aberdeen","Street":"Marchburn Road","HouseNumber":"6","PostalCode":"AB16 7NN","AdditionalData":[{"value":"United Kingdom","key":"CountryName"},{"value":"Scotland","key":"StateName"},{"value":"Aberdeenshire","key":"CountyName"}]},"MapReference":{"ReferenceId":"19244913","Spot":0.49,"SideOfStreet":"right","StateId":"20252820","CountyId":"20291697","CityId":"20291698","DistrictId":"20291699"}}},{"Relevance":1.0,"Distance":22.1,"MatchLevel":"street","MatchQuality":{"Country":1.0,"State":1.0,"County":1.0,"City":1.0,"District":1.0,"Street":[1.0],"PostalCode":1.0},"Location":{"LocationId":"NT_aw0UMMQV4d7I2w054dp.4A_l_19244924_L","LocationType":"point","DisplayPosition":{"Latitude":57.1657439,"Longitude":-2.1603762},"MapView":{"TopLeft":{"Latitude":57.16577,"Longitude":-2.16106},"BottomRight":{"Latitude":57.1657,"Longitude":-2.15997}},"Address":{"Label":"Quarry Road, Aberdeen, AB16 5, United Kingdom","Country":"GBR","State":"Scotland","County":"Aberdeenshire","City":"Aberdeen","District":"Aberdeen","Street":"Quarry Road","PostalCode":"AB16 5","AdditionalData":[{"value":"United Kingdom","key":"CountryName"},{"value":"Scotland","key":"StateName"},{"value":"Aberdeenshire","key":"CountyName"}]},"MapReference":{"ReferenceId":"19244924","Spot":0.63,"SideOfStreet":"left","StateId":"20252820","CountyId":"20291697","CityId":"20291698","DistrictId":"20291699"}}},{"Relevance":1.0,"Distance":26.4,"MatchLevel":"postalCode","MatchQuality":{"PostalCode":1.0},"Location":{"LocationId":"NT_aw0UMMQV4d7I2w054dp.4A_l_19244924_L","LocationType":"point","DisplayPosition":{"Latitude":57.16577,"Longitude":-2.16069},"MapView":{"TopLeft":{"Latitude":57.1747632,"Longitude":-2.1772762},"BottomRight":{"Latitude":57.1567768,"Longitude":-2.1441038}},"Address":{"Label":"AB16 5UW, Aberdeen, Scotland, United Kingdom","Country":"GBR","State":"Scotland","County":"Aberdeenshire","City":"Aberdeen","PostalCode":"AB16 5UW","AdditionalData":[{"value":"United Kingdom","key":"CountryName"},{"value":"Scotland","key":"StateName"},{"value":"Aberdeenshire","key":"CountyName"}]},"MapReference":{"ReferenceId":"19244924","Spot":0.63,"SideOfStreet":"neither","StateId":"20252820","CountyId":"20291697","CityId":"20291698"}}},{"Relevance":1.0,"Distance":27.1,"MatchLevel":"houseNumber","MatchQuality":{"Country":1.0,"State":1.0,"County":1.0,"City":1.0,"District":1.0,"Street":[1.0],"HouseNumber":1.0,"PostalCode":1.0},"MatchType":"interpolated","Location":{"LocationId":"NT_86iFTWiAPOu.jOZkYcKIPA_l_19244874_R_0A","LocationType":"point","DisplayPosition":{"Latitude":57.166178,"Longitude":-2.1605038},"MapView":{"TopLeft":{"Latitude":57.1673022,"Longitude":-2.1625771},"BottomRight":{"Latitude":57.1650539,"Longitude":-2.1584305}},"Address":{"Label":"4 Byron Crescent, Aberdeen, AB16 7HD, United Kingdom","Country":"GBR","State":"Scotland","County":"Aberdeenshire","City":"Aberdeen","District":"Aberdeen","Street":"Byron Crescent","HouseNumber":"4","PostalCode":"AB16 7HD","AdditionalData":[{"value":"United Kingdom","key":"CountryName"},{"value":"Scotland","key":"StateName"},{"value":"Aberdeenshire","key":"CountyName"}]},"MapReference":{"ReferenceId":"19244874","Spot":0.16,"SideOfStreet":"right","StateId":"20252820","CountyId":"20291697","CityId":"20291698","DistrictId":"20291699"}}},{"Relevance":1.0,"Distance":35.8,"MatchLevel":"houseNumber","MatchQuality":{"Country":1.0,"State":1.0,"County":1.0,"City":1.0,"District":1.0,"Street":[1.0],"HouseNumber":1.0,"PostalCode":1.0},"MatchType":"interpolated","Location":{"LocationId":"NT_LhO6OtTRDEeniV1PpbrpOC_l_19244864_L_xMD","LocationType":"point","DisplayPosition":{"Latitude":57.16634,"Longitude":-2.16015},"MapView":{"TopLeft":{"Latitude":57.1674642,"Longitude":-2.1622233},"BottomRight":{"Latitude":57.1652159,"Longitude":-2.1580767}},"Address":{"Label":"13 Marchburn Road, Aberdeen, AB16 7NQ, United Kingdom","Country":"GBR","State":"Scotland","County":"Aberdeenshire","City":"Aberdeen","District":"Aberdeen","Street":"Marchburn Road","HouseNumber":"13","PostalCode":"AB16 7NQ","AdditionalData":[{"value":"United Kingdom","key":"CountryName"},{"value":"Scotland","key":"StateName"},{"value":"Aberdeenshire","key":"CountyName"}]},"MapReference":{"ReferenceId":"19244864","Spot":0.21,"SideOfStreet":"left","StateId":"20252820","CountyId":"20291697","CityId":"20291698","DistrictId":"20291699"}}},{"Relevance":1.0,"Distance":44.6,"MatchLevel":"houseNumber","MatchQuality":{"Country":1.0,"State":1.0,"County":1.0,"City":1.0,"District":1.0,"Street":[1.0],"HouseNumber":1.0,"PostalCode":1.0},"MatchType":"interpolated","Location":{"LocationId":"NT_aw0UMMQV4d7I2w054dp.4A_l_774075703_L_xID","LocationType":"point","DisplayPosition":{"Latitude":57.16579,"Longitude":-2.1596498},"MapView":{"TopLeft":{"Latitude":57.1669142,"Longitude":-2.161723},"BottomRight":{"Latitude":57.1646658,"Longitude":-2.1575765}},"Address":{"Label":"12 Quarry Road, Aberdeen, AB16 5UU, United Kingdom","Country":"GBR","State":"Scotland","County":"Aberdeenshire","City":"Aberdeen","District":"Aberdeen","Street":"Quarry Road","HouseNumber":"12","PostalCode":"AB16 5UU","AdditionalData":[{"value":"United Kingdom","key":"CountryName"},{"value":"Scotland","key":"StateName"},{"value":"Aberdeenshire","key":"CountyName"}]},"MapReference":{"ReferenceId":"774075703","Spot":0.52,"SideOfStreet":"left","StateId":"20252820","CountyId":"20291697","CityId":"20291698","DistrictId":"20291699"}}},{"Relevance":1.0,"Distance":48.6,"MatchLevel":"street","MatchQuality":{"Country":1.0,"State":1.0,"County":1.0,"City":1.0,"District":1.0,"Street":[1.0],"PostalCode":1.0},"Location":{"LocationId":"NT_8rv9sQxYoP-b21hZi9JYXA_l_19244925_R","LocationType":"point","DisplayPosition":{"Latitude":57.1657,"Longitude":-2.16106},"MapView":{"TopLeft":{"Latitude":57.16571,"Longitude":-2.16176},"BottomRight":{"Latitude":57.16569,"Longitude":-2.16106}},"Address":{"Label":"Quarry Road, Aberdeen, AB16 7, United Kingdom","Country":"GBR","State":"Scotland","County":"Aberdeenshire","City":"Aberdeen","District":"Aberdeen","Street":"Quarry Road","PostalCode":"AB16 7","AdditionalData":[{"value":"United Kingdom","key":"CountryName"},{"value":"Scotland","key":"StateName"},{"value":"Aberdeenshire","key":"CountyName"}]},"MapReference":{"ReferenceId":"19244925","Spot":0.0,"SideOfStreet":"right","StateId":"20252820","CountyId":"20291697","CityId":"20291698","DistrictId":"20291699"}}},{"Relevance":1.0,"Distance":48.6,"MatchLevel":"street","MatchQuality":{"Country":1.0,"State":1.0,"County":1.0,"City":1.0,"District":1.0,"Street":[1.0],"PostalCode":1.0},"Location":{"LocationId":"NT_-lahC6y-ZlyhwzXRMlSs3A_l_19244937_R","LocationType":"point","DisplayPosition":{"Latitude":57.1657,"Longitude":-2.16106},"MapView":{"TopLeft":{"Latitude":57.1657,"Longitude":-2.16106},"BottomRight":{"Latitude":57.16562,"Longitude":-2.16105}},"Address":{"Label":"Quarry Place, Aberdeen, AB16 7, United Kingdom","Country":"GBR","State":"Scotland","County":"Aberdeenshire","City":"Aberdeen","District":"Aberdeen","Street":"Quarry Place","PostalCode":"AB16 7","AdditionalData":[{"value":"United Kingdom","key":"CountryName"},{"value":"Scotland","key":"StateName"},{"value":"Aberdeenshire","key":"CountyName"}]},"MapReference":{"ReferenceId":"19244937","Spot":1.0,"SideOfStreet":"right","StateId":"20252820","CountyId":"20291697","CityId":"20291698","DistrictId":"20291699"}}},{"Relevance":1.0,"Distance":49.3,"MatchLevel":"houseNumber","MatchQuality":{"Country":1.0,"State":1.0,"County":1.0,"City":1.0,"District":1.0,"Street":[1.0],"HouseNumber":1.0,"PostalCode":1.0},"MatchType":"interpolated","Location":{"LocationId":"NT_-lahC6y-ZlyhwzXRMlSs3A_l_19296256_R_xgD","LocationType":"point","DisplayPosition":{"Latitude":57.1654767,"Longitude":-2.1610083},"MapView":{"TopLeft":{"Latitude":57.1666008,"Longitude":-2.1630816},"BottomRight":{"Latitude":57.1643525,"Longitude":-2.1589351}},"Address":{"Label":"18 Quarry Place, Aberdeen, AB16 7, United Kingdom","Country":"GBR","State":"Scotland","County":"Aberdeenshire","City":"Aberdeen","District":"Aberdeen","Street":"Quarry Place","HouseNumber":"18","PostalCode":"AB16 7","AdditionalData":[{"value":"United Kingdom","key":"CountryName"},{"value":"Scotland","key":"StateName"},{"value":"Aberdeenshire","key":"CountyName"}]},"MapReference":{"ReferenceId":"19296256","Spot":0.5,"SideOfStreet":"right","StateId":"20252820","CountyId":"20291697","CityId":"20291698","DistrictId":"20291699"}}}]}]}}