{"Response":{"MetaInfo":{"Timestamp":"2020-03-28T10:37:36.231+0000","NextPageInformation":"2"},"View":[{"_type":"SearchResultsViewType","ViewId":0,"Result":[{"Relevance":1.0,"Distance":0.0,"Direction":0.0,"MatchLevel":"district","MatchQuality":{"Country":1.0,"State":1.0,"County":1.0,"City":1.0,"District":1.0,"PostalCode":1.0},"Location":{"LocationId":"NT_siDtKHJ6yeyrWkAo5yQSBB","LocationType":"point","DisplayPosition":{"Latitude":57.1618043,"Longitude":-2.1023183},"MapView":{"TopLeft":{"Latitude":57.20576,"Longitude":-2.1879},"BottomRight":{"Latitude":57.1066,"Longitude":-2.06567}},"Address":{"Label":"Aberdeen, Scotland, United Kingdom","Country":"GBR","State":"Scotland","County":"Aberdeenshire","City":"Aberdeen","District":"Aberdeen","PostalCode":"AB11 6","AdditionalData":[{"value":"United Kingdom","key":"CountryName"},{"value":"Scotland","key":"StateName"},{"value":"Aberdeenshire","key":"CountyName"}]},"MapReference":{"ReferenceId":"19248394","SideOfStreet":"neither","StateId":"20252820","CountyId":"20291697","CityId":"20291698","DistrictId":"20291699"}}},{"Relevance":1.0,"Distance":43.7,"MatchLevel":"houseNumber","MatchQuality":{"Country":1.0,"State":1.0,"County":1.0,"City":1.0,"District":1.0,"Street":[1.0],"HouseNumber":1.0,"PostalCode":1.0},"MatchType":"interpolated","Location":{"LocationId":"NT_RmpLhmjVs999F8.4XLnoED_l_864392540_L_3A","LocationType":"point","DisplayPosition":{"Latitude":57.1621201,"Longitude":-2.10154},"MapView":{"TopLeft":{"Latitude":57.1632442,"Longitude":-2.1036131},"BottomRight":{"Latitude":57.1609959,"Longitude":-2.099467}},"Address":{"Label":"7 College Bounds, Aberdeen, AB24 3, United Kingdom","Country":"GBR","State":"Scotland","County":"Aberdeenshire","City":"Aberdeen","District":"Aberdeen","Street":"College Bounds","HouseNumber":"7","PostalCode":"AB24 3","AdditionalData":[{"value":"United Kingdom","key":"CountryName"},{"value":"Scotland","key":"StateName"},{"value":"Aberdeenshire","key":"CountyName"}]},"MapReference":{"ReferenceId":"864392540","Spot":0.14,"SideOfStreet":"left","StateId":"20252820","CountyId":"20291697","CityId":"20291698","DistrictId":"20291699"}}},{"Relevance":1.0,"Distance":45.3,"MatchLevel":"houseNumber","MatchQuality":{"Country":1.0,"State":1.0,"County":1.0,"City":1.0,"District":1.0,"Street":[1.0],"HouseNumber":1.0,"PostalCode":1.0},"MatchType":"interpolated","Location":{"LocationId":"NT_RmpLhmjVs999F8.4XLnoED_l_19245338_L_1A","LocationType":"point","DisplayPosition":{"Latitude":57.16177,"Longitude":-2.10139},"MapView":{"TopLeft":{"Latitude":57.1628942,"Longitude":-2.1034631},"BottomRight":{"Latitude":57.1606459,"Longitude":-2.099317}},"Address":{"Label":"5 College Bounds, Aberdeen, AB24 3, United Kingdom","Country":"GBR","State":"Scotland","County":"Aberdeenshire","City":"Aberdeen","District":"Aberdeen","Street":"College Bounds","HouseNumber":"5","PostalCode":"AB24 3","AdditionalData":[{"value":"United Kingdom","key":"CountryName"},{"value":"Scotland","key":"StateName"},{"value":"Aberdeenshire","key":"CountyName"}]},"MapReference":{"ReferenceId":"19245338","Spot":0.57,"SideOfStreet":"left","StateId":"20252820","CountyId":"20291697","CityId":"20291698","DistrictId":"20291699"}}},{"Relevance":1.0,"Distance":52.4,"MatchLevel":"postalCode","MatchQuality":{"PostalCode":1.0},"MatchType":"interpolated","Location":{"LocationId":"NT_RmpLhmjVs999F8.4XLnoED_l_19245338_L_1A","LocationType":"point","DisplayPosition":{"Latitude":57.16199,"Longitude":-2.10152},"MapView":{"TopLeft":{"Latitude":57.1709832,"Longitude":-2.1181045},"BottomRight":{"Latitude":57.1529968,"Longitude":-2.0849355}},"Address":{"Label":"AB24 3DX, Aberdeen, Scotland, United Kingdom","Country":"GBR","State":"Scotland","County":"Aberdeenshire","City":"Aberdeen","PostalCode":"AB24 3DX","AdditionalData":[{"value":"United Kingdom","key":"CountryName"},{"value":"Scotland","key":"StateName"},{"value":"Aberdeenshire","key":"CountyName"}]},"MapReference":{"ReferenceId":"19245338","Spot":0.57,"SideOfStreet":"neither","StateId":"20252820","CountyId":"20291697","CityId":"20291698"}}},{"Relevance":1.0,"Distance":54.6,"MatchLevel":"houseNumber","MatchQuality":{"Country":1.0,"State":1.0,"County":1.0,"City":1.0,"District":1.0,"Street":[1.0],"HouseNumber":1.0,"PostalCode":1.0},"MatchType":"interpolated","Location":{"LocationId":"NT_aewbOqasxHyrmsqKYskLbA_l_19325240_L_xA","LocationType":"point","DisplayPosition":{"Latitude":57.16199,"Longitude":-2.1014799},"MapView":{"TopLeft":{"Latitude":57.1631142,"Longitude":-2.103553},"BottomRight":{"Latitude":57.1608659,"Longitude":-2.0994069}},"Address":{"Label":"1 Orchard Walk, Aberdeen, AB24 3, United Kingdom","Country":"GBR","State":"Scotland","County":"Aberdeenshire","City":"Aberdeen","District":"Aberdeen","Street":"Orchard Walk","HouseNumber":"1","PostalCode":"AB24 3","AdditionalData":[{"value":"United Kingdom","key":"CountryName"},{"value":"Scotland","key":"StateName"},{"value":"Aberdeenshire","key":"CountyName"}]},"MapReference":{"ReferenceId":"19325240","Spot":0.0,"SideOfStreet":"left","StateId":"20252820","CountyId":"20291697","CityId":"20291698","DistrictId":"20291699"}}},{"Relevance":1.0,"Distance":65.2,"MatchLevel":"street","MatchQuality":{"Country":1.0,"State":1.0,"County":1.0,"City":1.0,"District":1.0,"PostalCode":1.0},"Location":{"LocationId":"NT_wUEfVFgsExNaMBqHNwpYJA_l_875135030_R","LocationType":"point","DisplayPosition":{"Latitude":57.16123,"Longitude":-2.1021},"MapView":{"TopLeft":{"Latitude":57.16123,"Longitude":-2.1021},"BottomRight":{"Latitude":57.16094,"Longitude":-2.10182}},"Address":{"Label":"Aberdeen, AB24 3, United Kingdom","Country":"GBR","State":"Scotland","County":"Aberdeenshire","City":"Aberdeen","District":"Aberdeen","PostalCode":"AB24 3","AdditionalData":[{"value":"United Kingdom","key":"CountryName"},{"value":"Scotland","key":"StateName"},{"value":"Aberdeenshire","key":"CountyName"}]},"MapReference":{"ReferenceId":"875135030","Spot":1.0,"SideOfStreet":"right","StateId":"20252820","CountyId":"20291697","CityId":"20291698","DistrictId":"20291699"}}},{"Relevance":1.0,"Distance":72.2,"MatchLevel":"street","MatchQuality":{"Country":1.0,"State":1.0,"County":1.0,"City":1.0,"District":1.0,"Street":[1.0],"PostalCode":1.0},"Location":{"LocationId":"NT_DGWcOuNbNKvPvvflUHur2A_l_875146783_L","LocationType":"point","DisplayPosition":{"Latitude":57.16148,"Longitude":-2.10128},"MapView":{"TopLeft":{"Latitude":57.16148,"Longitude":-2.10128},"BottomRight":{"Latitude":57.1612,"Longitude":-2.1011}},"Address":{"Label":"Spital, Aberdeen, AB24 3, United Kingdom","Country":"GBR","State":"Scotland","County":"Aberdeenshire","City":"Aberdeen","District":"Aberdeen","Street":"Spital","PostalCode":"AB24 3","AdditionalData":[{"value":"United Kingdom","key":"CountryName"},{"value":"Scotland","key":"StateName"},{"value":"Aberdeenshire","key":"CountyName"}]},"MapReference":{"ReferenceId":"875146783","Spot":1.0,"SideOfStreet":"left","StateId":"20252820","CountyId":"20291697","CityId":"20291698","DistrictId":"20291699"}}},{"Relevance":1.0,"Distance":81.3,"MatchLevel":"street","MatchQuality":{"Country":1.0,"State":1.0,"County":1.0,"City":1.0,"District":1.0,"PostalCode":1.0},"Location":{"LocationId":"NT_wUEfVFgsExNaMBqHNwpYJA_l_1120071492_R","LocationType":"point","DisplayPosition":{"Latitude":57.1610788,"Longitude":-2.1024795},"MapView":{"TopLeft":{"Latitude":57.16126,"Longitude":-2.10324},"BottomRight":{"Latitude":57.16094,"Longitude":-2.10182}},"Address":{"Label":"Aberdeen, AB24 3, United Kingdom","Country":"GBR","State":"Scotland","County":"Aberdeenshire","City":"Aberdeen","District":"Aberdeen","PostalCode":"AB24 3","AdditionalData":[{"value":"United Kingdom","key":"CountryName"},{"value":"Scotland","key":"StateName"},{"value":"Aberdeenshire","key":"CountyName"}]},"MapReference":{"ReferenceId":"1120071492","Spot":0.46,"SideOfStreet":"right","StateId":"20252820","CountyId":"20291697","CityId":"20291698","DistrictId":"20291699"}}},{"Relevance":1.0,"Distance":81.9,"MatchLevel":"postalCode","MatchQuality":{"PostalCode":1.0},"Location":{"LocationId":"NT_DGWcOuNbNKvPvvflUHur2A_l_875146783_L","LocationType":"point","DisplayPosition":{"Latitude":57.16135,"Longitude":-2.10125},"MapView":{"TopLeft":{"Latitude":57.1703432,"Longitude":-2.1178342},"BottomRight":{"Latitude":57.1523568,"Longitude":-2.0846658}},"Address":{"Label":"AB24 3JB, Aberdeen, Scotland, United Kingdom","Country":"GBR","State":"Scotland","County":"Aberdeenshire","City":"Aberdeen","PostalCode":"AB24 3JB","AdditionalData":[{"value":"United Kingdom","key":"CountryName"},{"value":"Scotland","key":"StateName"},{"value":"Aberdeenshire","key":"CountyName"}]},"MapReference":{"ReferenceId":"875146783","Spot":1.0,"SideOfStreet":"neither","StateId":"20252820","CountyId":"20291697","CityId":"20291698"}}},{"Relevance":1.0,"Distance":82.2,"MatchLevel":"street","MatchQuality":{"Country":1.0,"State":1.0,"County":1.0,"City":1.0,"District":1.0,"PostalCode":1.0},"Location":{"LocationId":"NT_wUEfVFgsExNaMBqHNwpYJA_l_1120070072_R","LocationType":"point","DisplayPosition":{"Latitude":57.16126,"Longitude":-2.10324},"MapView":{"TopLeft":{"Latitude":57.16203,"Longitude":-2.10392},"BottomRight":{"Latitude":57.16126,"Longitude":-2.10324}},"Address":{"Label":"Aberdeen, AB24 3, United Kingdom","Country":"GBR","State":"Scotland","County":"Aberdeenshire","City":"Aberdeen","District":"Aberdeen","PostalCode":"AB24 3","AdditionalData":[{"value":"United Kingdom","key":"CountryName"},{"value":"Scotland","key":"StateName"},{"value":"Aberdeenshire","key":"CountyName"}]},"MapReference":{"ReferenceId":"1120070072","Spot":0.0,"SideOfStreet":"right","StateId":"20252820","CountyId":"20291697","CityId":"20291698","DistrictId":"20291699"}}}]}]}}