{"Response":{"MetaInfo":{"Timestamp":"2020-03-28T10:09:32.585+0000","NextPageInformation":"2"},"View":[{"_type":"SearchResultsViewType","ViewId":0,"Result":[{"Relevance":1.0,"Distance":0.0,"Direction":0.0,"MatchLevel":"district","MatchQuality":{"Country":1.0,"State":1.0,"County":1.0,"City":1.0,"District":1.0,"PostalCode":1.0},"Location":{"LocationId":"NT_GBVjK0p8vuVqaRMquWieJA","LocationType":"point","DisplayPosition":{"Latitude":57.2812989,"Longitude":-5.7094127},"MapView":{"TopLeft":{"Latitude":57.28906,"Longitude":-5.72387},"BottomRight":{"Latitude":57.27905,"Longitude":-5.7064}},"Address":{"Label":"Kyle, Scotland, United Kingdom","Country":"GBR","State":"Scotland","County":"Ross-Shire","City":"Kyle","District":"Kyle","PostalCode":"IV40 8","AdditionalData":[{"value":"United Kingdom","key":"CountryName"},{"value":"Scotland","key":"StateName"},{"value":"Ross-Shire","key":"CountyName"}]},"MapReference":{"ReferenceId":"1060445071","SideOfStreet":"neither","StateId":"20252820","CountyId":"20292566","CityId":"20292617","DistrictId":"20292618"}}},{"Relevance":1.0,"Distance":12.1,"MatchLevel":"street","MatchQuality":{"Country":1.0,"State":1.0,"County":1.0,"City":1.0,"District":1.0,"Street":[1.0],"PostalCode":1.0},"Location":{"LocationId":"NT_BqA9KRLucnSsP2sy0VfZZD_l_19269221_R","LocationType":"point","DisplayPosition":{"Latitude":57.2811903,"Longitude":-5.7094139},"MapView":{"TopLeft":{"Latitude":57.2812,"Longitude":-5.71084},"BottomRight":{"Latitude":57.28119,"Longitude":-5.70926}},"Address":{"Label":"A87, Kyle, IV40 8, United Kingdom","Country":"GBR","State":"Scotland","County":"Ross-Shire","City":"Kyle","District":"Kyle","Street":"A87","PostalCode":"IV40 8","AdditionalData":[{"value":"United Kingdom","key":"CountryName"},{"value":"Scotland","key":"StateName"},{"value":"Ross-Shire","key":"CountyName"}]},"MapReference":{"ReferenceId":"19269221","Spot":0.1,"SideOfStreet":"right","StateId":"20252820","CountyId":"20292566","CityId":"20292617","DistrictId":"20292618"}}},{"Relevance":1.0,"Distance":15.2,"MatchLevel":"street","MatchQuality":{"Country":1.0,"State":1.0,"County":1.0,"City":1.0,"District":1.0,"Street":[1.0],"PostalCode":1.0},"Location":{"LocationId":"NT_uPZJ5fBxXSgKOtF2G8IeVD_l_1057335234_L","LocationType":"point","DisplayPosition":{"Latitude":57.28119,"Longitude":-5.70926},"MapView":{"TopLeft":{"Latitude":57.28119,"Longitude":-5.71151},"BottomRight":{"Latitude":57.28039,"Longitude":-5.70926}},"Address":{"Label":"Fishery Pier, Kyle, IV40 8, United Kingdom","Country":"GBR","State":"Scotland","County":"Ross-Shire","City":"Kyle","District":"Kyle","Street":"Fishery Pier","PostalCode":"IV40 8","AdditionalData":[{"value":"United Kingdom","key":"CountryName"},{"value":"Scotland","key":"StateName"},{"value":"Ross-Shire","key":"CountyName"}]},"MapReference":{"ReferenceId":"1057335234","Spot":1.0,"SideOfStreet":"left","StateId":"20252820","CountyId":"20292566","CityId":"20292617","DistrictId":"20292618"}}},{"Relevance":1.0,"Distance":15.2,"MatchLevel":"street","MatchQuality":{"Country":1.0,"State":1.0,"County":1.0,"City":1.0,"District":1.0,"Street":[1.0],"PostalCode":1.0},"Location":{"LocationId":"NT_BqA9KRLucnSsP2sy0VfZZD_l_19307201_R","LocationType":"point","DisplayPosition":{"Latitude":57.28119,"Longitude":-5.70926},"MapView":{"TopLeft":{"Latitude":57.28119,"Longitude":-5.70926},"BottomRight":{"Latitude":57.2808,"Longitude":-5.7064}},"Address":{"Label":"A87, Kyle, IV40 8, United Kingdom","Country":"GBR","State":"Scotland","County":"Ross-Shire","City":"Kyle","District":"Kyle","Street":"A87","PostalCode":"IV40 8","AdditionalData":[{"value":"United Kingdom","key":"CountryName"},{"value":"Scotland","key":"StateName"},{"value":"Ross-Shire","key":"CountyName"}]},"MapReference":{"ReferenceId":"19307201","Spot":1.0,"SideOfStreet":"right","StateId":"20252820","CountyId":"20292566","CityId":"20292617","DistrictId":"20292618"}}},{"Relevance":1.0,"Distance":69.4,"MatchLevel":"postalCode","MatchQuality":{"PostalCode":1.0},"Location":{"LocationId":"NT_EpqaqIzWYE-mCvQPyy3HsA_l_19269194_R","LocationType":"point","DisplayPosition":{"Latitude":57.28176,"Longitude":-5.71019},"MapView":{"TopLeft":{"Latitude":57.2907532,"Longitude":-5.7268284},"BottomRight":{"Latitude":57.2727668,"Longitude":-5.6935516}},"Address":{"Label":"IV40 8AS, Kyle, Scotland, United Kingdom","Country":"GBR","State":"Scotland","County":"Ross-Shire","City":"Kyle","PostalCode":"IV40 8AS","AdditionalData":[{"value":"United Kingdom","key":"CountryName"},{"value":"Scotland","key":"StateName"},{"value":"Ross-Shire","key":"CountyName"}]},"MapReference":{"ReferenceId":"19269194","Spot":1.0,"SideOfStreet":"neither","StateId":"20252820","CountyId":"20292566","CityId":"20292617"}}},{"Relevance":1.0,"Distance":69.5,"MatchLevel":"street","MatchQuality":{"Country":1.0,"State":1.0,"County":1.0,"City":1.0,"District":1.0,"Street":[1.0],"PostalCode":1.0},"Location":{"LocationId":"NT_EpqaqIzWYE-mCvQPyy3HsA_l_19269194_R","LocationType":"point","DisplayPosition":{"Latitude":57.28185,"Longitude":-5.70996},"MapView":{"TopLeft":{"Latitude":57.28185,"Longitude":-5.71076},"BottomRight":{"Latitude":57.28153,"Longitude":-5.70996}},"Address":{"Label":"Seaview, Kyle, IV40 8, United Kingdom","Country":"GBR","State":"Scotland","County":"Ross-Shire","City":"Kyle","District":"Kyle","Street":"Seaview","PostalCode":"IV40 8","AdditionalData":[{"value":"United Kingdom","key":"CountryName"},{"value":"Scotland","key":"StateName"},{"value":"Ross-Shire","key":"CountyName"}]},"MapReference":{"ReferenceId":"19269194","Spot":1.0,"SideOfStreet":"right","StateId":"20252820","CountyId":"20292566","CityId":"20292617","DistrictId":"20292618"}}},{"Relevance":1.0,"Distance":85.0,"MatchLevel":"street","MatchQuality":{"Country":1.0,"State":1.0,"County":1.0,"City":1.0,"District":1.0,"Street":[1.0],"PostalCode":1.0},"Location":{"LocationId":"NT_db469xQJYaZIMKbg3nC1sD_l_19269200_R","LocationType":"point","DisplayPosition":{"Latitude":57.28153,"Longitude":-5.71076},"MapView":{"TopLeft":{"Latitude":57.28153,"Longitude":-5.71092},"BottomRight":{"Latitude":57.28148,"Longitude":-5.71076}},"Address":{"Label":"Seaview, Kyle, IV40 8, United Kingdom","Country":"GBR","State":"Scotland","County":"Ross-Shire","City":"Kyle","District":"Kyle","Street":"Seaview","PostalCode":"IV40 8","AdditionalData":[{"value":"United Kingdom","key":"CountryName"},{"value":"Scotland","key":"StateName"},{"value":"Ross-Shire","key":"CountyName"}]},"MapReference":{"ReferenceId":"19269200","Spot":1.0,"SideOfStreet":"right","StateId":"20252820","CountyId":"20292566","CityId":"20292617","DistrictId":"20292618"}}},{"Relevance":1.0,"Distance":86.5,"MatchLevel":"street","MatchQuality":{"Country":1.0,"State":1.0,"County":1.0,"City":1.0,"District":1.0,"Street":[1.0],"PostalCode":1.0},"Location":{"LocationId":"NT_EifS6Oe3ILn4vWQu2qXOvC_l_19269216_R","LocationType":"point","DisplayPosition":{"Latitude":57.2812,"Longitude":-5.71084},"MapView":{"TopLeft":{"Latitude":57.28148,"Longitude":-5.71092},"BottomRight":{"Latitude":57.2812,"Longitude":-5.71084}},"Address":{"Label":"Langlands Terrace, Kyle, IV40 8, United Kingdom","Country":"GBR","State":"Scotland","County":"Ross-Shire","City":"Kyle","District":"Kyle","Street":"Langlands Terrace","PostalCode":"IV40 8","AdditionalData":[{"value":"United Kingdom","key":"CountryName"},{"value":"Scotland","key":"StateName"},{"value":"Ross-Shire","key":"CountyName"}]},"MapReference":{"ReferenceId":"19269216","Spot":0.0,"SideOfStreet":"right","StateId":"20252820","CountyId":"20292566","CityId":"20292617","DistrictId":"20292618"}}},{"Relevance":1.0,"Distance":86.5,"MatchLevel":"street","MatchQuality":{"Country":1.0,"State":1.0,"County":1.0,"City":1.0,"District":1.0,"Street":[1.0],"PostalCode":1.0},"Location":{"LocationId":"NT_BqA9KRLucnSsP2sy0VfZZD_l_19269219_L","LocationType":"point","DisplayPosition":{"Latitude":57.2812,"Longitude":-5.71084},"MapView":{"TopLeft":{"Latitude":57.2812,"Longitude":-5.71168},"BottomRight":{"Latitude":57.28112,"Longitude":-5.71084}},"Address":{"Label":"A87, Kyle, IV40 8, United Kingdom","Country":"GBR","State":"Scotland","County":"Ross-Shire","City":"Kyle","District":"Kyle","Street":"A87","PostalCode":"IV40 8","AdditionalData":[{"value":"United Kingdom","key":"CountryName"},{"value":"Scotland","key":"StateName"},{"value":"Ross-Shire","key":"CountyName"}]},"MapReference":{"ReferenceId":"19269219","Spot":1.0,"SideOfStreet":"left","StateId":"20252820","CountyId":"20292566","CityId":"20292617","DistrictId":"20292618"}}},{"Relevance":1.0,"Distance":103.0,"MatchLevel":"houseNumber","MatchQuality":{"Country":1.0,"State":1.0,"County":1.0,"City":1.0,"District":1.0,"Street":[1.0],"HouseNumber":1.0,"PostalCode":1.0},"MatchType":"interpolated","Location":{"LocationId":"NT_EifS6Oe3ILn4vWQu2qXOvC_l_19269201_R_yA","LocationType":"point","DisplayPosition":{"Latitude":57.2815901,"Longitude":-5.7110401},"MapView":{"TopLeft":{"Latitude":57.2827142,"Longitude":-5.7131199},"BottomRight":{"Latitude":57.2804659,"Longitude":-5.7089603}},"Address":{"Label":"2 Langlands Terrace, Kyle, IV40 8AW, United Kingdom","Country":"GBR","State":"Scotland","County":"Ross-Shire","City":"Kyle","District":"Kyle","Street":"Langlands Terrace","HouseNumber":"2","PostalCode":"IV40 8AW","AdditionalData":[{"value":"United Kingdom","key":"CountryName"},{"value":"Scotland","key":"StateName"},{"value":"Ross-Shire","key":"CountyName"}]},"MapReference":{"ReferenceId":"19269201","Spot":0.04,"SideOfStreet":"right","StateId":"20252820","CountyId":"20292566","CityId":"20292617","DistrictId":"20292618"}}}]}]}}