{"Response":{"MetaInfo":{"Timestamp":"2020-03-28T09:37:02.187+0000","NextPageInformation":"2"},"View":[{"_type":"SearchResultsViewType","ViewId":0,"Result":[{"Relevance":1.0,"Distance":-209.2,"MatchLevel":"landmark","MatchQuality":{"Country":1.0,"State":1.0,"County":1.0,"PostalCode":1.0,"Name":1.0},"Location":{"LocationId":"NT_VN1OIC17uKnaOlZFm-EG4C","LocationType":"island","Name":"Læsø","DisplayPosition":{"Latitude":57.2721,"Longitude":10.99183},"MapView":{"TopLeft":{"Latitude":57.3282,"Longitude":10.86999},"BottomRight":{"Latitude":57.216,"Longitude":11.20009}},"Address":{"Label":"9940, Danmark","Country":"DNK","State":"Nordjylland","County":"Læsø","PostalCode":"9940","AdditionalData":[{"value":"Danmark","key":"CountryName"},{"value":"Nordjylland","key":"StateName"},{"value":"Læsø","key":"CountyName"}]},"MapReference":{"CountryId":"20298369","StateId":"20367279","CountyId":"20367386","PlaceId":"67436791"}}},{"Relevance":1.0,"Distance":0.0,"Direction":0.0,"MatchLevel":"city","MatchQuality":{"Country":1.0,"State":1.0,"County":1.0,"City":1.0,"PostalCode":1.0},"Location":{"LocationId":"NT_oC7ues-WOgsbT4CpsFUJWC","LocationType":"point","DisplayPosition":{"Latitude":57.2917184,"Longitude":10.9230347},"MapView":{"TopLeft":{"Latitude":57.29763,"Longitude":10.91842},"BottomRight":{"Latitude":57.28381,"Longitude":10.93797}},"Address":{"Label":"Vesterø Havn, Nordjylland, Danmark","Country":"DNK","State":"Nordjylland","County":"Læsø","City":"Vesterø Havn","PostalCode":"9940","AdditionalData":[{"value":"Danmark","key":"CountryName"},{"value":"Nordjylland","key":"StateName"},{"value":"Læsø","key":"CountyName"}]},"MapReference":{"ReferenceId":"809473752","SideOfStreet":"neither","CountryId":"20298369","StateId":"20367279","CountyId":"20367386","CityId":"20367388"}}},{"Relevance":1.0,"Distance":17.1,"MatchLevel":"houseNumber","MatchQuality":{"Country":1.0,"State":1.0,"County":1.0,"City":1.0,"Street":[1.0],"HouseNumber":1.0,"PostalCode":1.0},"MatchType":"interpolated","Location":{"LocationId":"NT_PROGRPQFARdAkobXNuL38B_yYD","LocationType":"point","DisplayPosition":{"Latitude":57.29184,"Longitude":10.92337},"MapView":{"TopLeft":{"Latitude":57.2929642,"Longitude":10.9212896},"BottomRight":{"Latitude":57.2907158,"Longitude":10.9254504}},"Address":{"Label":"Vesterø Havnegade 26, 9940 Vesterø Havn, Danmark","Country":"DNK","State":"Nordjylland","County":"Læsø","City":"Vesterø Havn","Street":"Vesterø Havnegade","HouseNumber":"26","PostalCode":"9940","AdditionalData":[{"value":"Danmark","key":"CountryName"},{"value":"Nordjylland","key":"StateName"},{"value":"Læsø","key":"CountyName"}]},"MapReference":{"ReferenceId":"34289152","Spot":0.27,"SideOfStreet":"left","CountryId":"20298369","StateId":"20367279","CountyId":"20367386","CityId":"20367388","AddressId":"200887266","RoadLinkId":"100144263"}}},{"Relevance":1.0,"Distance":22.2,"MatchLevel":"street","MatchQuality":{"Country":1.0,"State":1.0,"County":1.0,"City":1.0,"Street":[1.0],"PostalCode":1.0},"Location":{"LocationId":"NT_Bo9b6iuY7ONaS3AIFpWr8D_l_34289156_L","LocationType":"point","DisplayPosition":{"Latitude":57.29179,"Longitude":10.92338},"MapView":{"TopLeft":{"Latitude":57.29179,"Longitude":10.92338},"BottomRight":{"Latitude":57.29172,"Longitude":10.92394}},"Address":{"Label":"Svalevej, 9940 Vesterø Havn, Danmark","Country":"DNK","State":"Nordjylland","County":"Læsø","City":"Vesterø Havn","Street":"Svalevej","PostalCode":"9940","AdditionalData":[{"value":"Danmark","key":"CountryName"},{"value":"Nordjylland","key":"StateName"},{"value":"Læsø","key":"CountyName"}]},"MapReference":{"ReferenceId":"34289156","Spot":1.0,"SideOfStreet":"left","CountryId":"20298369","StateId":"20367279","CountyId":"20367386","CityId":"20367388"}}},{"Relevance":1.0,"Distance":24.5,"MatchLevel":"houseNumber","MatchQuality":{"Country":1.0,"State":1.0,"County":1.0,"City":1.0,"Street":[1.0],"HouseNumber":1.0,"PostalCode":1.0},"MatchType":"interpolated","Location":{"LocationId":"NT_PROGRPQFARdAkobXNuL38B_ygD","LocationType":"point","DisplayPosition":{"Latitude":57.29162,"Longitude":10.92339},"MapView":{"TopLeft":{"Latitude":57.2927442,"Longitude":10.9213096},"BottomRight":{"Latitude":57.2904958,"Longitude":10.9254704}},"Address":{"Label":"Vesterø Havnegade 28, 9940 Vesterø Havn, Danmark","Country":"DNK","State":"Nordjylland","County":"Læsø","City":"Vesterø Havn","Street":"Vesterø Havnegade","HouseNumber":"28","PostalCode":"9940","AdditionalData":[{"value":"Danmark","key":"CountryName"},{"value":"Nordjylland","key":"StateName"},{"value":"Læsø","key":"CountyName"}]},"MapReference":{"ReferenceId":"34289169","Spot":0.62,"SideOfStreet":"left","CountryId":"20298369","StateId":"20367279","CountyId":"20367386","CityId":"20367388","AddressId":"199552144","RoadLinkId":"100488573"}}},{"Relevance":1.0,"Distance":43.2,"MatchLevel":"houseNumber","MatchQuality":{"Country":1.0,"State":1.0,"County":1.0,"City":1.0,"Street":[1.0],"HouseNumber":1.0,"PostalCode":1.0},"MatchType":"interpolated","Location":{"LocationId":"NT_PROGRPQFARdAkobXNuL38B_yITQ","LocationType":"point","DisplayPosition":{"Latitude":57.29205,"Longitude":10.92266},"MapView":{"TopLeft":{"Latitude":57.2931742,"Longitude":10.9205796},"BottomRight":{"Latitude":57.2909258,"Longitude":10.9247404}},"Address":{"Label":"Vesterø Havnegade 22A, 9940 Vesterø Havn, Danmark","Country":"DNK","State":"Nordjylland","County":"Læsø","City":"Vesterø Havn","Street":"Vesterø Havnegade","HouseNumber":"22A","PostalCode":"9940","AdditionalData":[{"value":"Danmark","key":"CountryName"},{"value":"Nordjylland","key":"StateName"},{"value":"Læsø","key":"CountyName"}]},"MapReference":{"ReferenceId":"34625550","Spot":0.68,"SideOfStreet":"left","CountryId":"20298369","StateId":"20367279","CountyId":"20367386","CityId":"20367388","AddressId":"199828320","RoadLinkId":"100164955"}}},{"Relevance":1.0,"Distance":67.3,"MatchLevel":"houseNumber","MatchQuality":{"Country":1.0,"State":1.0,"County":1.0,"City":1.0,"Street":[1.0],"HouseNumber":1.0,"PostalCode":1.0},"MatchType":"interpolated","Location":{"LocationId":"NT_Bo9b6iuY7ONaS3AIFpWr8D_yA","LocationType":"point","DisplayPosition":{"Latitude":57.29168,"Longitude":10.92418},"MapView":{"TopLeft":{"Latitude":57.2928042,"Longitude":10.9220996},"BottomRight":{"Latitude":57.2905558,"Longitude":10.9262604}},"Address":{"Label":"Svalevej 2, 9940 Vesterø Havn, Danmark","Country":"DNK","State":"Nordjylland","County":"Læsø","City":"Vesterø Havn","Street":"Svalevej","HouseNumber":"2","PostalCode":"9940","AdditionalData":[{"value":"Danmark","key":"CountryName"},{"value":"Nordjylland","key":"StateName"},{"value":"Læsø","key":"CountyName"}]},"MapReference":{"ReferenceId":"34289161","Spot":0.77,"SideOfStreet":"left","CountryId":"20298369","StateId":"20367279","CountyId":"20367386","CityId":"20367388","AddressId":"200490831","RoadLinkId":"100350401"}}},{"Relevance":1.0,"Distance":68.1,"MatchLevel":"houseNumber","MatchQuality":{"Country":1.0,"State":1.0,"County":1.0,"City":1.0,"Street":[1.0],"HouseNumber":1.0,"PostalCode":1.0},"MatchType":"interpolated","Location":{"LocationId":"NT_PROGRPQFARdAkobXNuL38B_zAD","LocationType":"point","DisplayPosition":{"Latitude":57.29112,"Longitude":10.92346},"MapView":{"TopLeft":{"Latitude":57.2922442,"Longitude":10.9213797},"BottomRight":{"Latitude":57.2899958,"Longitude":10.9255403}},"Address":{"Label":"Vesterø Havnegade 30, 9940 Vesterø Havn, Danmark","Country":"DNK","State":"Nordjylland","County":"Læsø","City":"Vesterø Havn","Street":"Vesterø Havnegade","HouseNumber":"30","PostalCode":"9940","AdditionalData":[{"value":"Danmark","key":"CountryName"},{"value":"Nordjylland","key":"StateName"},{"value":"Læsø","key":"CountyName"}]},"MapReference":{"ReferenceId":"34289183","Spot":0.67,"SideOfStreet":"left","CountryId":"20298369","StateId":"20367279","CountyId":"20367386","CityId":"20367388","AddressId":"198793342","RoadLinkId":"99977250"}}},{"Relevance":1.0,"Distance":78.0,"MatchLevel":"houseNumber","MatchQuality":{"Country":1.0,"State":1.0,"County":1.0,"City":1.0,"Street":[1.0],"HouseNumber":1.0,"PostalCode":1.0},"MatchType":"interpolated","Location":{"LocationId":"NT_PROGRPQFARdAkobXNuL38B_xgD","LocationType":"point","DisplayPosition":{"Latitude":57.29242,"Longitude":10.92332},"MapView":{"TopLeft":{"Latitude":57.2935442,"Longitude":10.9212396},"BottomRight":{"Latitude":57.2912958,"Longitude":10.9254004}},"Address":{"Label":"Vesterø Havnegade 18, 9940 Vesterø Havn, Danmark","Country":"DNK","State":"Nordjylland","County":"Læsø","City":"Vesterø Havn","Street":"Vesterø Havnegade","HouseNumber":"18","PostalCode":"9940","AdditionalData":[{"value":"Danmark","key":"CountryName"},{"value":"Nordjylland","key":"StateName"},{"value":"Læsø","key":"CountyName"}]},"MapReference":{"ReferenceId":"809473751","Spot":0.31,"SideOfStreet":"left","CountryId":"20298369","StateId":"20367279","CountyId":"20367386","CityId":"20367388","AddressId":"199610746","RoadLinkId":"196799059"}}},{"Relevance":1.0,"Distance":80.7,"MatchLevel":"houseNumber","MatchQuality":{"Country":1.0,"State":1.0,"County":1.0,"City":1.0,"Street":[1.0],"HouseNumber":1.0,"PostalCode":1.0},"MatchType":"interpolated","Location":{"LocationId":"NT_asR9aFJ.1mocfe8lcs4b.A_yA","LocationType":"point","DisplayPosition":{"Latitude":57.29149,"Longitude":10.92176},"MapView":{"TopLeft":{"Latitude":57.2926142,"Longitude":10.9196796},"BottomRight":{"Latitude":57.2903658,"Longitude":10.9238404}},"Address":{"Label":"Kirkevænget 2, 9940 Vesterø Havn, Danmark","Country":"DNK","State":"Nordjylland","County":"Læsø","City":"Vesterø Havn","Street":"Kirkevænget","HouseNumber":"2","PostalCode":"9940","AdditionalData":[{"value":"Danmark","key":"CountryName"},{"value":"Nordjylland","key":"StateName"},{"value":"Læsø","key":"CountyName"}]},"MapReference":{"ReferenceId":"34289170","Spot":1.0,"SideOfStreet":"right","CountryId":"20298369","StateId":"20367279","CountyId":"20367386","CityId":"20367388","AddressId":"200634051","RoadLinkId":"100423066"}}}]}]}}