{"Response":{"MetaInfo":{"Timestamp":"2020-03-28T09:51:56.113+0000","NextPageInformation":"2"},"View":[{"_type":"SearchResultsViewType","ViewId":0,"Result":[{"Relevance":1.0,"Distance":0.0,"Direction":0.0,"MatchLevel":"district","MatchQuality":{"Country":1.0,"State":1.0,"County":1.0,"City":1.0,"District":1.0,"PostalCode":1.0},"Location":{"LocationId":"NT_7zY6kX-CHRDMR22wKMp5qD","LocationType":"point","DisplayPosition":{"Latitude":57.2063805,"Longitude":-2.1772387},"MapView":{"TopLeft":{"Latitude":57.21764,"Longitude":-2.19821},"BottomRight":{"Latitude":57.18298,"Longitude":-2.16787}},"Address":{"Label":"Dyce, Aberdeen, Scotland, United Kingdom","Country":"GBR","State":"Scotland","County":"Aberdeenshire","City":"Aberdeen","District":"Dyce","PostalCode":"AB21 7","AdditionalData":[{"value":"United Kingdom","key":"CountryName"},{"value":"Scotland","key":"StateName"},{"value":"Aberdeenshire","key":"CountyName"}]},"MapReference":{"ReferenceId":"19241484","SideOfStreet":"neither","StateId":"20252820","CountyId":"20291697","CityId":"20291698","DistrictId":"20291706"}}},{"Relevance":1.0,"Distance":12.3,"MatchLevel":"houseNumber","MatchQuality":{"Country":1.0,"State":1.0,"County":1.0,"City":1.0,"District":1.0,"Street":[1.0],"HouseNumber":1.0,"PostalCode":1.0},"MatchType":"interpolated","Location":{"LocationId":"NT_MKIlBiUCGpW3MvPGwOwW-B_l_19241596_L_zED","LocationType":"point","DisplayPosition":{"Latitude":57.20656,"Longitude":-2.1770515},"MapView":{"TopLeft":{"Latitude":57.2076842,"Longitude":-2.1791271},"BottomRight":{"Latitude":57.2054358,"Longitude":-2.1749759}},"Address":{"Label":"31 Altonrea Gardens, Aberdeen, AB21 7NQ, United Kingdom","Country":"GBR","State":"Scotland","County":"Aberdeenshire","City":"Aberdeen","District":"Dyce","Street":"Altonrea Gardens","HouseNumber":"31","PostalCode":"AB21 7NQ","AdditionalData":[{"value":"United Kingdom","key":"CountryName"},{"value":"Scotland","key":"StateName"},{"value":"Aberdeenshire","key":"CountyName"}]},"MapReference":{"ReferenceId":"19241596","Spot":0.53,"SideOfStreet":"left","StateId":"20252820","CountyId":"20291697","CityId":"20291698","DistrictId":"20291706"}}},{"Relevance":1.0,"Distance":53.8,"MatchLevel":"street","MatchQuality":{"Country":1.0,"State":1.0,"County":1.0,"City":1.0,"District":1.0,"PostalCode":1.0},"Location":{"LocationId":"NT_DNrsXVg27AtmIdVeoOjh2A_l_1199294683_R","LocationType":"point","DisplayPosition":{"Latitude":57.2059141,"Longitude":-2.1774792},"MapView":{"TopLeft":{"Latitude":57.20719,"Longitude":-2.17914},"BottomRight":{"Latitude":57.2056,"Longitude":-2.17687}},"Address":{"Label":"Aberdeen, AB21 7, United Kingdom","Country":"GBR","State":"Scotland","County":"Aberdeenshire","City":"Aberdeen","District":"Dyce","PostalCode":"AB21 7","AdditionalData":[{"value":"United Kingdom","key":"CountryName"},{"value":"Scotland","key":"StateName"},{"value":"Aberdeenshire","key":"CountyName"}]},"MapReference":{"ReferenceId":"1199294683","Spot":0.24,"SideOfStreet":"right","StateId":"20252820","CountyId":"20291697","CityId":"20291698","DistrictId":"20291706"}}},{"Relevance":1.0,"Distance":65.8,"MatchLevel":"postalCode","MatchQuality":{"PostalCode":1.0},"MatchType":"interpolated","Location":{"LocationId":"NT_MKIlBiUCGpW3MvPGwOwW-B_l_19241596_L_zED","LocationType":"point","DisplayPosition":{"Latitude":57.2067,"Longitude":-2.17632},"MapView":{"TopLeft":{"Latitude":57.2156932,"Longitude":-2.1929246},"BottomRight":{"Latitude":57.1977068,"Longitude":-2.1597154}},"Address":{"Label":"AB21 7NQ, Aberdeen, Scotland, United Kingdom","Country":"GBR","State":"Scotland","County":"Aberdeenshire","City":"Aberdeen","PostalCode":"AB21 7NQ","AdditionalData":[{"value":"United Kingdom","key":"CountryName"},{"value":"Scotland","key":"StateName"},{"value":"Aberdeenshire","key":"CountyName"}]},"MapReference":{"ReferenceId":"19241596","Spot":0.53,"SideOfStreet":"neither","StateId":"20252820","CountyId":"20291697","CityId":"20291698"}}},{"Relevance":1.0,"Distance":88.7,"MatchLevel":"houseNumber","MatchQuality":{"Country":1.0,"State":1.0,"County":1.0,"City":1.0,"District":1.0,"Street":[1.0],"HouseNumber":1.0,"PostalCode":1.0},"MatchType":"interpolated","Location":{"LocationId":"NT_yDRWlYiZ1WPICgzsuYzsuA_l_19241576_L_xAD","LocationType":"point","DisplayPosition":{"Latitude":57.2069832,"Longitude":-2.1759743},"MapView":{"TopLeft":{"Latitude":57.2081074,"Longitude":-2.1780498},"BottomRight":{"Latitude":57.2058591,"Longitude":-2.1738987}},"Address":{"Label":"10 Clashnettie Place, Aberdeen, AB21 7, United Kingdom","Country":"GBR","State":"Scotland","County":"Aberdeenshire","City":"Aberdeen","District":"Dyce","Street":"Clashnettie Place","HouseNumber":"10","PostalCode":"AB21 7","AdditionalData":[{"value":"United Kingdom","key":"CountryName"},{"value":"Scotland","key":"StateName"},{"value":"Aberdeenshire","key":"CountyName"}]},"MapReference":{"ReferenceId":"19241576","Spot":0.43,"SideOfStreet":"left","StateId":"20252820","CountyId":"20291697","CityId":"20291698","DistrictId":"20291706"}}},{"Relevance":1.0,"Distance":88.8,"MatchLevel":"street","MatchQuality":{"Country":1.0,"State":1.0,"County":1.0,"City":1.0,"District":1.0,"PostalCode":1.0},"Location":{"LocationId":"NT_DNrsXVg27AtmIdVeoOjh2A_l_1199292264_L","LocationType":"point","DisplayPosition":{"Latitude":57.2056,"Longitude":-2.17693},"MapView":{"TopLeft":{"Latitude":57.2056,"Longitude":-2.177},"BottomRight":{"Latitude":57.20553,"Longitude":-2.17687}},"Address":{"Label":"Aberdeen, AB21 7, United Kingdom","Country":"GBR","State":"Scotland","County":"Aberdeenshire","City":"Aberdeen","District":"Dyce","PostalCode":"AB21 7","AdditionalData":[{"value":"United Kingdom","key":"CountryName"},{"value":"Scotland","key":"StateName"},{"value":"Aberdeenshire","key":"CountyName"}]},"MapReference":{"ReferenceId":"1199292264","Spot":0.62,"SideOfStreet":"left","StateId":"20252820","CountyId":"20291697","CityId":"20291698","DistrictId":"20291706"}}},{"Relevance":1.0,"Distance":88.9,"MatchLevel":"houseNumber","MatchQuality":{"Country":1.0,"State":1.0,"County":1.0,"City":1.0,"District":1.0,"Street":[1.0],"HouseNumber":1.0,"PostalCode":1.0},"MatchType":"interpolated","Location":{"LocationId":"NT_yDRWlYiZ1WPICgzsuYzsuA_l_19241542_L_4A","LocationType":"point","DisplayPosition":{"Latitude":57.20726,"Longitude":-2.17666},"MapView":{"TopLeft":{"Latitude":57.2083842,"Longitude":-2.1787356},"BottomRight":{"Latitude":57.2061359,"Longitude":-2.1745844}},"Address":{"Label":"8 Clashnettie Place, Aberdeen, AB21 7NR, United Kingdom","Country":"GBR","State":"Scotland","County":"Aberdeenshire","City":"Aberdeen","District":"Dyce","Street":"Clashnettie Place","HouseNumber":"8","PostalCode":"AB21 7NR","AdditionalData":[{"value":"United Kingdom","key":"CountryName"},{"value":"Scotland","key":"StateName"},{"value":"Aberdeenshire","key":"CountyName"}]},"MapReference":{"ReferenceId":"19241542","Spot":0.44,"SideOfStreet":"left","StateId":"20252820","CountyId":"20291697","CityId":"20291698","DistrictId":"20291706"}}},{"Relevance":1.0,"Distance":89.6,"MatchLevel":"street","MatchQuality":{"Country":1.0,"State":1.0,"County":1.0,"City":1.0,"District":1.0,"PostalCode":1.0},"Location":{"LocationId":"NT_DNrsXVg27AtmIdVeoOjh2A_l_1199292263_R","LocationType":"point","DisplayPosition":{"Latitude":57.2056,"Longitude":-2.17687},"MapView":{"TopLeft":{"Latitude":57.20561,"Longitude":-2.17687},"BottomRight":{"Latitude":57.20546,"Longitude":-2.17668}},"Address":{"Label":"Aberdeen, AB21 7, United Kingdom","Country":"GBR","State":"Scotland","County":"Aberdeenshire","City":"Aberdeen","District":"Dyce","PostalCode":"AB21 7","AdditionalData":[{"value":"United Kingdom","key":"CountryName"},{"value":"Scotland","key":"StateName"},{"value":"Aberdeenshire","key":"CountyName"}]},"MapReference":{"ReferenceId":"1199292263","Spot":1.0,"SideOfStreet":"right","StateId":"20252820","CountyId":"20291697","CityId":"20291698","DistrictId":"20291706"}}},{"Relevance":1.0,"Distance":95.7,"MatchLevel":"street","MatchQuality":{"Country":1.0,"State":1.0,"County":1.0,"City":1.0,"District":1.0,"PostalCode":1.0},"Location":{"LocationId":"NT_DNrsXVg27AtmIdVeoOjh2A_l_19296071_R","LocationType":"point","DisplayPosition":{"Latitude":57.20553,"Longitude":-2.177},"MapView":{"TopLeft":{"Latitude":57.20553,"Longitude":-2.177},"BottomRight":{"Latitude":57.20546,"Longitude":-2.17691}},"Address":{"Label":"Aberdeen, AB21 7, United Kingdom","Country":"GBR","State":"Scotland","County":"Aberdeenshire","City":"Aberdeen","District":"Dyce","PostalCode":"AB21 7","AdditionalData":[{"value":"United Kingdom","key":"CountryName"},{"value":"Scotland","key":"StateName"},{"value":"Aberdeenshire","key":"CountyName"}]},"MapReference":{"ReferenceId":"19296071","Spot":1.0,"SideOfStreet":"right","StateId":"20252820","CountyId":"20291697","CityId":"20291698","DistrictId":"20291706"}}},{"Relevance":1.0,"Distance":98.1,"MatchLevel":"street","MatchQuality":{"Country":1.0,"State":1.0,"County":1.0,"City":1.0,"District":1.0,"Street":[1.0],"PostalCode":1.0},"Location":{"LocationId":"NT_wW9ofmAES1oFntggUxYmXA_l_19296067_R","LocationType":"point","DisplayPosition":{"Latitude":57.2071,"Longitude":-2.17818},"MapView":{"TopLeft":{"Latitude":57.20739,"Longitude":-2.17818},"BottomRight":{"Latitude":57.2071,"Longitude":-2.17817}},"Address":{"Label":"Fifehill Park, Aberdeen, AB21 7, United Kingdom","Country":"GBR","State":"Scotland","County":"Aberdeenshire","City":"Aberdeen","District":"Dyce","Street":"Fifehill Park","PostalCode":"AB21 7","AdditionalData":[{"value":"United Kingdom","key":"CountryName"},{"value":"Scotland","key":"StateName"},{"value":"Aberdeenshire","key":"CountyName"}]},"MapReference":{"ReferenceId":"19296067","Spot":0.0,"SideOfStreet":"right","StateId":"20252820","CountyId":"20291697","CityId":"20291698","DistrictId":"20291706"}}}]}]}}