{"Response":{"MetaInfo":{"Timestamp":"2020-03-28T10:31:35.489+0000","NextPageInformation":"2"},"View":[{"_type":"SearchResultsViewType","ViewId":0,"Result":[{"Relevance":1.0,"Distance":0.0,"Direction":0.0,"MatchLevel":"district","MatchQuality":{"Country":1.0,"State":1.0,"County":1.0,"City":1.0,"District":1.0,"PostalCode":1.0},"Location":{"LocationId":"NT_w1pbClF7aiXG4Vf7ReA5XC","LocationType":"point","DisplayPosition":{"Latitude":57.4829266,"Longitude":-4.4595744},"MapView":{"TopLeft":{"Latitude":57.48681,"Longitude":-4.47267},"BottomRight":{"Latitude":57.47614,"Longitude":-4.45477}},"Address":{"Label":"Beauly, Scotland, United Kingdom","Country":"GBR","State":"Scotland","County":"Inverness-Shire","City":"Beauly","District":"Beauly","PostalCode":"IV4 7","AdditionalData":[{"value":"United Kingdom","key":"CountryName"},{"value":"Scotland","key":"StateName"},{"value":"Inverness-Shire","key":"CountyName"}]},"MapReference":{"ReferenceId":"847733087","SideOfStreet":"neither","StateId":"20252820","CountyId":"20292114","CityId":"20292119","DistrictId":"20292120"}}},{"Relevance":1.0,"Distance":18.8,"MatchLevel":"street","MatchQuality":{"Country":1.0,"State":1.0,"County":1.0,"City":1.0,"District":1.0,"Street":[1.0],"PostalCode":1.0},"Location":{"LocationId":"NT_dalASYW1VubSRsSgwFXi0C_l_19264282_L","LocationType":"point","DisplayPosition":{"Latitude":57.483093,"Longitude":-4.4595189},"MapView":{"TopLeft":{"Latitude":57.48322,"Longitude":-4.4599},"BottomRight":{"Latitude":57.48294,"Longitude":-4.45906}},"Address":{"Label":"Ferry Road, Beauly, IV4 7, United Kingdom","Country":"GBR","State":"Scotland","County":"Inverness-Shire","City":"Beauly","District":"Beauly","Street":"Ferry Road","PostalCode":"IV4 7","AdditionalData":[{"value":"United Kingdom","key":"CountryName"},{"value":"Scotland","key":"StateName"},{"value":"Inverness-Shire","key":"CountyName"}]},"MapReference":{"ReferenceId":"19264282","Spot":0.55,"SideOfStreet":"left","StateId":"20252820","CountyId":"20292114","CityId":"20292119","DistrictId":"20292120"}}},{"Relevance":1.0,"Distance":30.8,"MatchLevel":"street","MatchQuality":{"Country":1.0,"State":1.0,"County":1.0,"City":1.0,"District":1.0,"Street":[1.0],"PostalCode":1.0},"Location":{"LocationId":"NT_dalASYW1VubSRsSgwFXi0C_l_19264312_L","LocationType":"point","DisplayPosition":{"Latitude":57.48294,"Longitude":-4.45906},"MapView":{"TopLeft":{"Latitude":57.48294,"Longitude":-4.45906},"BottomRight":{"Latitude":57.48262,"Longitude":-4.458}},"Address":{"Label":"Ferry Road, Beauly, IV4 7, United Kingdom","Country":"GBR","State":"Scotland","County":"Inverness-Shire","City":"Beauly","District":"Beauly","Street":"Ferry Road","PostalCode":"IV4 7","AdditionalData":[{"value":"United Kingdom","key":"CountryName"},{"value":"Scotland","key":"StateName"},{"value":"Inverness-Shire","key":"CountyName"}]},"MapReference":{"ReferenceId":"19264312","Spot":1.0,"SideOfStreet":"left","StateId":"20252820","CountyId":"20292114","CityId":"20292119","DistrictId":"20292120"}}},{"Relevance":1.0,"Distance":30.8,"MatchLevel":"street","MatchQuality":{"Country":1.0,"State":1.0,"County":1.0,"City":1.0,"District":1.0,"Street":[1.0],"PostalCode":1.0},"Location":{"LocationId":"NT_-rV4fvUH3tDUCgT7GTeaiC_l_19264281_L","LocationType":"point","DisplayPosition":{"Latitude":57.48294,"Longitude":-4.45906},"MapView":{"TopLeft":{"Latitude":57.48339,"Longitude":-4.45906},"BottomRight":{"Latitude":57.48294,"Longitude":-4.45855}},"Address":{"Label":"Ferry Lane, Beauly, IV4 7, United Kingdom","Country":"GBR","State":"Scotland","County":"Inverness-Shire","City":"Beauly","District":"Beauly","Street":"Ferry Lane","PostalCode":"IV4 7","AdditionalData":[{"value":"United Kingdom","key":"CountryName"},{"value":"Scotland","key":"StateName"},{"value":"Inverness-Shire","key":"CountyName"}]},"MapReference":{"ReferenceId":"19264281","Spot":0.0,"SideOfStreet":"left","StateId":"20252820","CountyId":"20292114","CityId":"20292119","DistrictId":"20292120"}}},{"Relevance":1.0,"Distance":38.0,"MatchLevel":"street","MatchQuality":{"Country":1.0,"State":1.0,"County":1.0,"City":1.0,"District":1.0,"Street":[1.0],"PostalCode":1.0},"Location":{"LocationId":"NT_dalASYW1VubSRsSgwFXi0C_l_19264250_L","LocationType":"point","DisplayPosition":{"Latitude":57.48322,"Longitude":-4.4599},"MapView":{"TopLeft":{"Latitude":57.4833,"Longitude":-4.4601},"BottomRight":{"Latitude":57.48322,"Longitude":-4.4599}},"Address":{"Label":"Ferry Road, Beauly, IV4 7, United Kingdom","Country":"GBR","State":"Scotland","County":"Inverness-Shire","City":"Beauly","District":"Beauly","Street":"Ferry Road","PostalCode":"IV4 7","AdditionalData":[{"value":"United Kingdom","key":"CountryName"},{"value":"Scotland","key":"StateName"},{"value":"Inverness-Shire","key":"CountyName"}]},"MapReference":{"ReferenceId":"19264250","Spot":0.0,"SideOfStreet":"left","StateId":"20252820","CountyId":"20292114","CityId":"20292119","DistrictId":"20292120"}}},{"Relevance":1.0,"Distance":40.2,"MatchLevel":"street","MatchQuality":{"Country":1.0,"State":1.0,"County":1.0,"City":1.0,"District":1.0,"Street":[1.0],"PostalCode":1.0},"Location":{"LocationId":"NT_ci19.XpxilJ5Pa-xqxVKKC_l_19264249_R","LocationType":"point","DisplayPosition":{"Latitude":57.4832531,"Longitude":-4.4598625},"MapView":{"TopLeft":{"Latitude":57.48367,"Longitude":-4.4599},"BottomRight":{"Latitude":57.48322,"Longitude":-4.45939}},"Address":{"Label":"The Square, Beauly, IV4 7, United Kingdom","Country":"GBR","State":"Scotland","County":"Inverness-Shire","City":"Beauly","District":"Beauly","Street":"The Square","PostalCode":"IV4 7","AdditionalData":[{"value":"United Kingdom","key":"CountryName"},{"value":"Scotland","key":"StateName"},{"value":"Inverness-Shire","key":"CountyName"}]},"MapReference":{"ReferenceId":"19264249","Spot":0.07,"SideOfStreet":"right","StateId":"20252820","CountyId":"20292114","CityId":"20292119","DistrictId":"20292120"}}},{"Relevance":1.0,"Distance":41.2,"MatchLevel":"houseNumber","MatchQuality":{"Country":1.0,"State":1.0,"County":1.0,"City":1.0,"District":1.0,"Street":[1.0],"HouseNumber":1.0,"PostalCode":1.0},"MatchType":"interpolated","Location":{"LocationId":"NT_-1mGPNxH1MPsKFGgoyhpoC_l_19264242_R_zA","LocationType":"point","DisplayPosition":{"Latitude":57.4833757,"Longitude":-4.4600042},"MapView":{"TopLeft":{"Latitude":57.4844998,"Longitude":-4.4620954},"BottomRight":{"Latitude":57.4822515,"Longitude":-4.4579129}},"Address":{"Label":"3 High Street, Beauly, IV4 7, United Kingdom","Country":"GBR","State":"Scotland","County":"Inverness-Shire","City":"Beauly","District":"Beauly","Street":"High Street","HouseNumber":"3","PostalCode":"IV4 7","AdditionalData":[{"value":"United Kingdom","key":"CountryName"},{"value":"Scotland","key":"StateName"},{"value":"Inverness-Shire","key":"CountyName"}]},"MapReference":{"ReferenceId":"19264242","Spot":0.5,"SideOfStreet":"right","StateId":"20252820","CountyId":"20292114","CityId":"20292119","DistrictId":"20292120"}}},{"Relevance":1.0,"Distance":51.0,"MatchLevel":"postalCode","MatchQuality":{"PostalCode":1.0},"Location":{"LocationId":"NT_dalASYW1VubSRsSgwFXi0C_l_19264312_L","LocationType":"point","DisplayPosition":{"Latitude":57.48279,"Longitude":-4.45876},"MapView":{"TopLeft":{"Latitude":57.4917832,"Longitude":-4.4754899},"BottomRight":{"Latitude":57.4737968,"Longitude":-4.4420301}},"Address":{"Label":"IV4 7EA, Beauly, Scotland, United Kingdom","Country":"GBR","State":"Scotland","County":"Inverness-Shire","City":"Beauly","PostalCode":"IV4 7EA","AdditionalData":[{"value":"United Kingdom","key":"CountryName"},{"value":"Scotland","key":"StateName"},{"value":"Inverness-Shire","key":"CountyName"}]},"MapReference":{"ReferenceId":"19264312","Spot":1.0,"SideOfStreet":"neither","StateId":"20252820","CountyId":"20292114","CityId":"20292119"}}},{"Relevance":1.0,"Distance":52.1,"MatchLevel":"street","MatchQuality":{"Country":1.0,"State":1.0,"County":1.0,"City":1.0,"District":1.0,"Street":[1.0],"PostalCode":1.0},"Location":{"LocationId":"NT_4p7l.xYvdd6G.pHAIdsoZB_l_847733087_R","LocationType":"point","DisplayPosition":{"Latitude":57.4833,"Longitude":-4.4601},"MapView":{"TopLeft":{"Latitude":57.4833,"Longitude":-4.46071},"BottomRight":{"Latitude":57.48291,"Longitude":-4.4601}},"Address":{"Label":"High Street, Beauly, IV4 7, United Kingdom","Country":"GBR","State":"Scotland","County":"Inverness-Shire","City":"Beauly","District":"Beauly","Street":"High Street","PostalCode":"IV4 7","AdditionalData":[{"value":"United Kingdom","key":"CountryName"},{"value":"Scotland","key":"StateName"},{"value":"Inverness-Shire","key":"CountyName"}]},"MapReference":{"ReferenceId":"847733087","Spot":1.0,"SideOfStreet":"right","StateId":"20252820","CountyId":"20292114","CityId":"20292119","DistrictId":"20292120"}}},{"Relevance":1.0,"Distance":55.5,"MatchLevel":"postalCode","MatchQuality":{"PostalCode":1.0},"Location":{"LocationId":"NT_4p7l.xYvdd6G.pHAIdsoZB_l_847733087_R","LocationType":"point","DisplayPosition":{"Latitude":57.48297,"Longitude":-4.4605},"MapView":{"TopLeft":{"Latitude":57.4919632,"Longitude":-4.47723},"BottomRight":{"Latitude":57.4739768,"Longitude":-4.44377}},"Address":{"Label":"IV4 7BT, Beauly, Scotland, United Kingdom","Country":"GBR","State":"Scotland","County":"Inverness-Shire","City":"Beauly","PostalCode":"IV4 7BT","AdditionalData":[{"value":"United Kingdom","key":"CountryName"},{"value":"Scotland","key":"StateName"},{"value":"Inverness-Shire","key":"CountyName"}]},"MapReference":{"ReferenceId":"847733087","Spot":1.0,"SideOfStreet":"neither","StateId":"20252820","CountyId":"20292114","CityId":"20292119"}}}]}]}}