{"Response":{"MetaInfo":{"Timestamp":"2020-03-28T11:28:31.265+0000","NextPageInformation":"2"},"View":[{"_type":"SearchResultsViewType","ViewId":0,"Result":[{"Relevance":1.0,"Distance":0.0,"Direction":0.0,"MatchLevel":"city","MatchQuality":{"Country":1.0,"County":1.0,"City":1.0,"PostalCode":1.0},"Location":{"LocationId":"NT_cGgGlAMgxDGl0EYKcD2PgD","LocationType":"point","DisplayPosition":{"Latitude":57.4247085,"Longitude":25.9129699},"MapView":{"TopLeft":{"Latitude":57.43833,"Longitude":25.86581},"BottomRight":{"Latitude":57.40834,"Longitude":25.93551}},"Address":{"Label":"Smiltene, Latvija","Country":"LVA","County":"Smiltenes novads","City":"Smiltene","PostalCode":"4729","AdditionalData":[{"value":"Latvija","key":"CountryName"},{"value":"Smiltenes novads","key":"CountyName"}]},"MapReference":{"ReferenceId":"750688506","SideOfStreet":"neither","CountryId":"20633737","CountyId":"23782021","CityId":"23274100"}}},{"Relevance":1.0,"Distance":21.7,"MatchLevel":"street","MatchQuality":{"Country":1.0,"County":1.0,"City":1.0,"Street":[1.0],"PostalCode":1.0},"Location":{"LocationId":"NT_8X4YLajMu4jk-k6.KwISpA_l_750393464_R","LocationType":"point","DisplayPosition":{"Latitude":57.4245134,"Longitude":25.9129522},"MapView":{"TopLeft":{"Latitude":57.42478,"Longitude":25.9125},"BottomRight":{"Latitude":57.42451,"Longitude":25.91317}},"Address":{"Label":"Dārza iela, Smiltene, LV-4729, Latvija","Country":"LVA","County":"Smiltenes novads","City":"Smiltene","Street":"Dārza iela","PostalCode":"4729","AdditionalData":[{"value":"Latvija","key":"CountryName"},{"value":"Smiltenes novads","key":"CountyName"}]},"MapReference":{"ReferenceId":"750393464","Spot":0.29,"SideOfStreet":"right","CountryId":"20633737","CountyId":"23782021","CityId":"23274100"}}},{"Relevance":1.0,"Distance":29.2,"MatchLevel":"street","MatchQuality":{"Country":1.0,"County":1.0,"City":1.0,"Street":[1.0],"PostalCode":1.0},"Location":{"LocationId":"NT_8X4YLajMu4jk-k6.KwISpA_l_1002768324_R","LocationType":"point","DisplayPosition":{"Latitude":57.42478,"Longitude":25.9125},"MapView":{"TopLeft":{"Latitude":57.4249,"Longitude":25.91149},"BottomRight":{"Latitude":57.42478,"Longitude":25.9125}},"Address":{"Label":"Dārza iela, Smiltene, LV-4729, Latvija","Country":"LVA","County":"Smiltenes novads","City":"Smiltene","Street":"Dārza iela","PostalCode":"4729","AdditionalData":[{"value":"Latvija","key":"CountryName"},{"value":"Smiltenes novads","key":"CountyName"}]},"MapReference":{"ReferenceId":"1002768324","Spot":0.0,"SideOfStreet":"right","CountryId":"20633737","CountyId":"23782021","CityId":"23274100"}}},{"Relevance":1.0,"Distance":43.0,"MatchLevel":"street","MatchQuality":{"Country":1.0,"County":1.0,"City":1.0,"Street":[1.0],"PostalCode":1.0},"Location":{"LocationId":"NT_OxZTOAZLNRy.HG9j6Z8HhC_l_1002768322_R","LocationType":"point","DisplayPosition":{"Latitude":57.42435,"Longitude":25.91324},"MapView":{"TopLeft":{"Latitude":57.42436,"Longitude":25.91324},"BottomRight":{"Latitude":57.42413,"Longitude":25.91465}},"Address":{"Label":"Smilšu iela, Smiltene, LV-4729, Latvija","Country":"LVA","County":"Smiltenes novads","City":"Smiltene","Street":"Smilšu iela","PostalCode":"4729","AdditionalData":[{"value":"Latvija","key":"CountryName"},{"value":"Smiltenes novads","key":"CountyName"}]},"MapReference":{"ReferenceId":"1002768322","Spot":1.0,"SideOfStreet":"right","CountryId":"20633737","CountyId":"23782021","CityId":"23274100"}}},{"Relevance":1.0,"Distance":44.3,"MatchLevel":"houseNumber","MatchQuality":{"Country":1.0,"County":1.0,"City":1.0,"Street":[1.0],"HouseNumber":1.0,"PostalCode":1.0},"MatchType":"interpolated","Location":{"LocationId":"NT_3pPyRYtq6K.AH0GCqQReEC_xYTY","LocationType":"point","DisplayPosition":{"Latitude":57.42391,"Longitude":25.91444},"MapView":{"TopLeft":{"Latitude":57.4250342,"Longitude":25.9123521},"BottomRight":{"Latitude":57.4227858,"Longitude":25.9165279}},"Address":{"Label":"Dakteru iela 16a, Smiltene, LV-4729, Latvija","Country":"LVA","County":"Smiltenes novads","City":"Smiltene","Street":"Dakteru iela","HouseNumber":"16a","PostalCode":"4729","AdditionalData":[{"value":"Latvija","key":"CountryName"},{"value":"Smiltenes novads","key":"CountyName"}]},"MapReference":{"ReferenceId":"750766690","Spot":0.85,"SideOfStreet":"left","CountryId":"20633737","CountyId":"23782021","CityId":"23274100","AddressId":"325206359","RoadLinkId":"146927279"}}},{"Relevance":1.0,"Distance":58.9,"MatchLevel":"street","MatchQuality":{"Country":1.0,"County":1.0,"City":1.0,"PostalCode":1.0},"Location":{"LocationId":"NT_2MrOB7m7ESVLIwUJ2-47RA_l_750542687_R","LocationType":"point","DisplayPosition":{"Latitude":57.42514,"Longitude":25.91354},"MapView":{"TopLeft":{"Latitude":57.42521,"Longitude":25.91354},"BottomRight":{"Latitude":57.42514,"Longitude":25.91482}},"Address":{"Label":"Smiltene, LV-4729, Latvija","Country":"LVA","County":"Smiltenes novads","City":"Smiltene","PostalCode":"4729","AdditionalData":[{"value":"Latvija","key":"CountryName"},{"value":"Smiltenes novads","key":"CountyName"}]},"MapReference":{"ReferenceId":"750542687","Spot":0.0,"SideOfStreet":"right","CountryId":"20633737","CountyId":"23782021","CityId":"23274100"}}},{"Relevance":1.0,"Distance":66.2,"MatchLevel":"street","MatchQuality":{"Country":1.0,"County":1.0,"City":1.0,"PostalCode":1.0},"Location":{"LocationId":"NT_2MrOB7m7ESVLIwUJ2-47RA_l_750670712_R","LocationType":"point","DisplayPosition":{"Latitude":57.42527,"Longitude":25.9126},"MapView":{"TopLeft":{"Latitude":57.42527,"Longitude":25.91013},"BottomRight":{"Latitude":57.4249,"Longitude":25.9126}},"Address":{"Label":"Smiltene, LV-4729, Latvija","Country":"LVA","County":"Smiltenes novads","City":"Smiltene","PostalCode":"4729","AdditionalData":[{"value":"Latvija","key":"CountryName"},{"value":"Smiltenes novads","key":"CountyName"}]},"MapReference":{"ReferenceId":"750670712","Spot":1.0,"SideOfStreet":"right","CountryId":"20633737","CountyId":"23782021","CityId":"23274100"}}},{"Relevance":1.0,"Distance":69.5,"MatchLevel":"street","MatchQuality":{"Country":1.0,"County":1.0,"City":1.0,"PostalCode":1.0},"Location":{"LocationId":"NT_2MrOB7m7ESVLIwUJ2-47RA_l_750755459_R","LocationType":"point","DisplayPosition":{"Latitude":57.4253183,"Longitude":25.9127158},"MapView":{"TopLeft":{"Latitude":57.4257,"Longitude":25.9126},"BottomRight":{"Latitude":57.42527,"Longitude":25.9135}},"Address":{"Label":"Smiltene, LV-4729, Latvija","Country":"LVA","County":"Smiltenes novads","City":"Smiltene","PostalCode":"4729","AdditionalData":[{"value":"Latvija","key":"CountryName"},{"value":"Smiltenes novads","key":"CountyName"}]},"MapReference":{"ReferenceId":"750755459","Spot":0.13,"SideOfStreet":"right","CountryId":"20633737","CountyId":"23782021","CityId":"23274100"}}},{"Relevance":1.0,"Distance":81.3,"MatchLevel":"houseNumber","MatchQuality":{"Country":1.0,"County":1.0,"City":1.0,"Street":[1.0],"HouseNumber":1.0,"PostalCode":1.0},"MatchType":"interpolated","Location":{"LocationId":"NT_OxZTOAZLNRy.HG9j6Z8HhC_zA","LocationType":"point","DisplayPosition":{"Latitude":57.42398,"Longitude":25.91286},"MapView":{"TopLeft":{"Latitude":57.4251042,"Longitude":25.9107721},"BottomRight":{"Latitude":57.4228558,"Longitude":25.9149479}},"Address":{"Label":"Smilšu iela 3, Smiltene, LV-4729, Latvija","Country":"LVA","County":"Smiltenes novads","City":"Smiltene","Street":"Smilšu iela","HouseNumber":"3","PostalCode":"4729","AdditionalData":[{"value":"Latvija","key":"CountryName"},{"value":"Smiltenes novads","key":"CountyName"}]},"MapReference":{"ReferenceId":"1002768321","Spot":0.72,"SideOfStreet":"left","CountryId":"20633737","CountyId":"23782021","CityId":"23274100","AddressId":"378650648","RoadLinkId":"329016565"}}},{"Relevance":1.0,"Distance":94.0,"MatchLevel":"houseNumber","MatchQuality":{"Country":1.0,"County":1.0,"City":1.0,"Street":[1.0],"HouseNumber":1.0,"PostalCode":1.0},"MatchType":"interpolated","Location":{"LocationId":"NT_3pPyRYtq6K.AH0GCqQReEC_xQD","LocationType":"point","DisplayPosition":{"Latitude":57.4248,"Longitude":25.91453},"MapView":{"TopLeft":{"Latitude":57.4259242,"Longitude":25.9124421},"BottomRight":{"Latitude":57.4236758,"Longitude":25.9166179}},"Address":{"Label":"Dakteru iela 14, Smiltene, LV-4729, Latvija","Country":"LVA","County":"Smiltenes novads","City":"Smiltene","Street":"Dakteru iela","HouseNumber":"14","PostalCode":"4729","AdditionalData":[{"value":"Latvija","key":"CountryName"},{"value":"Smiltenes novads","key":"CountyName"}]},"MapReference":{"ReferenceId":"750303950","Spot":0.37,"SideOfStreet":"right","CountryId":"20633737","CountyId":"23782021","CityId":"23274100","AddressId":"378650704","RoadLinkId":"282404048"}}}]}]}}