{"Response":{"MetaInfo":{"Timestamp":"2020-03-28T11:17:54.769+0000","NextPageInformation":"2"},"View":[{"_type":"SearchResultsViewType","ViewId":0,"Result":[{"Relevance":1.0,"Distance":0.0,"Direction":0.0,"MatchLevel":"district","MatchQuality":{"Country":1.0,"State":1.0,"County":1.0,"City":1.0,"District":1.0,"PostalCode":1.0},"Location":{"LocationId":"NT_wIbNXNWOLCqCYYo87MBdhA","LocationType":"point","DisplayPosition":{"Latitude":57.5784327,"Longitude":-3.8716243},"MapView":{"TopLeft":{"Latitude":57.59315,"Longitude":-3.905},"BottomRight":{"Latitude":57.5725,"Longitude":-3.83286}},"Address":{"Label":"Nairn, Scotland, United Kingdom","Country":"GBR","State":"Scotland","County":"Nairnshire","City":"Nairn","District":"Nairn","PostalCode":"IV12 4","AdditionalData":[{"value":"United Kingdom","key":"CountryName"},{"value":"Scotland","key":"StateName"},{"value":"Nairnshire","key":"CountyName"}]},"MapReference":{"ReferenceId":"19261300","SideOfStreet":"neither","StateId":"20252820","CountyId":"20292464","CityId":"20292465","DistrictId":"20292466"}}},{"Relevance":1.0,"Distance":5.5,"MatchLevel":"street","MatchQuality":{"Country":1.0,"State":1.0,"County":1.0,"City":1.0,"District":1.0,"Street":[1.0],"PostalCode":1.0},"Location":{"LocationId":"NT_wPjKoU6mOoHgRnZ.DCb7QB_l_565859613_L","LocationType":"point","DisplayPosition":{"Latitude":57.5784184,"Longitude":-3.8715357},"MapView":{"TopLeft":{"Latitude":57.57901,"Longitude":-3.87155},"BottomRight":{"Latitude":57.57833,"Longitude":-3.87144}},"Address":{"Label":"Cawdor Road, Nairn, IV12 5, United Kingdom","Country":"GBR","State":"Scotland","County":"Nairnshire","City":"Nairn","District":"Nairn","Street":"Cawdor Road","PostalCode":"IV12 5","AdditionalData":[{"value":"United Kingdom","key":"CountryName"},{"value":"Scotland","key":"StateName"},{"value":"Nairnshire","key":"CountyName"}]},"MapReference":{"ReferenceId":"565859613","Spot":0.13,"SideOfStreet":"left","StateId":"20252820","CountyId":"20292464","CityId":"20292465","DistrictId":"20292466"}}},{"Relevance":1.0,"Distance":10.4,"MatchLevel":"street","MatchQuality":{"Country":1.0,"State":1.0,"County":1.0,"City":1.0,"District":1.0,"PostalCode":1.0},"Location":{"LocationId":"NT_b7kQdhKiYetrAgt-Nlj2CD_l_565859614_R","LocationType":"point","DisplayPosition":{"Latitude":57.5783394,"Longitude":-3.8716347},"MapView":{"TopLeft":{"Latitude":57.5784,"Longitude":-3.87218},"BottomRight":{"Latitude":57.57833,"Longitude":-3.87155}},"Address":{"Label":"Nairn, IV12 5, United Kingdom","Country":"GBR","State":"Scotland","County":"Nairnshire","City":"Nairn","District":"Nairn","PostalCode":"IV12 5","AdditionalData":[{"value":"United Kingdom","key":"CountryName"},{"value":"Scotland","key":"StateName"},{"value":"Nairnshire","key":"CountyName"}]},"MapReference":{"ReferenceId":"565859614","Spot":0.13,"SideOfStreet":"right","StateId":"20252820","CountyId":"20292464","CityId":"20292465","DistrictId":"20292466"}}},{"Relevance":1.0,"Distance":12.2,"MatchLevel":"street","MatchQuality":{"Country":1.0,"State":1.0,"County":1.0,"City":1.0,"District":1.0,"Street":[1.0],"PostalCode":1.0},"Location":{"LocationId":"NT_wPjKoU6mOoHgRnZ.DCb7QB_l_1057662990_L","LocationType":"point","DisplayPosition":{"Latitude":57.57833,"Longitude":-3.87155},"MapView":{"TopLeft":{"Latitude":57.57833,"Longitude":-3.8716},"BottomRight":{"Latitude":57.57806,"Longitude":-3.87155}},"Address":{"Label":"Cawdor Road, Nairn, IV12 5, United Kingdom","Country":"GBR","State":"Scotland","County":"Nairnshire","City":"Nairn","District":"Nairn","Street":"Cawdor Road","PostalCode":"IV12 5","AdditionalData":[{"value":"United Kingdom","key":"CountryName"},{"value":"Scotland","key":"StateName"},{"value":"Nairnshire","key":"CountyName"}]},"MapReference":{"ReferenceId":"1057662990","Spot":1.0,"SideOfStreet":"left","StateId":"20252820","CountyId":"20292464","CityId":"20292465","DistrictId":"20292466"}}},{"Relevance":1.0,"Distance":33.3,"MatchLevel":"street","MatchQuality":{"Country":1.0,"State":1.0,"County":1.0,"City":1.0,"District":1.0,"PostalCode":1.0},"Location":{"LocationId":"NT_b7kQdhKiYetrAgt-Nlj2CD_l_565859611_R","LocationType":"point","DisplayPosition":{"Latitude":57.5784,"Longitude":-3.87218},"MapView":{"TopLeft":{"Latitude":57.5784,"Longitude":-3.87228},"BottomRight":{"Latitude":57.57756,"Longitude":-3.8717}},"Address":{"Label":"Nairn, IV12 5, United Kingdom","Country":"GBR","State":"Scotland","County":"Nairnshire","City":"Nairn","District":"Nairn","PostalCode":"IV12 5","AdditionalData":[{"value":"United Kingdom","key":"CountryName"},{"value":"Scotland","key":"StateName"},{"value":"Nairnshire","key":"CountyName"}]},"MapReference":{"ReferenceId":"565859611","Spot":1.0,"SideOfStreet":"right","StateId":"20252820","CountyId":"20292464","CityId":"20292465","DistrictId":"20292466"}}},{"Relevance":1.0,"Distance":33.3,"MatchLevel":"street","MatchQuality":{"Country":1.0,"State":1.0,"County":1.0,"City":1.0,"District":1.0,"PostalCode":1.0},"Location":{"LocationId":"NT_b7kQdhKiYetrAgt-Nlj2CD_l_565859610_L","LocationType":"point","DisplayPosition":{"Latitude":57.5784,"Longitude":-3.87218},"MapView":{"TopLeft":{"Latitude":57.57848,"Longitude":-3.87317},"BottomRight":{"Latitude":57.57831,"Longitude":-3.87218}},"Address":{"Label":"Nairn, IV12 5, United Kingdom","Country":"GBR","State":"Scotland","County":"Nairnshire","City":"Nairn","District":"Nairn","PostalCode":"IV12 5","AdditionalData":[{"value":"United Kingdom","key":"CountryName"},{"value":"Scotland","key":"StateName"},{"value":"Nairnshire","key":"CountyName"}]},"MapReference":{"ReferenceId":"565859610","Spot":1.0,"SideOfStreet":"left","StateId":"20252820","CountyId":"20292464","CityId":"20292465","DistrictId":"20292466"}}},{"Relevance":1.0,"Distance":38.8,"MatchLevel":"street","MatchQuality":{"Country":1.0,"State":1.0,"County":1.0,"City":1.0,"District":1.0,"Street":[1.0],"PostalCode":1.0},"Location":{"LocationId":"NT_acGrBIuESkCSFXe28AUoLB_l_1057662995_L","LocationType":"point","DisplayPosition":{"Latitude":57.5781607,"Longitude":-3.8712162},"MapView":{"TopLeft":{"Latitude":57.5782,"Longitude":-3.87125},"BottomRight":{"Latitude":57.57805,"Longitude":-3.87119}},"Address":{"Label":"Queenspark Gardens, Nairn, IV12 5, United Kingdom","Country":"GBR","State":"Scotland","County":"Nairnshire","City":"Nairn","District":"Nairn","Street":"Queenspark Gardens","PostalCode":"IV12 5","AdditionalData":[{"value":"United Kingdom","key":"CountryName"},{"value":"Scotland","key":"StateName"},{"value":"Nairnshire","key":"CountyName"}]},"MapReference":{"ReferenceId":"1057662995","Spot":0.71,"SideOfStreet":"left","StateId":"20252820","CountyId":"20292464","CityId":"20292465","DistrictId":"20292466"}}},{"Relevance":1.0,"Distance":41.1,"MatchLevel":"postalCode","MatchQuality":{"PostalCode":1.0},"Location":{"LocationId":"NT_acGrBIuESkCSFXe28AUoLB_l_1057662995_L","LocationType":"point","DisplayPosition":{"Latitude":57.57817,"Longitude":-3.87114},"MapView":{"TopLeft":{"Latitude":57.5871632,"Longitude":-3.8879137},"BottomRight":{"Latitude":57.5691768,"Longitude":-3.8543663}},"Address":{"Label":"IV12 5EA, Nairn, Scotland, United Kingdom","Country":"GBR","State":"Scotland","County":"Nairnshire","City":"Nairn","PostalCode":"IV12 5EA","AdditionalData":[{"value":"United Kingdom","key":"CountryName"},{"value":"Scotland","key":"StateName"},{"value":"Nairnshire","key":"CountyName"}]},"MapReference":{"ReferenceId":"1057662995","Spot":0.71,"SideOfStreet":"neither","StateId":"20252820","CountyId":"20292464","CityId":"20292465"}}},{"Relevance":1.0,"Distance":41.5,"MatchLevel":"street","MatchQuality":{"Country":1.0,"State":1.0,"County":1.0,"City":1.0,"District":1.0,"Street":[1.0],"PostalCode":1.0},"Location":{"LocationId":"NT_wPjKoU6mOoHgRnZ.DCb7QB_l_1057662989_L","LocationType":"point","DisplayPosition":{"Latitude":57.57806,"Longitude":-3.8716},"MapView":{"TopLeft":{"Latitude":57.57806,"Longitude":-3.8717},"BottomRight":{"Latitude":57.57756,"Longitude":-3.8716}},"Address":{"Label":"Cawdor Road, Nairn, IV12 5, United Kingdom","Country":"GBR","State":"Scotland","County":"Nairnshire","City":"Nairn","District":"Nairn","Street":"Cawdor Road","PostalCode":"IV12 5","AdditionalData":[{"value":"United Kingdom","key":"CountryName"},{"value":"Scotland","key":"StateName"},{"value":"Nairnshire","key":"CountyName"}]},"MapReference":{"ReferenceId":"1057662989","Spot":1.0,"SideOfStreet":"left","StateId":"20252820","CountyId":"20292464","CityId":"20292465","DistrictId":"20292466"}}},{"Relevance":1.0,"Distance":41.5,"MatchLevel":"street","MatchQuality":{"Country":1.0,"State":1.0,"County":1.0,"City":1.0,"District":1.0,"Street":[1.0],"PostalCode":1.0},"Location":{"LocationId":"NT_acGrBIuESkCSFXe28AUoLB_l_1057662991_R","LocationType":"point","DisplayPosition":{"Latitude":57.57806,"Longitude":-3.8716},"MapView":{"TopLeft":{"Latitude":57.57806,"Longitude":-3.8716},"BottomRight":{"Latitude":57.57805,"Longitude":-3.87133}},"Address":{"Label":"Queenspark Gardens, Nairn, IV12 5, United Kingdom","Country":"GBR","State":"Scotland","County":"Nairnshire","City":"Nairn","District":"Nairn","Street":"Queenspark Gardens","PostalCode":"IV12 5","AdditionalData":[{"value":"United Kingdom","key":"CountryName"},{"value":"Scotland","key":"StateName"},{"value":"Nairnshire","key":"CountyName"}]},"MapReference":{"ReferenceId":"1057662991","Spot":1.0,"SideOfStreet":"right","StateId":"20252820","CountyId":"20292464","CityId":"20292465","DistrictId":"20292466"}}}]}]}}