{"Response":{"MetaInfo":{"Timestamp":"2020-03-28T11:36:22.582+0000","NextPageInformation":"2"},"View":[{"_type":"SearchResultsViewType","ViewId":0,"Result":[{"Relevance":1.0,"Distance":-3.8,"MatchLevel":"landmark","MatchQuality":{"Country":1.0,"State":1.0,"County":1.0,"City":1.0,"Street":[1.0],"PostalCode":1.0,"Name":1.0},"Location":{"LocationId":"NT_ypsRRe4o.kx6DhP343c4LB_p_1OgdUEfZ01Ip.iQ4WYUhdB","LocationType":"hospital","Name":"SU/Mölndal","DisplayPosition":{"Latitude":57.66127,"Longitude":12.0126},"MapView":{"TopLeft":{"Latitude":57.66255,"Longitude":12.00573},"BottomRight":{"Latitude":57.6593,"Longitude":12.01431}},"Address":{"Label":"Göteborgsvägen, SE-431 30 Mölndal, Sverige","Country":"SWE","State":"Västra Götalands län","County":"Mölndal","City":"Mölndal","Street":"Göteborgsvägen","PostalCode":"431 30","AdditionalData":[{"value":"Sverige","key":"CountryName"},{"value":"Västra Götalands län","key":"StateName"},{"value":"Mölndal","key":"CountyName"}]},"MapReference":{"CountryId":"20298368","StateId":"20298620","CountyId":"20299079","CityId":"20299081","PlaceId":"18679053"}}},{"Relevance":1.0,"Distance":0.0,"Direction":0.0,"MatchLevel":"city","MatchQuality":{"Country":1.0,"State":1.0,"County":1.0,"City":1.0,"PostalCode":1.0},"Location":{"LocationId":"NT_38ffho0B4rJtSBtHW2xvqA","LocationType":"point","DisplayPosition":{"Latitude":57.6620168,"Longitude":12.0092939},"MapView":{"TopLeft":{"Latitude":57.67922,"Longitude":11.95377},"BottomRight":{"Latitude":57.63359,"Longitude":12.06436}},"Address":{"Label":"Mölndal, Västra Götalands län, Sverige","Country":"SWE","State":"Västra Götalands län","County":"Mölndal","City":"Mölndal","PostalCode":"431 31","AdditionalData":[{"value":"Sverige","key":"CountryName"},{"value":"Västra Götalands län","key":"StateName"},{"value":"Mölndal","key":"CountyName"}]},"MapReference":{"ReferenceId":"809597966","SideOfStreet":"neither","CountryId":"20298368","StateId":"20298620","CountyId":"20299079","CityId":"20299081"}}},{"Relevance":1.0,"Distance":11.6,"MatchLevel":"houseNumber","MatchQuality":{"Country":1.0,"State":1.0,"County":1.0,"City":1.0,"Street":[1.0],"HouseNumber":1.0,"PostalCode":1.0},"MatchType":"interpolated","Location":{"LocationId":"NT_cy4GVOm22bF8meP.wkWOCA_xQD","LocationType":"point","DisplayPosition":{"Latitude":57.66208,"Longitude":12.00945},"MapView":{"TopLeft":{"Latitude":57.6632042,"Longitude":12.0073484},"BottomRight":{"Latitude":57.6609558,"Longitude":12.0115516}},"Address":{"Label":"Biskopsbogatan 14, SE-431 41 Mölndal, Sverige","Country":"SWE","State":"Västra Götalands län","County":"Mölndal","City":"Mölndal","Street":"Biskopsbogatan","HouseNumber":"14","PostalCode":"431 41","AdditionalData":[{"value":"Sverige","key":"CountryName"},{"value":"Västra Götalands län","key":"StateName"},{"value":"Mölndal","key":"CountyName"}]},"MapReference":{"ReferenceId":"28051124","Spot":0.18,"SideOfStreet":"left","CountryId":"20298368","StateId":"20298620","CountyId":"20299079","CityId":"20299081","AddressId":"218274517","RoadLinkId":"98925018"}}},{"Relevance":1.0,"Distance":12.6,"MatchLevel":"houseNumber","MatchQuality":{"Country":1.0,"State":1.0,"County":1.0,"City":1.0,"Street":[1.0],"HouseNumber":1.0,"PostalCode":1.0},"MatchType":"interpolated","Location":{"LocationId":"NT_cy4GVOm22bF8meP.wkWOCA_zED","LocationType":"point","DisplayPosition":{"Latitude":57.66201,"Longitude":12.00908},"MapView":{"TopLeft":{"Latitude":57.6631342,"Longitude":12.0069784},"BottomRight":{"Latitude":57.6608858,"Longitude":12.0111816}},"Address":{"Label":"Biskopsbogatan 31, SE-431 41 Mölndal, Sverige","Country":"SWE","State":"Västra Götalands län","County":"Mölndal","City":"Mölndal","Street":"Biskopsbogatan","HouseNumber":"31","PostalCode":"431 41","AdditionalData":[{"value":"Sverige","key":"CountryName"},{"value":"Västra Götalands län","key":"StateName"},{"value":"Mölndal","key":"CountyName"}]},"MapReference":{"ReferenceId":"28051160","Spot":0.94,"SideOfStreet":"right","CountryId":"20298368","StateId":"20298620","CountyId":"20299079","CityId":"20299081","AddressId":"218274618","RoadLinkId":"99010331"}}},{"Relevance":1.0,"Distance":26.1,"MatchLevel":"houseNumber","MatchQuality":{"Country":1.0,"State":1.0,"County":1.0,"City":1.0,"Street":[1.0],"HouseNumber":1.0,"PostalCode":1.0},"MatchType":"interpolated","Location":{"LocationId":"NT_Lqj6cq0YqL3HzLovgosh8B_yA","LocationType":"point","DisplayPosition":{"Latitude":57.66223,"Longitude":12.00911},"MapView":{"TopLeft":{"Latitude":57.6633542,"Longitude":12.0070084},"BottomRight":{"Latitude":57.6611058,"Longitude":12.0112116}},"Address":{"Label":"Kronogatan 2, SE-431 41 Mölndal, Sverige","Country":"SWE","State":"Västra Götalands län","County":"Mölndal","City":"Mölndal","Street":"Kronogatan","HouseNumber":"2","PostalCode":"431 41","AdditionalData":[{"value":"Sverige","key":"CountryName"},{"value":"Västra Götalands län","key":"StateName"},{"value":"Mölndal","key":"CountyName"}]},"MapReference":{"ReferenceId":"28051125","Spot":0.22,"SideOfStreet":"right","CountryId":"20298368","StateId":"20298620","CountyId":"20299079","CityId":"20299081","AddressId":"218274516","RoadLinkId":"98576863"}}},{"Relevance":1.0,"Distance":82.6,"MatchLevel":"houseNumber","MatchQuality":{"Country":1.0,"State":1.0,"County":1.0,"City":1.0,"Street":[1.0],"HouseNumber":1.0,"PostalCode":1.0},"MatchType":"interpolated","Location":{"LocationId":"NT_cy4GVOm22bF8meP.wkWOCA_ycD","LocationType":"point","DisplayPosition":{"Latitude":57.66197,"Longitude":12.01068},"MapView":{"TopLeft":{"Latitude":57.6630942,"Longitude":12.0085784},"BottomRight":{"Latitude":57.6608458,"Longitude":12.0127816}},"Address":{"Label":"Biskopsbogatan 27, SE-431 41 Mölndal, Sverige","Country":"SWE","State":"Västra Götalands län","County":"Mölndal","City":"Mölndal","Street":"Biskopsbogatan","HouseNumber":"27","PostalCode":"431 41","AdditionalData":[{"value":"Sverige","key":"CountryName"},{"value":"Västra Götalands län","key":"StateName"},{"value":"Mölndal","key":"CountyName"}]},"MapReference":{"ReferenceId":"28051154","Spot":0.16,"SideOfStreet":"right","CountryId":"20298368","StateId":"20298620","CountyId":"20299079","CityId":"20299081","AddressId":"218274619","RoadLinkId":"98807088"}}},{"Relevance":1.0,"Distance":87.5,"MatchLevel":"houseNumber","MatchQuality":{"Country":1.0,"State":1.0,"County":1.0,"City":1.0,"Street":[1.0],"HouseNumber":1.0,"PostalCode":1.0},"MatchType":"interpolated","Location":{"LocationId":"NT_xE2agCpiwrR.MTm-HK5ymB_zEE","LocationType":"point","DisplayPosition":{"Latitude":57.66276,"Longitude":12.01023},"MapView":{"TopLeft":{"Latitude":57.6638842,"Longitude":12.0081284},"BottomRight":{"Latitude":57.6616358,"Longitude":12.0123316}},"Address":{"Label":"Tolsegårdsgatan 3A, SE-431 41 Mölndal, Sverige","Country":"SWE","State":"Västra Götalands län","County":"Mölndal","City":"Mölndal","Street":"Tolsegårdsgatan","HouseNumber":"3A","PostalCode":"431 41","AdditionalData":[{"value":"Sverige","key":"CountryName"},{"value":"Västra Götalands län","key":"StateName"},{"value":"Mölndal","key":"CountyName"}]},"MapReference":{"ReferenceId":"28051090","Spot":0.57,"SideOfStreet":"left","CountryId":"20298368","StateId":"20298620","CountyId":"20299079","CityId":"20299081","AddressId":"218274759","RoadLinkId":"98977049"}}},{"Relevance":1.0,"Distance":93.3,"MatchLevel":"houseNumber","MatchQuality":{"Country":1.0,"State":1.0,"County":1.0,"City":1.0,"Street":[1.0],"HouseNumber":1.0,"PostalCode":1.0},"MatchType":"interpolated","Location":{"LocationId":"NT_cy4GVOm22bF8meP.wkWOCA_4A","LocationType":"point","DisplayPosition":{"Latitude":57.66235,"Longitude":12.01073},"MapView":{"TopLeft":{"Latitude":57.6634742,"Longitude":12.0086284},"BottomRight":{"Latitude":57.6612258,"Longitude":12.0128316}},"Address":{"Label":"Biskopsbogatan 8, SE-431 41 Mölndal, Sverige","Country":"SWE","State":"Västra Götalands län","County":"Mölndal","City":"Mölndal","Street":"Biskopsbogatan","HouseNumber":"8","PostalCode":"431 41","AdditionalData":[{"value":"Sverige","key":"CountryName"},{"value":"Västra Götalands län","key":"StateName"},{"value":"Mölndal","key":"CountyName"}]},"MapReference":{"ReferenceId":"28051089","Spot":0.22,"SideOfStreet":"left","CountryId":"20298368","StateId":"20298620","CountyId":"20299079","CityId":"20299081","AddressId":"218274752","RoadLinkId":"98910227"}}},{"Relevance":1.0,"Distance":128.3,"MatchLevel":"houseNumber","MatchQuality":{"Country":1.0,"State":1.0,"County":1.0,"City":1.0,"Street":[1.0],"HouseNumber":1.0,"PostalCode":1.0},"MatchType":"interpolated","Location":{"LocationId":"NT_e5F4e9KRWCnTNUVZ7ZjE1D_1EE","LocationType":"point","DisplayPosition":{"Latitude":57.6631,"Longitude":12.00855},"MapView":{"TopLeft":{"Latitude":57.6642242,"Longitude":12.0064484},"BottomRight":{"Latitude":57.6619758,"Longitude":12.0106516}},"Address":{"Label":"Hagåkersgatan 5A, SE-431 41 Mölndal, Sverige","Country":"SWE","State":"Västra Götalands län","County":"Mölndal","City":"Mölndal","Street":"Hagåkersgatan","HouseNumber":"5A","PostalCode":"431 41","AdditionalData":[{"value":"Sverige","key":"CountryName"},{"value":"Västra Götalands län","key":"StateName"},{"value":"Mölndal","key":"CountyName"}]},"MapReference":{"ReferenceId":"743317044","Spot":0.69,"SideOfStreet":"left","CountryId":"20298368","StateId":"20298620","CountyId":"20299079","CityId":"20299081","AddressId":"218261703","RoadLinkId":"141460161"}}},{"Relevance":1.0,"Distance":129.8,"MatchLevel":"houseNumber","MatchQuality":{"Country":1.0,"State":1.0,"County":1.0,"City":1.0,"Street":[1.0],"HouseNumber":1.0,"PostalCode":1.0},"MatchType":"interpolated","Location":{"LocationId":"NT_0QJ6Yc9NGO8ETC5AQe5Q1C_xAD","LocationType":"point","DisplayPosition":{"Latitude":57.66267,"Longitude":12.00738},"MapView":{"TopLeft":{"Latitude":57.6637942,"Longitude":12.0052784},"BottomRight":{"Latitude":57.6615458,"Longitude":12.0094816}},"Address":{"Label":"Djäknegatan 10, SE-431 41 Mölndal, Sverige","Country":"SWE","State":"Västra Götalands län","County":"Mölndal","City":"Mölndal","Street":"Djäknegatan","HouseNumber":"10","PostalCode":"431 41","AdditionalData":[{"value":"Sverige","key":"CountryName"},{"value":"Västra Götalands län","key":"StateName"},{"value":"Mölndal","key":"CountyName"}]},"MapReference":{"ReferenceId":"28051153","Spot":0.79,"SideOfStreet":"right","CountryId":"20298368","StateId":"20298620","CountyId":"20299079","CityId":"20299081","AddressId":"218274590","RoadLinkId":"98490910"}}}]}]}}