{"Response":{"MetaInfo":{"Timestamp":"2020-03-28T11:36:31.312+0000","NextPageInformation":"2"},"View":[{"_type":"SearchResultsViewType","ViewId":0,"Result":[{"Relevance":1.0,"Distance":-29.5,"MatchLevel":"landmark","MatchQuality":{"Country":1.0,"State":1.0,"County":1.0,"PostalCode":1.0,"Name":1.0},"Location":{"LocationId":"NT_uVt-z5rHmMuxmIVi13FswB","LocationType":"island","Name":"Gotland","DisplayPosition":{"Latitude":57.41763,"Longitude":18.53703},"MapView":{"TopLeft":{"Latitude":57.92956,"Longitude":18.09115},"BottomRight":{"Latitude":56.9057,"Longitude":19.09743}},"Address":{"Label":"SE-621 45, Sverige","Country":"SWE","State":"Gotlands län","County":"Gotland","PostalCode":"621 45","AdditionalData":[{"value":"Sverige","key":"CountryName"},{"value":"Gotlands län","key":"StateName"},{"value":"Gotland","key":"CountyName"}]},"MapReference":{"CountryId":"20298368","StateId":"20298798","CountyId":"20298799","PlaceId":"67243294"}}},{"Relevance":1.0,"Distance":-5.9,"MatchLevel":"landmark","MatchQuality":{"Country":1.0,"State":1.0,"County":1.0,"City":1.0,"Street":[1.0],"HouseNumber":1.0,"PostalCode":1.0,"Name":1.0},"Location":{"LocationId":"NT_98LMFLGoIiSCQ8w4ijeRLA_p_8NOhwpyFofPipDbD3A7A1A","LocationType":"hospital","Name":"Visby lasarett","DisplayPosition":{"Latitude":57.64805,"Longitude":18.30093},"MapView":{"TopLeft":{"Latitude":57.6491742,"Longitude":18.2988292},"BottomRight":{"Latitude":57.6469258,"Longitude":18.3030308}},"Address":{"Label":"Sankt Göransgatan 5, SE-621 55 Visby, Sverige","Country":"SWE","State":"Gotlands län","County":"Gotland","City":"Visby","Street":"Sankt Göransgatan","HouseNumber":"5","PostalCode":"621 55","AdditionalData":[{"value":"Sverige","key":"CountryName"},{"value":"Gotlands län","key":"StateName"},{"value":"Gotland","key":"CountyName"}]},"MapReference":{"CountryId":"20298368","StateId":"20298798","CountyId":"20298799","CityId":"20298803","PlaceId":"20120852"}}},{"Relevance":1.0,"Distance":0.0,"Direction":0.0,"MatchLevel":"city","MatchQuality":{"Country":1.0,"State":1.0,"County":1.0,"City":1.0,"PostalCode":1.0},"Location":{"LocationId":"NT_Ro0T-dpKFGRyNPubSZAVVD","LocationType":"point","DisplayPosition":{"Latitude":57.6502119,"Longitude":18.3009211},"MapView":{"TopLeft":{"Latitude":57.65377,"Longitude":18.25799},"BottomRight":{"Latitude":57.59977,"Longitude":18.35304}},"Address":{"Label":"Visby, Gotlands län, Sverige","Country":"SWE","State":"Gotlands län","County":"Gotland","City":"Visby","PostalCode":"621 45","AdditionalData":[{"value":"Sverige","key":"CountryName"},{"value":"Gotlands län","key":"StateName"},{"value":"Gotland","key":"CountyName"}]},"MapReference":{"ReferenceId":"979547176","SideOfStreet":"neither","CountryId":"20298368","StateId":"20298798","CountyId":"20298799","CityId":"20298803"}}},{"Relevance":1.0,"Distance":6.0,"MatchLevel":"street","MatchQuality":{"Country":1.0,"State":1.0,"County":1.0,"City":1.0,"Street":[1.0],"PostalCode":1.0},"Location":{"LocationId":"NT_yHDYUg0LbHueAwg0k.KDSA_l_80545320_L","LocationType":"point","DisplayPosition":{"Latitude":57.6502644,"Longitude":18.3009447},"MapView":{"TopLeft":{"Latitude":57.65028,"Longitude":18.30091},"BottomRight":{"Latitude":57.65019,"Longitude":18.30111}},"Address":{"Label":"Vikingagatan, SE-621 55 Visby, Sverige","Country":"SWE","State":"Gotlands län","County":"Gotland","City":"Visby","Street":"Vikingagatan","PostalCode":"621 55","AdditionalData":[{"value":"Sverige","key":"CountryName"},{"value":"Gotlands län","key":"StateName"},{"value":"Gotland","key":"CountyName"}]},"MapReference":{"ReferenceId":"80545320","Spot":0.83,"SideOfStreet":"left","CountryId":"20298368","StateId":"20298798","CountyId":"20298799","CityId":"20298803"}}},{"Relevance":1.0,"Distance":14.8,"MatchLevel":"houseNumber","MatchQuality":{"Country":1.0,"State":1.0,"County":1.0,"City":1.0,"Street":[1.0],"HouseNumber":1.0,"PostalCode":1.0},"MatchType":"interpolated","Location":{"LocationId":"NT_BFjftZ7t4RcGwnPHTgNaOD_l_31666970_R_xAD","LocationType":"point","DisplayPosition":{"Latitude":57.65038,"Longitude":18.30106},"MapView":{"TopLeft":{"Latitude":57.6515042,"Longitude":18.2989591},"BottomRight":{"Latitude":57.6492559,"Longitude":18.3031609}},"Address":{"Label":"Snäckgärdsvägen 10, SE-621 55 Visby, Sverige","Country":"SWE","State":"Gotlands län","County":"Gotland","City":"Visby","Street":"Snäckgärdsvägen","HouseNumber":"10","PostalCode":"621 55","AdditionalData":[{"value":"Sverige","key":"CountryName"},{"value":"Gotlands län","key":"StateName"},{"value":"Gotland","key":"CountyName"}]},"MapReference":{"ReferenceId":"31666970","Spot":0.18,"SideOfStreet":"right","CountryId":"20298368","StateId":"20298798","CountyId":"20298799","CityId":"20298803"}}},{"Relevance":1.0,"Distance":45.6,"MatchLevel":"houseNumber","MatchQuality":{"Country":1.0,"State":1.0,"County":1.0,"City":1.0,"Street":[1.0],"HouseNumber":1.0,"PostalCode":1.0},"MatchType":"interpolated","Location":{"LocationId":"NT_yHDYUg0LbHueAwg0k.KDSA_l_80545319_L_yA","LocationType":"point","DisplayPosition":{"Latitude":57.649991,"Longitude":18.3015674},"MapView":{"TopLeft":{"Latitude":57.6511152,"Longitude":18.2994666},"BottomRight":{"Latitude":57.6488669,"Longitude":18.3036683}},"Address":{"Label":"Vikingagatan 2, SE-621 55 Visby, Sverige","Country":"SWE","State":"Gotlands län","County":"Gotland","City":"Visby","Street":"Vikingagatan","HouseNumber":"2","PostalCode":"621 55","AdditionalData":[{"value":"Sverige","key":"CountryName"},{"value":"Gotlands län","key":"StateName"},{"value":"Gotland","key":"CountyName"}]},"MapReference":{"ReferenceId":"80545319","Spot":0.51,"SideOfStreet":"left","CountryId":"20298368","StateId":"20298798","CountyId":"20298799","CityId":"20298803"}}},{"Relevance":1.0,"Distance":66.7,"MatchLevel":"houseNumber","MatchQuality":{"Country":1.0,"State":1.0,"County":1.0,"City":1.0,"Street":[1.0],"HouseNumber":1.0,"PostalCode":1.0},"MatchType":"interpolated","Location":{"LocationId":"NT_BFjftZ7t4RcGwnPHTgNaOD_l_31667020_R_4A","LocationType":"point","DisplayPosition":{"Latitude":57.6497613,"Longitude":18.3001816},"MapView":{"TopLeft":{"Latitude":57.6508854,"Longitude":18.2980807},"BottomRight":{"Latitude":57.6486371,"Longitude":18.3022824}},"Address":{"Label":"Snäckgärdsvägen 8, SE-621 55 Visby, Sverige","Country":"SWE","State":"Gotlands län","County":"Gotland","City":"Visby","Street":"Snäckgärdsvägen","HouseNumber":"8","PostalCode":"621 55","AdditionalData":[{"value":"Sverige","key":"CountryName"},{"value":"Gotlands län","key":"StateName"},{"value":"Gotland","key":"CountyName"}]},"MapReference":{"ReferenceId":"31667020","Spot":0.72,"SideOfStreet":"right","CountryId":"20298368","StateId":"20298798","CountyId":"20298799","CityId":"20298803"}}},{"Relevance":1.0,"Distance":69.1,"MatchLevel":"houseNumber","MatchQuality":{"Country":1.0,"State":1.0,"County":1.0,"City":1.0,"Street":[1.0],"HouseNumber":1.0,"PostalCode":1.0},"MatchType":"interpolated","Location":{"LocationId":"NT_GN.Em1XflhfAAnYMXUZFYA_l_31666999_L_1A","LocationType":"point","DisplayPosition":{"Latitude":57.6496302,"Longitude":18.3018052},"MapView":{"TopLeft":{"Latitude":57.6507544,"Longitude":18.2997044},"BottomRight":{"Latitude":57.648506,"Longitude":18.3039061}},"Address":{"Label":"Pilängsgatan 5, SE-621 55 Visby, Sverige","Country":"SWE","State":"Gotlands län","County":"Gotland","City":"Visby","Street":"Pilängsgatan","HouseNumber":"5","PostalCode":"621 55","AdditionalData":[{"value":"Sverige","key":"CountryName"},{"value":"Gotlands län","key":"StateName"},{"value":"Gotland","key":"CountyName"}]},"MapReference":{"ReferenceId":"31666999","Spot":0.49,"SideOfStreet":"left","CountryId":"20298368","StateId":"20298798","CountyId":"20298799","CityId":"20298803"}}},{"Relevance":1.0,"Distance":77.5,"MatchLevel":"houseNumber","MatchQuality":{"Country":1.0,"State":1.0,"County":1.0,"City":1.0,"Street":[1.0],"HouseNumber":1.0,"PostalCode":1.0},"MatchType":"interpolated","Location":{"LocationId":"NT_wbyMhjY4QZ1KWcjsPDeBEC_yA","LocationType":"point","DisplayPosition":{"Latitude":57.65075,"Longitude":18.30216},"MapView":{"TopLeft":{"Latitude":57.6518742,"Longitude":18.3000591},"BottomRight":{"Latitude":57.6496258,"Longitude":18.3042609}},"Address":{"Label":"Spitelgatan 2, SE-621 55 Visby, Sverige","Country":"SWE","State":"Gotlands län","County":"Gotland","City":"Visby","Street":"Spitelgatan","HouseNumber":"2","PostalCode":"621 55","AdditionalData":[{"value":"Sverige","key":"CountryName"},{"value":"Gotlands län","key":"StateName"},{"value":"Gotland","key":"CountyName"}]},"MapReference":{"ReferenceId":"31666961","Spot":0.61,"SideOfStreet":"left","CountryId":"20298368","StateId":"20298798","CountyId":"20298799","CityId":"20298803","AddressId":"216048696","RoadLinkId":"81793329"}}},{"Relevance":1.0,"Distance":80.8,"MatchLevel":"street","MatchQuality":{"Country":1.0,"State":1.0,"County":1.0,"City":1.0,"Street":[1.0],"PostalCode":1.0},"Location":{"LocationId":"NT_yHDYUg0LbHueAwg0k.KDSA_l_31667001_L","LocationType":"point","DisplayPosition":{"Latitude":57.6498,"Longitude":18.30204},"MapView":{"TopLeft":{"Latitude":57.6498,"Longitude":18.30204},"BottomRight":{"Latitude":57.6494,"Longitude":18.30297}},"Address":{"Label":"Vikingagatan, SE-621 55 Visby, Sverige","Country":"SWE","State":"Gotlands län","County":"Gotland","City":"Visby","Street":"Vikingagatan","PostalCode":"621 55","AdditionalData":[{"value":"Sverige","key":"CountryName"},{"value":"Gotlands län","key":"StateName"},{"value":"Gotland","key":"CountyName"}]},"MapReference":{"ReferenceId":"31667001","Spot":1.0,"SideOfStreet":"left","CountryId":"20298368","StateId":"20298798","CountyId":"20298799","CityId":"20298803"}}}]}]}}