{"Response":{"MetaInfo":{"Timestamp":"2020-03-28T10:00:46.308+0000","NextPageInformation":"2"},"View":[{"_type":"SearchResultsViewType","ViewId":0,"Result":[{"Relevance":1.0,"Distance":0.0,"Direction":0.0,"MatchLevel":"district","MatchQuality":{"Country":1.0,"State":1.0,"County":1.0,"City":1.0,"District":1.0,"PostalCode":1.0},"Location":{"LocationId":"NT_ePqWFm78pCsD4Guch9ogtD","LocationType":"point","DisplayPosition":{"Latitude":57.6423437,"Longitude":11.8989037},"MapView":{"TopLeft":{"Latitude":57.66525,"Longitude":11.87111},"BottomRight":{"Latitude":57.63935,"Longitude":11.90528}},"Address":{"Label":"Tynnered, Västra Frölunda, Västra Götalands län, Sverige","Country":"SWE","State":"Västra Götalands län","County":"Göteborg","City":"Västra Frölunda","District":"Tynnered","PostalCode":"426 59","AdditionalData":[{"value":"Sverige","key":"CountryName"},{"value":"Västra Götalands län","key":"StateName"},{"value":"Göteborg","key":"CountyName"}]},"MapReference":{"ReferenceId":"1245115246","SideOfStreet":"neither","CountryId":"20298368","StateId":"20298620","CountyId":"20298983","CityId":"20854587","DistrictId":"20299041"}}},{"Relevance":1.0,"Distance":16.0,"MatchLevel":"street","MatchQuality":{"Country":1.0,"State":1.0,"County":1.0,"City":1.0,"District":1.0,"Street":[1.0],"PostalCode":1.0},"Location":{"LocationId":"NT_Fi62jNJUp9xdc3xvH7Yt.D_l_1220408926_R","LocationType":"point","DisplayPosition":{"Latitude":57.6422,"Longitude":11.89889},"MapView":{"TopLeft":{"Latitude":57.6422,"Longitude":11.89889},"BottomRight":{"Latitude":57.6421,"Longitude":11.89898}},"Address":{"Label":"Grevegårdsvägen, SE-421 61 Västra Frölunda, Sverige","Country":"SWE","State":"Västra Götalands län","County":"Göteborg","City":"Västra Frölunda","District":"Tynnered","Street":"Grevegårdsvägen","PostalCode":"421 61","AdditionalData":[{"value":"Sverige","key":"CountryName"},{"value":"Västra Götalands län","key":"StateName"},{"value":"Göteborg","key":"CountyName"}]},"MapReference":{"ReferenceId":"1220408926","Spot":1.0,"SideOfStreet":"right","CountryId":"20298368","StateId":"20298620","CountyId":"20298983","CityId":"20854587","DistrictId":"20299041"}}},{"Relevance":1.0,"Distance":22.9,"MatchLevel":"houseNumber","MatchQuality":{"Country":1.0,"State":1.0,"County":1.0,"City":1.0,"District":1.0,"Street":[1.0],"HouseNumber":1.0,"PostalCode":1.0},"MatchType":"interpolated","Location":{"LocationId":"NT_Fi62jNJUp9xdc3xvH7Yt.D_xkjNCB","LocationType":"point","DisplayPosition":{"Latitude":57.64228,"Longitude":11.89927},"MapView":{"TopLeft":{"Latitude":57.6434042,"Longitude":11.8971696},"BottomRight":{"Latitude":57.6411558,"Longitude":11.9013704}},"Address":{"Label":"Grevegårdsvägen 196B, SE-421 61 Västra Frölunda, Sverige","Country":"SWE","State":"Västra Götalands län","County":"Göteborg","City":"Västra Frölunda","District":"Tynnered","Street":"Grevegårdsvägen","HouseNumber":"196B","PostalCode":"421 61","AdditionalData":[{"value":"Sverige","key":"CountryName"},{"value":"Västra Götalands län","key":"StateName"},{"value":"Göteborg","key":"CountyName"}]},"MapReference":{"ReferenceId":"1237531903","Spot":1.0,"SideOfStreet":"right","CountryId":"20298368","StateId":"20298620","CountyId":"20298983","CityId":"20854587","DistrictId":"20299041","AddressId":"218099919","RoadLinkId":"558302974"}}},{"Relevance":1.0,"Distance":22.9,"MatchLevel":"street","MatchQuality":{"Country":1.0,"State":1.0,"County":1.0,"City":1.0,"District":1.0,"Street":[1.0],"PostalCode":1.0},"Location":{"LocationId":"NT_lwgKhS2tYTH854SsDgycvA_l_1237531905_L","LocationType":"point","DisplayPosition":{"Latitude":57.64228,"Longitude":11.89927},"MapView":{"TopLeft":{"Latitude":57.64228,"Longitude":11.89927},"BottomRight":{"Latitude":57.64148,"Longitude":11.89983}},"Address":{"Label":"Granatgatan, SE-421 61 Västra Frölunda, Sverige","Country":"SWE","State":"Västra Götalands län","County":"Göteborg","City":"Västra Frölunda","District":"Tynnered","Street":"Granatgatan","PostalCode":"421 61","AdditionalData":[{"value":"Sverige","key":"CountryName"},{"value":"Västra Götalands län","key":"StateName"},{"value":"Göteborg","key":"CountyName"}]},"MapReference":{"ReferenceId":"1237531905","Spot":1.0,"SideOfStreet":"left","CountryId":"20298368","StateId":"20298620","CountyId":"20298983","CityId":"20854587","DistrictId":"20299041"}}},{"Relevance":1.0,"Distance":27.8,"MatchLevel":"street","MatchQuality":{"Country":1.0,"State":1.0,"County":1.0,"City":1.0,"District":1.0,"Street":[1.0],"PostalCode":1.0},"Location":{"LocationId":"NT_Fi62jNJUp9xdc3xvH7Yt.D_l_1220408927_L","LocationType":"point","DisplayPosition":{"Latitude":57.6420949,"Longitude":11.898956},"MapView":{"TopLeft":{"Latitude":57.6421,"Longitude":11.89779},"BottomRight":{"Latitude":57.64185,"Longitude":11.89898}},"Address":{"Label":"Grevegårdsvägen, SE-421 61 Västra Frölunda, Sverige","Country":"SWE","State":"Västra Götalands län","County":"Göteborg","City":"Västra Frölunda","District":"Tynnered","Street":"Grevegårdsvägen","PostalCode":"421 61","AdditionalData":[{"value":"Sverige","key":"CountryName"},{"value":"Västra Götalands län","key":"StateName"},{"value":"Göteborg","key":"CountyName"}]},"MapReference":{"ReferenceId":"1220408927","Spot":0.98,"SideOfStreet":"left","CountryId":"20298368","StateId":"20298620","CountyId":"20298983","CityId":"20854587","DistrictId":"20299041"}}},{"Relevance":1.0,"Distance":29.4,"MatchLevel":"houseNumber","MatchQuality":{"Country":1.0,"State":1.0,"County":1.0,"City":1.0,"District":1.0,"Street":[1.0],"HouseNumber":1.0,"PostalCode":1.0},"MatchType":"interpolated","Location":{"LocationId":"NT_Fi62jNJUp9xdc3xvH7Yt.D_xkDOCB","LocationType":"point","DisplayPosition":{"Latitude":57.64232,"Longitude":11.89944},"MapView":{"TopLeft":{"Latitude":57.6434442,"Longitude":11.8973396},"BottomRight":{"Latitude":57.6411958,"Longitude":11.9015404}},"Address":{"Label":"Grevegårdsvägen 198B, SE-421 61 Västra Frölunda, Sverige","Country":"SWE","State":"Västra Götalands län","County":"Göteborg","City":"Västra Frölunda","District":"Tynnered","Street":"Grevegårdsvägen","HouseNumber":"198B","PostalCode":"421 61","AdditionalData":[{"value":"Sverige","key":"CountryName"},{"value":"Västra Götalands län","key":"StateName"},{"value":"Göteborg","key":"CountyName"}]},"MapReference":{"ReferenceId":"1237531904","Spot":0.21,"SideOfStreet":"left","CountryId":"20298368","StateId":"20298620","CountyId":"20298983","CityId":"20854587","DistrictId":"20299041","AddressId":"218099917","RoadLinkId":"558302975"}}},{"Relevance":1.0,"Distance":35.0,"MatchLevel":"houseNumber","MatchQuality":{"Country":1.0,"State":1.0,"County":1.0,"City":1.0,"District":1.0,"Street":[1.0],"HouseNumber":1.0,"PostalCode":1.0},"MatchType":"interpolated","Location":{"LocationId":"NT_Fi62jNJUp9xdc3xvH7Yt.D_xkDN","LocationType":"point","DisplayPosition":{"Latitude":57.64212,"Longitude":11.89849},"MapView":{"TopLeft":{"Latitude":57.6432442,"Longitude":11.8963896},"BottomRight":{"Latitude":57.6409958,"Longitude":11.9005904}},"Address":{"Label":"Grevegårdsvägen 194, SE-421 61 Västra Frölunda, Sverige","Country":"SWE","State":"Västra Götalands län","County":"Göteborg","City":"Västra Frölunda","District":"Tynnered","Street":"Grevegårdsvägen","HouseNumber":"194","PostalCode":"421 61","AdditionalData":[{"value":"Sverige","key":"CountryName"},{"value":"Västra Götalands län","key":"StateName"},{"value":"Göteborg","key":"CountyName"}]},"MapReference":{"ReferenceId":"1220408919","Spot":0.66,"SideOfStreet":"left","CountryId":"20298368","StateId":"20298620","CountyId":"20298983","CityId":"20854587","DistrictId":"20299041","AddressId":"218099912","RoadLinkId":"537550344"}}},{"Relevance":1.0,"Distance":35.7,"MatchLevel":"houseNumber","MatchQuality":{"Country":1.0,"State":1.0,"County":1.0,"City":1.0,"District":1.0,"Street":[1.0],"HouseNumber":1.0,"PostalCode":1.0},"MatchType":"interpolated","Location":{"LocationId":"NT_Fi62jNJUp9xdc3xvH7Yt.D_yAjN","LocationType":"point","DisplayPosition":{"Latitude":57.64203,"Longitude":11.89903},"MapView":{"TopLeft":{"Latitude":57.6431542,"Longitude":11.8969296},"BottomRight":{"Latitude":57.6409058,"Longitude":11.9011304}},"Address":{"Label":"Grevegårdsvägen 206, SE-421 61 Västra Frölunda, Sverige","Country":"SWE","State":"Västra Götalands län","County":"Göteborg","City":"Västra Frölunda","District":"Tynnered","Street":"Grevegårdsvägen","HouseNumber":"206","PostalCode":"421 61","AdditionalData":[{"value":"Sverige","key":"CountryName"},{"value":"Västra Götalands län","key":"StateName"},{"value":"Göteborg","key":"CountyName"}]},"MapReference":{"ReferenceId":"1220408925","Spot":0.0,"SideOfStreet":"left","CountryId":"20298368","StateId":"20298620","CountyId":"20298983","CityId":"20854587","DistrictId":"20299041","AddressId":"218099914","RoadLinkId":"537550350"}}},{"Relevance":1.0,"Distance":59.8,"MatchLevel":"houseNumber","MatchQuality":{"Country":1.0,"State":1.0,"County":1.0,"City":1.0,"District":1.0,"Street":[1.0],"HouseNumber":1.0,"PostalCode":1.0},"MatchType":"interpolated","Location":{"LocationId":"NT_Fi62jNJUp9xdc3xvH7Yt.D_xYDN","LocationType":"point","DisplayPosition":{"Latitude":57.64286,"Longitude":11.898},"MapView":{"TopLeft":{"Latitude":57.6439842,"Longitude":11.8958995},"BottomRight":{"Latitude":57.6417358,"Longitude":11.9001005}},"Address":{"Label":"Grevegårdsvägen 164, SE-421 61 Västra Frölunda, Sverige","Country":"SWE","State":"Västra Götalands län","County":"Göteborg","City":"Västra Frölunda","District":"Tynnered","Street":"Grevegårdsvägen","HouseNumber":"164","PostalCode":"421 61","AdditionalData":[{"value":"Sverige","key":"CountryName"},{"value":"Västra Götalands län","key":"StateName"},{"value":"Göteborg","key":"CountyName"}]},"MapReference":{"ReferenceId":"768806068","Spot":0.95,"SideOfStreet":"right","CountryId":"20298368","StateId":"20298620","CountyId":"20298983","CityId":"20854587","DistrictId":"20299041","AddressId":"218072267","RoadLinkId":"162379133"}}},{"Relevance":1.0,"Distance":63.2,"MatchLevel":"street","MatchQuality":{"Country":1.0,"State":1.0,"County":1.0,"City":1.0,"District":1.0,"PostalCode":1.0},"Location":{"LocationId":"NT_7v1wSmMIRLqW9S2pnWbP2B_l_1217419892_L","LocationType":"point","DisplayPosition":{"Latitude":57.6428849,"Longitude":11.8992284},"MapView":{"TopLeft":{"Latitude":57.64469,"Longitude":11.8972},"BottomRight":{"Latitude":57.64243,"Longitude":11.90007}},"Address":{"Label":"SE-421 61 Västra Frölunda, Sverige","Country":"SWE","State":"Västra Götalands län","County":"Göteborg","City":"Västra Frölunda","District":"Önnered","PostalCode":"421 61","AdditionalData":[{"value":"Sverige","key":"CountryName"},{"value":"Västra Götalands län","key":"StateName"},{"value":"Göteborg","key":"CountyName"}]},"MapReference":{"ReferenceId":"1217419892","Spot":0.26,"SideOfStreet":"left","CountryId":"20298368","StateId":"20298620","CountyId":"20298983","CityId":"20854587","DistrictId":"20299047"}}}]}]}}