{"Response":{"MetaInfo":{"Timestamp":"2020-03-28T11:36:31.790+0000","NextPageInformation":"2"},"View":[{"_type":"SearchResultsViewType","ViewId":0,"Result":[{"Relevance":1.0,"Distance":-3.6,"MatchLevel":"landmark","MatchQuality":{"Country":1.0,"State":1.0,"County":1.0,"City":1.0,"Street":[1.0],"HouseNumber":1.0,"PostalCode":1.0,"Name":1.0},"Location":{"LocationId":"NT_yhQirpaAI0kUYRh2gUZt3A_p_2F1JU13BApdgdaUyzgkv8B","LocationType":"hospital","Name":"Västerviks sjukhus","DisplayPosition":{"Latitude":57.75541,"Longitude":16.63648},"MapView":{"TopLeft":{"Latitude":57.7565342,"Longitude":16.634373},"BottomRight":{"Latitude":57.7542858,"Longitude":16.638587}},"Address":{"Label":"Östra Kyrkogatan 48, SE-593 33 Västervik, Sverige","Country":"SWE","State":"Kalmar län","County":"Västervik","City":"Västervik","Street":"Östra Kyrkogatan","HouseNumber":"48","PostalCode":"593 33","AdditionalData":[{"value":"Sverige","key":"CountryName"},{"value":"Kalmar län","key":"StateName"},{"value":"Västervik","key":"CountyName"}]},"MapReference":{"CountryId":"20298368","StateId":"20298743","CountyId":"20298760","CityId":"20298764","PlaceId":"20186885"}}},{"Relevance":1.0,"Distance":0.0,"Direction":0.0,"MatchLevel":"city","MatchQuality":{"Country":1.0,"State":1.0,"County":1.0,"City":1.0,"PostalCode":1.0},"Location":{"LocationId":"NT_bYnWTYkKMZKBZ3gaINqo7B","LocationType":"point","DisplayPosition":{"Latitude":57.7546007,"Longitude":16.6321999},"MapView":{"TopLeft":{"Latitude":57.78719,"Longitude":16.58323},"BottomRight":{"Latitude":57.73318,"Longitude":16.67652}},"Address":{"Label":"Västervik, Kalmar län, Sverige","Country":"SWE","State":"Kalmar län","County":"Västervik","City":"Västervik","PostalCode":"593 30","AdditionalData":[{"value":"Sverige","key":"CountryName"},{"value":"Kalmar län","key":"StateName"},{"value":"Västervik","key":"CountyName"}]},"MapReference":{"ReferenceId":"916375771","SideOfStreet":"neither","CountryId":"20298368","StateId":"20298743","CountyId":"20298760","CityId":"20298764"}}},{"Relevance":1.0,"Distance":54.3,"MatchLevel":"houseNumber","MatchQuality":{"Country":1.0,"State":1.0,"County":1.0,"City":1.0,"Street":[1.0],"HouseNumber":1.0,"PostalCode":1.0},"MatchType":"interpolated","Location":{"LocationId":"NT_vgcQfxDaWoo98L3UrvgfiD_xAD","LocationType":"point","DisplayPosition":{"Latitude":57.75442,"Longitude":16.63128},"MapView":{"TopLeft":{"Latitude":57.7555442,"Longitude":16.6291731},"BottomRight":{"Latitude":57.7532958,"Longitude":16.6333869}},"Address":{"Label":"Lyckerumsgatan 10, SE-593 36 Västervik, Sverige","Country":"SWE","State":"Kalmar län","County":"Västervik","City":"Västervik","Street":"Lyckerumsgatan","HouseNumber":"10","PostalCode":"593 36","AdditionalData":[{"value":"Sverige","key":"CountryName"},{"value":"Kalmar län","key":"StateName"},{"value":"Västervik","key":"CountyName"}]},"MapReference":{"ReferenceId":"30760806","Spot":0.26,"SideOfStreet":"right","CountryId":"20298368","StateId":"20298743","CountyId":"20298760","CityId":"20298764","AddressId":"216175592","RoadLinkId":"82109965"}}},{"Relevance":1.0,"Distance":57.8,"MatchLevel":"houseNumber","MatchQuality":{"Country":1.0,"State":1.0,"County":1.0,"City":1.0,"Street":[1.0],"HouseNumber":1.0,"PostalCode":1.0},"MatchType":"interpolated","Location":{"LocationId":"NT_HkkWWOR8EYTtOg38MkGNRC_xA","LocationType":"point","DisplayPosition":{"Latitude":57.75523,"Longitude":16.63269},"MapView":{"TopLeft":{"Latitude":57.7563542,"Longitude":16.630583},"BottomRight":{"Latitude":57.7541058,"Longitude":16.634797}},"Address":{"Label":"Augustenburgsgatan 1, SE-593 36 Västervik, Sverige","Country":"SWE","State":"Kalmar län","County":"Västervik","City":"Västervik","Street":"Augustenburgsgatan","HouseNumber":"1","PostalCode":"593 36","AdditionalData":[{"value":"Sverige","key":"CountryName"},{"value":"Kalmar län","key":"StateName"},{"value":"Västervik","key":"CountyName"}]},"MapReference":{"ReferenceId":"80547450","Spot":0.39,"SideOfStreet":"left","CountryId":"20298368","StateId":"20298743","CountyId":"20298760","CityId":"20298764","AddressId":"216171021","RoadLinkId":"82113507"}}},{"Relevance":1.0,"Distance":66.4,"MatchLevel":"houseNumber","MatchQuality":{"Country":1.0,"State":1.0,"County":1.0,"City":1.0,"Street":[1.0],"HouseNumber":1.0,"PostalCode":1.0},"MatchType":"interpolated","Location":{"LocationId":"NT_Uwrj4cpSbokt6i4SlR.8JC_xUTQ","LocationType":"point","DisplayPosition":{"Latitude":57.75418,"Longitude":16.6314},"MapView":{"TopLeft":{"Latitude":57.7553042,"Longitude":16.6292931},"BottomRight":{"Latitude":57.7530558,"Longitude":16.6335069}},"Address":{"Label":"Karstorpsvägen 15A, SE-593 36 Västervik, Sverige","Country":"SWE","State":"Kalmar län","County":"Västervik","City":"Västervik","Street":"Karstorpsvägen","HouseNumber":"15A","PostalCode":"593 36","AdditionalData":[{"value":"Sverige","key":"CountryName"},{"value":"Kalmar län","key":"StateName"},{"value":"Västervik","key":"CountyName"}]},"MapReference":{"ReferenceId":"30760859","Spot":0.87,"SideOfStreet":"right","CountryId":"20298368","StateId":"20298743","CountyId":"20298760","CityId":"20298764","AddressId":"216177080","RoadLinkId":"81989075"}}},{"Relevance":1.0,"Distance":67.8,"MatchLevel":"houseNumber","MatchQuality":{"Country":1.0,"State":1.0,"County":1.0,"City":1.0,"Street":[1.0],"HouseNumber":1.0,"PostalCode":1.0},"MatchType":"interpolated","Location":{"LocationId":"NT_Uwrj4cpSbokt6i4SlR.8JC_5A","LocationType":"point","DisplayPosition":{"Latitude":57.75507,"Longitude":16.63293},"MapView":{"TopLeft":{"Latitude":57.7561942,"Longitude":16.630823},"BottomRight":{"Latitude":57.7539458,"Longitude":16.635037}},"Address":{"Label":"Karstorpsvägen 9, SE-593 36 Västervik, Sverige","Country":"SWE","State":"Kalmar län","County":"Västervik","City":"Västervik","Street":"Karstorpsvägen","HouseNumber":"9","PostalCode":"593 36","AdditionalData":[{"value":"Sverige","key":"CountryName"},{"value":"Kalmar län","key":"StateName"},{"value":"Västervik","key":"CountyName"}]},"MapReference":{"ReferenceId":"30760805","Spot":1.0,"SideOfStreet":"right","CountryId":"20298368","StateId":"20298743","CountyId":"20298760","CityId":"20298764","AddressId":"216175598","RoadLinkId":"81713583"}}},{"Relevance":1.0,"Distance":72.3,"MatchLevel":"houseNumber","MatchQuality":{"Country":1.0,"State":1.0,"County":1.0,"City":1.0,"Street":[1.0],"HouseNumber":1.0,"PostalCode":1.0},"MatchType":"interpolated","Location":{"LocationId":"NT_BG467.WVZXcKfO.M.oIaxD_zA","LocationType":"point","DisplayPosition":{"Latitude":57.75525,"Longitude":16.63141},"MapView":{"TopLeft":{"Latitude":57.7563742,"Longitude":16.629303},"BottomRight":{"Latitude":57.7541258,"Longitude":16.633517}},"Address":{"Label":"Fritunagatan 3, SE-593 36 Västervik, Sverige","Country":"SWE","State":"Kalmar län","County":"Västervik","City":"Västervik","Street":"Fritunagatan","HouseNumber":"3","PostalCode":"593 36","AdditionalData":[{"value":"Sverige","key":"CountryName"},{"value":"Kalmar län","key":"StateName"},{"value":"Västervik","key":"CountyName"}]},"MapReference":{"ReferenceId":"30760745","Spot":0.58,"SideOfStreet":"right","CountryId":"20298368","StateId":"20298743","CountyId":"20298760","CityId":"20298764","AddressId":"216175753","RoadLinkId":"81887072"}}},{"Relevance":1.0,"Distance":91.3,"MatchLevel":"houseNumber","MatchQuality":{"Country":1.0,"State":1.0,"County":1.0,"City":1.0,"Street":[1.0],"HouseNumber":1.0,"PostalCode":1.0},"MatchType":"interpolated","Location":{"LocationId":"NT_HkkWWOR8EYTtOg38MkGNRC_zEE","LocationType":"point","DisplayPosition":{"Latitude":57.75551,"Longitude":16.6321},"MapView":{"TopLeft":{"Latitude":57.7566342,"Longitude":16.629993},"BottomRight":{"Latitude":57.7543858,"Longitude":16.634207}},"Address":{"Label":"Augustenburgsgatan 3A, SE-593 36 Västervik, Sverige","Country":"SWE","State":"Kalmar län","County":"Västervik","City":"Västervik","Street":"Augustenburgsgatan","HouseNumber":"3A","PostalCode":"593 36","AdditionalData":[{"value":"Sverige","key":"CountryName"},{"value":"Kalmar län","key":"StateName"},{"value":"Västervik","key":"CountyName"}]},"MapReference":{"ReferenceId":"80547451","Spot":0.67,"SideOfStreet":"left","CountryId":"20298368","StateId":"20298743","CountyId":"20298760","CityId":"20298764","AddressId":"216171022","RoadLinkId":"81838670"}}},{"Relevance":1.0,"Distance":93.4,"MatchLevel":"street","MatchQuality":{"Country":1.0,"State":1.0,"County":1.0,"City":1.0,"PostalCode":1.0},"Location":{"LocationId":"NT_.QhpoM7DcrsSpzPLdmOdPB_l_1049714566_R","LocationType":"point","DisplayPosition":{"Latitude":57.75544,"Longitude":16.63227},"MapView":{"TopLeft":{"Latitude":57.75564,"Longitude":16.63227},"BottomRight":{"Latitude":57.75544,"Longitude":16.63298}},"Address":{"Label":"SE-593 36 Västervik, Sverige","Country":"SWE","State":"Kalmar län","County":"Västervik","City":"Västervik","PostalCode":"593 36","AdditionalData":[{"value":"Sverige","key":"CountryName"},{"value":"Kalmar län","key":"StateName"},{"value":"Västervik","key":"CountyName"}]},"MapReference":{"ReferenceId":"1049714566","Spot":0.0,"SideOfStreet":"right","CountryId":"20298368","StateId":"20298743","CountyId":"20298760","CityId":"20298764"}}},{"Relevance":1.0,"Distance":103.2,"MatchLevel":"street","MatchQuality":{"Country":1.0,"State":1.0,"County":1.0,"City":1.0,"Street":[1.0],"PostalCode":1.0},"Location":{"LocationId":"NT_TSzsqCSPdW8Vsm.y86VbUC_l_573730494_L","LocationType":"point","DisplayPosition":{"Latitude":57.75399,"Longitude":16.63351},"MapView":{"TopLeft":{"Latitude":57.75523,"Longitude":16.63351},"BottomRight":{"Latitude":57.75399,"Longitude":16.63724}},"Address":{"Label":"Östra Kyrkogatan, SE-593 33 Västervik, Sverige","Country":"SWE","State":"Kalmar län","County":"Västervik","City":"Västervik","Street":"Östra Kyrkogatan","PostalCode":"593 33","AdditionalData":[{"value":"Sverige","key":"CountryName"},{"value":"Kalmar län","key":"StateName"},{"value":"Västervik","key":"CountyName"}]},"MapReference":{"ReferenceId":"573730494","Spot":0.0,"SideOfStreet":"left","CountryId":"20298368","StateId":"20298743","CountyId":"20298760","CityId":"20298764"}}}]}]}}