{"Response":{"MetaInfo":{"Timestamp":"2020-03-28T11:36:21.029+0000","NextPageInformation":"2"},"View":[{"_type":"SearchResultsViewType","ViewId":0,"Result":[{"Relevance":1.0,"Distance":-11.5,"MatchLevel":"landmark","MatchQuality":{"Country":1.0,"State":1.0,"County":1.0,"City":1.0,"PostalCode":1.0,"Name":1.0},"Location":{"LocationId":"NT_nVWiEy1oStQFeeKL.fc8cD","LocationType":"hospital","Name":"Lysekils sjukhus","DisplayPosition":{"Latitude":58.28095,"Longitude":11.43993},"MapView":{"TopLeft":{"Latitude":58.28184,"Longitude":11.43798},"BottomRight":{"Latitude":58.28006,"Longitude":11.44211}},"Address":{"Label":"SE-453 31 Lysekil, Sverige","Country":"SWE","State":"Västra Götalands län","County":"Lysekil","City":"Lysekil","PostalCode":"453 31","AdditionalData":[{"value":"Sverige","key":"CountryName"},{"value":"Västra Götalands län","key":"StateName"},{"value":"Lysekil","key":"CountyName"}]},"MapReference":{"CountryId":"20298368","StateId":"20298620","CountyId":"20298947","CityId":"20298949","PlaceId":"67183737"}}},{"Relevance":1.0,"Distance":0.0,"Direction":0.0,"MatchLevel":"city","MatchQuality":{"Country":1.0,"State":1.0,"County":1.0,"City":1.0,"PostalCode":1.0},"Location":{"LocationId":"NT_Pes.uwR8wt4R4PwJ3KNiXA","LocationType":"point","DisplayPosition":{"Latitude":58.2802561,"Longitude":11.4398025},"MapView":{"TopLeft":{"Latitude":58.29281,"Longitude":11.41363},"BottomRight":{"Latitude":58.26744,"Longitude":11.47733}},"Address":{"Label":"Lysekil, Västra Götalands län, Sverige","Country":"SWE","State":"Västra Götalands län","County":"Lysekil","City":"Lysekil","PostalCode":"453 31","AdditionalData":[{"value":"Sverige","key":"CountryName"},{"value":"Västra Götalands län","key":"StateName"},{"value":"Lysekil","key":"CountyName"}]},"MapReference":{"ReferenceId":"809092167","SideOfStreet":"neither","CountryId":"20298368","StateId":"20298620","CountyId":"20298947","CityId":"20298949"}}},{"Relevance":1.0,"Distance":4.2,"MatchLevel":"houseNumber","MatchQuality":{"Country":1.0,"State":1.0,"County":1.0,"City":1.0,"Street":[1.0],"HouseNumber":1.0,"PostalCode":1.0},"MatchType":"interpolated","Location":{"LocationId":"NT_e7sFxBTttsx-dolMm0IoMA_l_28985032_L_zA","LocationType":"point","DisplayPosition":{"Latitude":58.280147,"Longitude":11.4397706},"MapView":{"TopLeft":{"Latitude":58.2812712,"Longitude":11.4376325},"BottomRight":{"Latitude":58.2790229,"Longitude":11.4419087}},"Address":{"Label":"Lasarettsgatan 3, SE-453 34 Lysekil, Sverige","Country":"SWE","State":"Västra Götalands län","County":"Lysekil","City":"Lysekil","Street":"Lasarettsgatan","HouseNumber":"3","PostalCode":"453 34","AdditionalData":[{"value":"Sverige","key":"CountryName"},{"value":"Västra Götalands län","key":"StateName"},{"value":"Lysekil","key":"CountyName"}]},"MapReference":{"ReferenceId":"28985032","Spot":0.36,"SideOfStreet":"left","CountryId":"20298368","StateId":"20298620","CountyId":"20298947","CityId":"20298949"}}},{"Relevance":1.0,"Distance":30.0,"MatchLevel":"street","MatchQuality":{"Country":1.0,"State":1.0,"County":1.0,"City":1.0,"Street":[1.0],"PostalCode":1.0},"Location":{"LocationId":"NT_JtAUiAjIPdHDb9G0Y8UKFB_l_809094342_R","LocationType":"point","DisplayPosition":{"Latitude":58.28006,"Longitude":11.43945},"MapView":{"TopLeft":{"Latitude":58.28006,"Longitude":11.43904},"BottomRight":{"Latitude":58.2798,"Longitude":11.43945}},"Address":{"Label":"Gymnasievägen, SE-453 34 Lysekil, Sverige","Country":"SWE","State":"Västra Götalands län","County":"Lysekil","City":"Lysekil","Street":"Gymnasievägen","PostalCode":"453 34","AdditionalData":[{"value":"Sverige","key":"CountryName"},{"value":"Västra Götalands län","key":"StateName"},{"value":"Lysekil","key":"CountyName"}]},"MapReference":{"ReferenceId":"809094342","Spot":1.0,"SideOfStreet":"right","CountryId":"20298368","StateId":"20298620","CountyId":"20298947","CityId":"20298949"}}},{"Relevance":1.0,"Distance":31.4,"MatchLevel":"houseNumber","MatchQuality":{"Country":1.0,"State":1.0,"County":1.0,"City":1.0,"Street":[1.0],"HouseNumber":1.0,"PostalCode":1.0},"MatchType":"interpolated","Location":{"LocationId":"NT_gr84UJDFcIqP6Q9x6hSa.A_l_28985033_R_yA","LocationType":"point","DisplayPosition":{"Latitude":58.28011,"Longitude":11.43922},"MapView":{"TopLeft":{"Latitude":58.2812342,"Longitude":11.4370818},"BottomRight":{"Latitude":58.2789859,"Longitude":11.4413581}},"Address":{"Label":"Långeviksgatan 2, SE-453 34 Lysekil, Sverige","Country":"SWE","State":"Västra Götalands län","County":"Lysekil","City":"Lysekil","Street":"Långeviksgatan","HouseNumber":"2","PostalCode":"453 34","AdditionalData":[{"value":"Sverige","key":"CountryName"},{"value":"Västra Götalands län","key":"StateName"},{"value":"Lysekil","key":"CountyName"}]},"MapReference":{"ReferenceId":"28985033","Spot":0.15,"SideOfStreet":"right","CountryId":"20298368","StateId":"20298620","CountyId":"20298947","CityId":"20298949"}}},{"Relevance":1.0,"Distance":31.4,"MatchLevel":"houseNumber","MatchQuality":{"Country":1.0,"State":1.0,"County":1.0,"City":1.0,"Street":[1.0],"HouseNumber":1.0,"PostalCode":1.0},"MatchType":"interpolated","Location":{"LocationId":"NT_StwubxFZt2x1QBv3mzMEgA_yMD","LocationType":"point","DisplayPosition":{"Latitude":58.28006,"Longitude":11.44039},"MapView":{"TopLeft":{"Latitude":58.2811842,"Longitude":11.4382519},"BottomRight":{"Latitude":58.2789358,"Longitude":11.4425281}},"Address":{"Label":"Stenhuggaregatan 23, SE-453 34 Lysekil, Sverige","Country":"SWE","State":"Västra Götalands län","County":"Lysekil","City":"Lysekil","Street":"Stenhuggaregatan","HouseNumber":"23","PostalCode":"453 34","AdditionalData":[{"value":"Sverige","key":"CountryName"},{"value":"Västra Götalands län","key":"StateName"},{"value":"Lysekil","key":"CountyName"}]},"MapReference":{"ReferenceId":"28985124","Spot":0.89,"SideOfStreet":"left","CountryId":"20298368","StateId":"20298620","CountyId":"20298947","CityId":"20298949","AddressId":"218129718","RoadLinkId":"98810689"}}},{"Relevance":1.0,"Distance":33.6,"MatchLevel":"street","MatchQuality":{"Country":1.0,"State":1.0,"County":1.0,"City":1.0,"Street":[1.0],"PostalCode":1.0},"Location":{"LocationId":"NT_e7sFxBTttsx-dolMm0IoMA_l_809094337_L","LocationType":"point","DisplayPosition":{"Latitude":58.28021,"Longitude":11.44037},"MapView":{"TopLeft":{"Latitude":58.28022,"Longitude":11.44037},"BottomRight":{"Latitude":58.28021,"Longitude":11.44052}},"Address":{"Label":"Lasarettsgatan, SE-453 34 Lysekil, Sverige","Country":"SWE","State":"Västra Götalands län","County":"Lysekil","City":"Lysekil","Street":"Lasarettsgatan","PostalCode":"453 34","AdditionalData":[{"value":"Sverige","key":"CountryName"},{"value":"Västra Götalands län","key":"StateName"},{"value":"Lysekil","key":"CountyName"}]},"MapReference":{"ReferenceId":"809094337","Spot":0.0,"SideOfStreet":"left","CountryId":"20298368","StateId":"20298620","CountyId":"20298947","CityId":"20298949"}}},{"Relevance":1.0,"Distance":38.5,"MatchLevel":"street","MatchQuality":{"Country":1.0,"State":1.0,"County":1.0,"City":1.0,"PostalCode":1.0},"Location":{"LocationId":"NT_M5bvCb.rW6a5-chQYixxvB_l_586433907_L","LocationType":"point","DisplayPosition":{"Latitude":58.28039,"Longitude":11.44041},"MapView":{"TopLeft":{"Latitude":58.28039,"Longitude":11.44041},"BottomRight":{"Latitude":58.28037,"Longitude":11.44066}},"Address":{"Label":"SE-453 34 Lysekil, Sverige","Country":"SWE","State":"Västra Götalands län","County":"Lysekil","City":"Lysekil","PostalCode":"453 34","AdditionalData":[{"value":"Sverige","key":"CountryName"},{"value":"Västra Götalands län","key":"StateName"},{"value":"Lysekil","key":"CountyName"}]},"MapReference":{"ReferenceId":"586433907","Spot":1.0,"SideOfStreet":"left","CountryId":"20298368","StateId":"20298620","CountyId":"20298947","CityId":"20298949"}}},{"Relevance":1.0,"Distance":49.0,"MatchLevel":"houseNumber","MatchQuality":{"Country":1.0,"State":1.0,"County":1.0,"City":1.0,"Street":[1.0],"HouseNumber":1.0,"PostalCode":1.0},"MatchType":"interpolated","Location":{"LocationId":"NT_e7sFxBTttsx-dolMm0IoMA_l_809094338_L_5A","LocationType":"point","DisplayPosition":{"Latitude":58.2802254,"Longitude":11.4406378},"MapView":{"TopLeft":{"Latitude":58.2813495,"Longitude":11.4384996},"BottomRight":{"Latitude":58.2791012,"Longitude":11.4427759}},"Address":{"Label":"Lasarettsgatan 9, SE-453 34 Lysekil, Sverige","Country":"SWE","State":"Västra Götalands län","County":"Lysekil","City":"Lysekil","Street":"Lasarettsgatan","HouseNumber":"9","PostalCode":"453 34","AdditionalData":[{"value":"Sverige","key":"CountryName"},{"value":"Västra Götalands län","key":"StateName"},{"value":"Lysekil","key":"CountyName"}]},"MapReference":{"ReferenceId":"809094338","Spot":0.54,"SideOfStreet":"left","CountryId":"20298368","StateId":"20298620","CountyId":"20298947","CityId":"20298949"}}},{"Relevance":1.0,"Distance":51.7,"MatchLevel":"street","MatchQuality":{"Country":1.0,"State":1.0,"County":1.0,"City":1.0,"PostalCode":1.0},"Location":{"LocationId":"NT_M5bvCb.rW6a5-chQYixxvB_l_586433905_L","LocationType":"point","DisplayPosition":{"Latitude":58.28037,"Longitude":11.44066},"MapView":{"TopLeft":{"Latitude":58.28037,"Longitude":11.44066},"BottomRight":{"Latitude":58.28023,"Longitude":11.44074}},"Address":{"Label":"SE-453 34 Lysekil, Sverige","Country":"SWE","State":"Västra Götalands län","County":"Lysekil","City":"Lysekil","PostalCode":"453 34","AdditionalData":[{"value":"Sverige","key":"CountryName"},{"value":"Västra Götalands län","key":"StateName"},{"value":"Lysekil","key":"CountyName"}]},"MapReference":{"ReferenceId":"586433905","Spot":1.0,"SideOfStreet":"left","CountryId":"20298368","StateId":"20298620","CountyId":"20298947","CityId":"20298949"}}}]}]}}