{"Response":{"MetaInfo":{"Timestamp":"2020-03-28T11:03:13.222+0000","NextPageInformation":"2"},"View":[{"_type":"SearchResultsViewType","ViewId":0,"Result":[{"Relevance":1.0,"Distance":-18.2,"MatchLevel":"landmark","MatchQuality":{"Country":1.0,"County":1.0,"City":1.0,"Street":[1.0],"PostalCode":1.0,"Name":1.0},"Location":{"LocationId":"NT_NXWSIa7w-pKbpSfw5JfIqA_p_nhgBL409QxGsfZBNR2-NID","LocationType":"hospital","Name":"Pärnu haigla","DisplayPosition":{"Latitude":58.38725,"Longitude":24.54765},"MapView":{"TopLeft":{"Latitude":58.38858,"Longitude":24.5443},"BottomRight":{"Latitude":58.38622,"Longitude":24.54967}},"Address":{"Label":"Ristiku, Pärnu, 80047 Pärnu Maakond, Eesti","Country":"EST","County":"Pärnu Maakond","City":"Pärnu","Street":"Ristiku","PostalCode":"80047","AdditionalData":[{"value":"Eesti","key":"CountryName"},{"value":"Pärnu Maakond","key":"CountyName"}]},"MapReference":{"CountryId":"20633738","CountyId":"20650563","CityId":"20650582","PlaceId":"996634494"}}},{"Relevance":1.0,"Distance":0.0,"Direction":0.0,"MatchLevel":"city","MatchQuality":{"Country":1.0,"County":1.0,"City":1.0,"PostalCode":1.0},"Location":{"LocationId":"NT_-OVUiwlSf6bTsCLKMOu3OA","LocationType":"point","DisplayPosition":{"Latitude":58.3873926,"Longitude":24.5446338},"MapView":{"TopLeft":{"Latitude":58.52498,"Longitude":23.85353},"BottomRight":{"Latitude":58.20282,"Longitude":24.98753}},"Address":{"Label":"Pärnu, Eesti","Country":"EST","County":"Pärnu Maakond","City":"Pärnu","PostalCode":"80011","AdditionalData":[{"value":"Eesti","key":"CountryName"},{"value":"Pärnu Maakond","key":"CountyName"}]},"MapReference":{"ReferenceId":"775247894","SideOfStreet":"neither","CountryId":"20633738","CountyId":"20650563","CityId":"20650582"}}},{"Relevance":1.0,"Distance":13.1,"MatchLevel":"street","MatchQuality":{"Country":1.0,"County":1.0,"City":1.0,"Street":[1.0],"PostalCode":1.0},"Location":{"LocationId":"NT_EtNyDFKTpFanHY1TGYRJXC_l_942853590_R","LocationType":"point","DisplayPosition":{"Latitude":58.38746,"Longitude":24.54445},"MapView":{"TopLeft":{"Latitude":58.38746,"Longitude":24.5443},"BottomRight":{"Latitude":58.3873,"Longitude":24.54445}},"Address":{"Label":"Ristiku, Pärnu, 80047 Pärnu Maakond, Eesti","Country":"EST","County":"Pärnu Maakond","City":"Pärnu","Street":"Ristiku","PostalCode":"80047","AdditionalData":[{"value":"Eesti","key":"CountryName"},{"value":"Pärnu Maakond","key":"CountyName"}]},"MapReference":{"ReferenceId":"942853590","Spot":1.0,"SideOfStreet":"right","CountryId":"20633738","CountyId":"20650563","CityId":"20650582"}}},{"Relevance":1.0,"Distance":15.8,"MatchLevel":"street","MatchQuality":{"Country":1.0,"County":1.0,"City":1.0,"Street":[1.0],"PostalCode":1.0},"Location":{"LocationId":"NT_EtNyDFKTpFanHY1TGYRJXC_l_1157662293_R","LocationType":"point","DisplayPosition":{"Latitude":58.3875182,"Longitude":24.5445082},"MapView":{"TopLeft":{"Latitude":58.38759,"Longitude":24.54445},"BottomRight":{"Latitude":58.38746,"Longitude":24.54458}},"Address":{"Label":"Ristiku, Pärnu, 80047 Pärnu Maakond, Eesti","Country":"EST","County":"Pärnu Maakond","City":"Pärnu","Street":"Ristiku","PostalCode":"80047","AdditionalData":[{"value":"Eesti","key":"CountryName"},{"value":"Pärnu Maakond","key":"CountyName"}]},"MapReference":{"ReferenceId":"1157662293","Spot":0.45,"SideOfStreet":"right","CountryId":"20633738","CountyId":"20650563","CityId":"20650582"}}},{"Relevance":1.0,"Distance":18.3,"MatchLevel":"street","MatchQuality":{"Country":1.0,"County":1.0,"City":1.0,"Street":[1.0],"PostalCode":1.0},"Location":{"LocationId":"NT_JVZMhZfX.C23OSAhD4U-xC_l_891707710_R","LocationType":"point","DisplayPosition":{"Latitude":58.387229,"Longitude":24.5445944},"MapView":{"TopLeft":{"Latitude":58.3873,"Longitude":24.5443},"BottomRight":{"Latitude":58.38703,"Longitude":24.54542}},"Address":{"Label":"Oja, Pärnu, 80047 Pärnu Maakond, Eesti","Country":"EST","County":"Pärnu Maakond","City":"Pärnu","Street":"Oja","PostalCode":"80047","AdditionalData":[{"value":"Eesti","key":"CountryName"},{"value":"Pärnu Maakond","key":"CountyName"}]},"MapReference":{"ReferenceId":"891707710","Spot":0.74,"SideOfStreet":"right","CountryId":"20633738","CountyId":"20650563","CityId":"20650582"}}},{"Relevance":1.0,"Distance":22.0,"MatchLevel":"street","MatchQuality":{"Country":1.0,"County":1.0,"City":1.0,"Street":[1.0],"PostalCode":1.0},"Location":{"LocationId":"NT_JVZMhZfX.C23OSAhD4U-xC_l_942859034_R","LocationType":"point","DisplayPosition":{"Latitude":58.3873,"Longitude":24.5443},"MapView":{"TopLeft":{"Latitude":58.38737,"Longitude":24.54401},"BottomRight":{"Latitude":58.3873,"Longitude":24.5443}},"Address":{"Label":"Oja, Pärnu, 80047 Pärnu Maakond, Eesti","Country":"EST","County":"Pärnu Maakond","City":"Pärnu","Street":"Oja","PostalCode":"80047","AdditionalData":[{"value":"Eesti","key":"CountryName"},{"value":"Pärnu Maakond","key":"CountyName"}]},"MapReference":{"ReferenceId":"942859034","Spot":0.0,"SideOfStreet":"right","CountryId":"20633738","CountyId":"20650563","CityId":"20650582"}}},{"Relevance":1.0,"Distance":46.2,"MatchLevel":"street","MatchQuality":{"Country":1.0,"County":1.0,"City":1.0,"PostalCode":1.0},"Location":{"LocationId":"NT_Za7SZuCQoZnvkm7odr4IPC_l_751485014_L","LocationType":"point","DisplayPosition":{"Latitude":58.38761,"Longitude":24.54531},"MapView":{"TopLeft":{"Latitude":58.38796,"Longitude":24.54531},"BottomRight":{"Latitude":58.38728,"Longitude":24.54621}},"Address":{"Label":"Pärnu, 80047 Pärnu Maakond, Eesti","Country":"EST","County":"Pärnu Maakond","City":"Pärnu","PostalCode":"80047","AdditionalData":[{"value":"Eesti","key":"CountryName"},{"value":"Pärnu Maakond","key":"CountyName"}]},"MapReference":{"ReferenceId":"751485014","Spot":0.62,"SideOfStreet":"left","CountryId":"20633738","CountyId":"20650563","CityId":"20650582"}}},{"Relevance":1.0,"Distance":53.4,"MatchLevel":"street","MatchQuality":{"Country":1.0,"County":1.0,"City":1.0,"PostalCode":1.0},"Location":{"LocationId":"NT_Za7SZuCQoZnvkm7odr4IPC_l_1247369472_L","LocationType":"point","DisplayPosition":{"Latitude":58.38774,"Longitude":24.544},"MapView":{"TopLeft":{"Latitude":58.38785,"Longitude":24.54236},"BottomRight":{"Latitude":58.38759,"Longitude":24.544}},"Address":{"Label":"Pärnu, 80047 Pärnu Maakond, Eesti","Country":"EST","County":"Pärnu Maakond","City":"Pärnu","PostalCode":"80047","AdditionalData":[{"value":"Eesti","key":"CountryName"},{"value":"Pärnu Maakond","key":"CountyName"}]},"MapReference":{"ReferenceId":"1247369472","Spot":0.0,"SideOfStreet":"left","CountryId":"20633738","CountyId":"20650563","CityId":"20650582"}}},{"Relevance":1.0,"Distance":61.0,"MatchLevel":"street","MatchQuality":{"Country":1.0,"County":1.0,"City":1.0,"Street":[1.0],"PostalCode":1.0},"Location":{"LocationId":"NT_JVZMhZfX.C23OSAhD4U-xC_l_891707712_R","LocationType":"point","DisplayPosition":{"Latitude":58.38703,"Longitude":24.54542},"MapView":{"TopLeft":{"Latitude":58.38703,"Longitude":24.54542},"BottomRight":{"Latitude":58.38677,"Longitude":24.54661}},"Address":{"Label":"Oja, Pärnu, 80047 Pärnu Maakond, Eesti","Country":"EST","County":"Pärnu Maakond","City":"Pärnu","Street":"Oja","PostalCode":"80047","AdditionalData":[{"value":"Eesti","key":"CountryName"},{"value":"Pärnu Maakond","key":"CountyName"}]},"MapReference":{"ReferenceId":"891707712","Spot":1.0,"SideOfStreet":"right","CountryId":"20633738","CountyId":"20650563","CityId":"20650582"}}},{"Relevance":1.0,"Distance":61.4,"MatchLevel":"houseNumber","MatchQuality":{"Country":1.0,"County":1.0,"City":1.0,"Street":[1.0],"HouseNumber":1.0,"PostalCode":1.0},"MatchType":"interpolated","Location":{"LocationId":"NT_JVZMhZfX.C23OSAhD4U-xC_xMDO","LocationType":"point","DisplayPosition":{"Latitude":58.38747,"Longitude":24.54359},"MapView":{"TopLeft":{"Latitude":58.3885942,"Longitude":24.5414454},"BottomRight":{"Latitude":58.3863458,"Longitude":24.5457346}},"Address":{"Label":"Oja 138, Pärnu, 80047 Pärnu Maakond, Eesti","Country":"EST","County":"Pärnu Maakond","City":"Pärnu","Street":"Oja","HouseNumber":"138","PostalCode":"80047","AdditionalData":[{"value":"Eesti","key":"CountryName"},{"value":"Pärnu Maakond","key":"CountyName"}]},"MapReference":{"ReferenceId":"1157177829","Spot":1.0,"SideOfStreet":"right","CountryId":"20633738","CountyId":"20650563","CityId":"20650582","AddressId":"244381762","RoadLinkId":"463503616"}}}]}]}}