{"Response":{"MetaInfo":{"Timestamp":"2020-03-28T10:13:40.348+0000","NextPageInformation":"2"},"View":[{"_type":"SearchResultsViewType","ViewId":0,"Result":[{"Relevance":1.0,"Distance":0.0,"Direction":0.0,"MatchLevel":"city","MatchQuality":{"Country":1.0,"State":1.0,"County":1.0,"City":1.0,"PostalCode":1.0},"Location":{"LocationId":"NT_cV3Vy9pZC9qOvaPmI40m0B","LocationType":"point","DisplayPosition":{"Latitude":58.695133,"Longitude":13.8034767},"MapView":{"TopLeft":{"Latitude":58.73268,"Longitude":13.77835},"BottomRight":{"Latitude":58.6751,"Longitude":13.87866}},"Address":{"Label":"Mariestad, Västra Götalands län, Sverige","Country":"SWE","State":"Västra Götalands län","County":"Mariestad","City":"Mariestad","PostalCode":"542 30","AdditionalData":[{"value":"Sverige","key":"CountryName"},{"value":"Västra Götalands län","key":"StateName"},{"value":"Mariestad","key":"CountyName"}]},"MapReference":{"ReferenceId":"811411120","SideOfStreet":"neither","CountryId":"20298368","StateId":"20298620","CountyId":"20299109","CityId":"20299113"}}},{"Relevance":1.0,"Distance":20.3,"MatchLevel":"houseNumber","MatchQuality":{"Country":1.0,"State":1.0,"County":1.0,"City":1.0,"Street":[1.0],"HouseNumber":1.0,"PostalCode":1.0},"MatchType":"interpolated","Location":{"LocationId":"NT_y7XXcRiqugTJ2m8CnWI5hD_0A","LocationType":"point","DisplayPosition":{"Latitude":58.69509,"Longitude":13.80388},"MapView":{"TopLeft":{"Latitude":58.6962142,"Longitude":13.8017165},"BottomRight":{"Latitude":58.6939658,"Longitude":13.8060435}},"Address":{"Label":"Bråtenvägen 4, SE-542 42 Mariestad, Sverige","Country":"SWE","State":"Västra Götalands län","County":"Mariestad","City":"Mariestad","Street":"Bråtenvägen","HouseNumber":"4","PostalCode":"542 42","AdditionalData":[{"value":"Sverige","key":"CountryName"},{"value":"Västra Götalands län","key":"StateName"},{"value":"Mariestad","key":"CountyName"}]},"MapReference":{"ReferenceId":"80542146","Spot":0.62,"SideOfStreet":"left","CountryId":"20298368","StateId":"20298620","CountyId":"20299109","CityId":"20299113","AddressId":"218114056","RoadLinkId":"98594896"}}},{"Relevance":1.0,"Distance":46.1,"MatchLevel":"street","MatchQuality":{"Country":1.0,"State":1.0,"County":1.0,"City":1.0,"Street":[1.0],"PostalCode":1.0},"Location":{"LocationId":"NT_y7XXcRiqugTJ2m8CnWI5hD_l_80543711_L","LocationType":"point","DisplayPosition":{"Latitude":58.6948,"Longitude":13.803},"MapView":{"TopLeft":{"Latitude":58.6948,"Longitude":13.80206},"BottomRight":{"Latitude":58.69453,"Longitude":13.803}},"Address":{"Label":"Bråtenvägen, SE-542 42 Mariestad, Sverige","Country":"SWE","State":"Västra Götalands län","County":"Mariestad","City":"Mariestad","Street":"Bråtenvägen","PostalCode":"542 42","AdditionalData":[{"value":"Sverige","key":"CountryName"},{"value":"Västra Götalands län","key":"StateName"},{"value":"Mariestad","key":"CountyName"}]},"MapReference":{"ReferenceId":"80543711","Spot":1.0,"SideOfStreet":"left","CountryId":"20298368","StateId":"20298620","CountyId":"20299109","CityId":"20299113"}}},{"Relevance":1.0,"Distance":55.7,"MatchLevel":"street","MatchQuality":{"Country":1.0,"State":1.0,"County":1.0,"City":1.0,"Street":[1.0],"PostalCode":1.0},"Location":{"LocationId":"NT_y7XXcRiqugTJ2m8CnWI5hD_l_30541429_L","LocationType":"point","DisplayPosition":{"Latitude":58.69526,"Longitude":13.80441},"MapView":{"TopLeft":{"Latitude":58.69577,"Longitude":13.80441},"BottomRight":{"Latitude":58.69526,"Longitude":13.80575}},"Address":{"Label":"Bråtenvägen, SE-542 42 Mariestad, Sverige","Country":"SWE","State":"Västra Götalands län","County":"Mariestad","City":"Mariestad","Street":"Bråtenvägen","PostalCode":"542 42","AdditionalData":[{"value":"Sverige","key":"CountryName"},{"value":"Västra Götalands län","key":"StateName"},{"value":"Mariestad","key":"CountyName"}]},"MapReference":{"ReferenceId":"30541429","Spot":0.0,"SideOfStreet":"left","CountryId":"20298368","StateId":"20298620","CountyId":"20299109","CityId":"20299113"}}},{"Relevance":1.0,"Distance":61.5,"MatchLevel":"houseNumber","MatchQuality":{"Country":1.0,"State":1.0,"County":1.0,"City":1.0,"Street":[1.0],"HouseNumber":1.0,"PostalCode":1.0},"MatchType":"interpolated","Location":{"LocationId":"NT_y7XXcRiqugTJ2m8CnWI5hD_yA","LocationType":"point","DisplayPosition":{"Latitude":58.69562,"Longitude":13.80398},"MapView":{"TopLeft":{"Latitude":58.6967442,"Longitude":13.8018164},"BottomRight":{"Latitude":58.6944958,"Longitude":13.8061436}},"Address":{"Label":"Bråtenvägen 2, SE-542 42 Mariestad, Sverige","Country":"SWE","State":"Västra Götalands län","County":"Mariestad","City":"Mariestad","Street":"Bråtenvägen","HouseNumber":"2","PostalCode":"542 42","AdditionalData":[{"value":"Sverige","key":"CountryName"},{"value":"Västra Götalands län","key":"StateName"},{"value":"Mariestad","key":"CountyName"}]},"MapReference":{"ReferenceId":"30541430","Spot":0.54,"SideOfStreet":"right","CountryId":"20298368","StateId":"20298620","CountyId":"20299109","CityId":"20299113","AddressId":"218136613","RoadLinkId":"98627107"}}},{"Relevance":1.0,"Distance":98.0,"MatchLevel":"houseNumber","MatchQuality":{"Country":1.0,"State":1.0,"County":1.0,"City":1.0,"Street":[1.0],"HouseNumber":1.0,"PostalCode":1.0},"MatchType":"interpolated","Location":{"LocationId":"NT_K1dZFk1EfED0sUL1mEaaVD_l_80543714_L_3A","LocationType":"point","DisplayPosition":{"Latitude":58.6954134,"Longitude":13.8018687},"MapView":{"TopLeft":{"Latitude":58.6965376,"Longitude":13.7997052},"BottomRight":{"Latitude":58.6942893,"Longitude":13.8040322}},"Address":{"Label":"Valnötsstigen 7, SE-542 42 Mariestad, Sverige","Country":"SWE","State":"Västra Götalands län","County":"Mariestad","City":"Mariestad","Street":"Valnötsstigen","HouseNumber":"7","PostalCode":"542 42","AdditionalData":[{"value":"Sverige","key":"CountryName"},{"value":"Västra Götalands län","key":"StateName"},{"value":"Mariestad","key":"CountyName"}]},"MapReference":{"ReferenceId":"80543714","Spot":0.69,"SideOfStreet":"left","CountryId":"20298368","StateId":"20298620","CountyId":"20299109","CityId":"20299113"}}},{"Relevance":1.0,"Distance":105.8,"MatchLevel":"street","MatchQuality":{"Country":1.0,"State":1.0,"County":1.0,"City":1.0,"Street":[1.0],"PostalCode":1.0},"Location":{"LocationId":"NT_y7XXcRiqugTJ2m8CnWI5hD_l_80543710_L","LocationType":"point","DisplayPosition":{"Latitude":58.69453,"Longitude":13.80206},"MapView":{"TopLeft":{"Latitude":58.69453,"Longitude":13.80144},"BottomRight":{"Latitude":58.69438,"Longitude":13.80206}},"Address":{"Label":"Bråtenvägen, SE-542 42 Mariestad, Sverige","Country":"SWE","State":"Västra Götalands län","County":"Mariestad","City":"Mariestad","Street":"Bråtenvägen","PostalCode":"542 42","AdditionalData":[{"value":"Sverige","key":"CountryName"},{"value":"Västra Götalands län","key":"StateName"},{"value":"Mariestad","key":"CountyName"}]},"MapReference":{"ReferenceId":"80543710","Spot":1.0,"SideOfStreet":"left","CountryId":"20298368","StateId":"20298620","CountyId":"20299109","CityId":"20299113"}}},{"Relevance":1.0,"Distance":105.8,"MatchLevel":"street","MatchQuality":{"Country":1.0,"State":1.0,"County":1.0,"City":1.0,"PostalCode":1.0},"Location":{"LocationId":"NT_DQjhzPpUNHcj47Na8FE6KC_l_80543712_R","LocationType":"point","DisplayPosition":{"Latitude":58.69453,"Longitude":13.80206},"MapView":{"TopLeft":{"Latitude":58.6947,"Longitude":13.80141},"BottomRight":{"Latitude":58.69453,"Longitude":13.80206}},"Address":{"Label":"SE-542 42 Mariestad, Sverige","Country":"SWE","State":"Västra Götalands län","County":"Mariestad","City":"Mariestad","PostalCode":"542 42","AdditionalData":[{"value":"Sverige","key":"CountryName"},{"value":"Västra Götalands län","key":"StateName"},{"value":"Mariestad","key":"CountyName"}]},"MapReference":{"ReferenceId":"80543712","Spot":0.0,"SideOfStreet":"right","CountryId":"20298368","StateId":"20298620","CountyId":"20299109","CityId":"20299113"}}},{"Relevance":1.0,"Distance":117.1,"MatchLevel":"houseNumber","MatchQuality":{"Country":1.0,"State":1.0,"County":1.0,"City":1.0,"Street":[1.0],"HouseNumber":1.0,"PostalCode":1.0},"MatchType":"interpolated","Location":{"LocationId":"NT_RQ5UfxbhqAOzQObyNP0j2B_4A","LocationType":"point","DisplayPosition":{"Latitude":58.69402,"Longitude":13.80296},"MapView":{"TopLeft":{"Latitude":58.6951442,"Longitude":13.8007965},"BottomRight":{"Latitude":58.6928958,"Longitude":13.8051235}},"Address":{"Label":"Symfonivägen 8, SE-542 41 Mariestad, Sverige","Country":"SWE","State":"Västra Götalands län","County":"Mariestad","City":"Mariestad","Street":"Symfonivägen","HouseNumber":"8","PostalCode":"542 41","AdditionalData":[{"value":"Sverige","key":"CountryName"},{"value":"Västra Götalands län","key":"StateName"},{"value":"Mariestad","key":"CountyName"}]},"MapReference":{"ReferenceId":"30541611","Spot":0.9,"SideOfStreet":"right","CountryId":"20298368","StateId":"20298620","CountyId":"20299109","CityId":"20299113","AddressId":"218135818","RoadLinkId":"98786490"}}},{"Relevance":1.0,"Distance":119.9,"MatchLevel":"houseNumber","MatchQuality":{"Country":1.0,"State":1.0,"County":1.0,"City":1.0,"Street":[1.0],"HouseNumber":1.0,"PostalCode":1.0},"MatchType":"interpolated","Location":{"LocationId":"NT_BbswX1jrcpqnTdvHKCeJJD_3A","LocationType":"point","DisplayPosition":{"Latitude":58.69417,"Longitude":13.80455},"MapView":{"TopLeft":{"Latitude":58.6952942,"Longitude":13.8023865},"BottomRight":{"Latitude":58.6930458,"Longitude":13.8067135}},"Address":{"Label":"Basunvägen 7, SE-542 41 Mariestad, Sverige","Country":"SWE","State":"Västra Götalands län","County":"Mariestad","City":"Mariestad","Street":"Basunvägen","HouseNumber":"7","PostalCode":"542 41","AdditionalData":[{"value":"Sverige","key":"CountryName"},{"value":"Västra Götalands län","key":"StateName"},{"value":"Mariestad","key":"CountyName"}]},"MapReference":{"ReferenceId":"30541592","Spot":0.88,"SideOfStreet":"left","CountryId":"20298368","StateId":"20298620","CountyId":"20299109","CityId":"20299113","AddressId":"218135806","RoadLinkId":"98590266"}}}]}]}}