{"Response":{"MetaInfo":{"Timestamp":"2020-03-28T11:36:12.206+0000","NextPageInformation":"2"},"View":[{"_type":"SearchResultsViewType","ViewId":0,"Result":[{"Relevance":1.0,"Distance":0.0,"Direction":0.0,"MatchLevel":"city","MatchQuality":{"Country":1.0,"State":1.0,"County":1.0,"City":1.0,"PostalCode":1.0},"Location":{"LocationId":"NT_xQyPp.5sh-fSsLYpyT8AWA","LocationType":"point","DisplayPosition":{"Latitude":58.7995545,"Longitude":12.159657},"MapView":{"TopLeft":{"Latitude":58.81167,"Longitude":12.14675},"BottomRight":{"Latitude":58.79582,"Longitude":12.18415}},"Address":{"Label":"Bäckefors, Västra Götalands län, Sverige","Country":"SWE","State":"Västra Götalands län","County":"Bengtsfors","City":"Bäckefors","PostalCode":"668 40","AdditionalData":[{"value":"Sverige","key":"CountryName"},{"value":"Västra Götalands län","key":"StateName"},{"value":"Bengtsfors","key":"CountyName"}]},"MapReference":{"ReferenceId":"30618803","SideOfStreet":"neither","CountryId":"20298368","StateId":"20298620","CountyId":"20366153","CityId":"20366807"}}},{"Relevance":1.0,"Distance":37.9,"MatchLevel":"houseNumber","MatchQuality":{"Country":1.0,"State":1.0,"County":1.0,"City":1.0,"Street":[1.0],"HouseNumber":1.0,"PostalCode":1.0},"MatchType":"interpolated","Location":{"LocationId":"NT_2KC7PA3wZtRNkTPScS-O.B_xA","LocationType":"point","DisplayPosition":{"Latitude":58.79963,"Longitude":12.15914},"MapView":{"TopLeft":{"Latitude":58.8007542,"Longitude":12.15697},"BottomRight":{"Latitude":58.7985058,"Longitude":12.16131}},"Address":{"Label":"Ringvägen 1, SE-668 40 Bäckefors, Sverige","Country":"SWE","State":"Västra Götalands län","County":"Bengtsfors","City":"Bäckefors","Street":"Ringvägen","HouseNumber":"1","PostalCode":"668 40","AdditionalData":[{"value":"Sverige","key":"CountryName"},{"value":"Västra Götalands län","key":"StateName"},{"value":"Bengtsfors","key":"CountyName"}]},"MapReference":{"ReferenceId":"30619086","Spot":0.63,"SideOfStreet":"right","CountryId":"20298368","StateId":"20298620","CountyId":"20366153","CityId":"20366807","AddressId":"217910375","RoadLinkId":"99001736"}}},{"Relevance":1.0,"Distance":104.0,"MatchLevel":"street","MatchQuality":{"Country":1.0,"State":1.0,"County":1.0,"City":1.0,"Street":[1.0],"PostalCode":1.0},"Location":{"LocationId":"NT_2KC7PA3wZtRNkTPScS-O.B_l_30619020_R","LocationType":"point","DisplayPosition":{"Latitude":58.79999,"Longitude":12.15806},"MapView":{"TopLeft":{"Latitude":58.8012,"Longitude":12.15806},"BottomRight":{"Latitude":58.79999,"Longitude":12.15871}},"Address":{"Label":"Ringvägen, SE-668 40 Bäckefors, Sverige","Country":"SWE","State":"Västra Götalands län","County":"Bengtsfors","City":"Bäckefors","Street":"Ringvägen","PostalCode":"668 40","AdditionalData":[{"value":"Sverige","key":"CountryName"},{"value":"Västra Götalands län","key":"StateName"},{"value":"Bengtsfors","key":"CountyName"}]},"MapReference":{"ReferenceId":"30619020","Spot":0.0,"SideOfStreet":"right","CountryId":"20298368","StateId":"20298620","CountyId":"20366153","CityId":"20366807"}}},{"Relevance":1.0,"Distance":137.7,"MatchLevel":"street","MatchQuality":{"Country":1.0,"State":1.0,"County":1.0,"City":1.0,"Street":[1.0],"PostalCode":1.0},"Location":{"LocationId":"NT_yscvpe5xEw2uhMXgHGWsPD_l_704661088_L","LocationType":"point","DisplayPosition":{"Latitude":58.80077,"Longitude":12.16011},"MapView":{"TopLeft":{"Latitude":58.80077,"Longitude":12.16011},"BottomRight":{"Latitude":58.79848,"Longitude":12.16446}},"Address":{"Label":"166, SE-668 94 Bäckefors, Sverige","Country":"SWE","State":"Västra Götalands län","County":"Bengtsfors","City":"Bäckefors","Street":"166","PostalCode":"668 94","AdditionalData":[{"value":"Sverige","key":"CountryName"},{"value":"Västra Götalands län","key":"StateName"},{"value":"Bengtsfors","key":"CountyName"}]},"MapReference":{"ReferenceId":"704661088","Spot":1.0,"SideOfStreet":"left","CountryId":"20298368","StateId":"20298620","CountyId":"20366153","CityId":"20366807"}}},{"Relevance":1.0,"Distance":139.4,"MatchLevel":"street","MatchQuality":{"Country":1.0,"State":1.0,"County":1.0,"City":1.0,"Street":[1.0],"PostalCode":1.0},"Location":{"LocationId":"NT_yscvpe5xEw2uhMXgHGWsPD_l_30618998_L","LocationType":"point","DisplayPosition":{"Latitude":58.800793,"Longitude":12.1600345},"MapView":{"TopLeft":{"Latitude":58.80109,"Longitude":12.15906},"BottomRight":{"Latitude":58.80077,"Longitude":12.16011}},"Address":{"Label":"166, SE-668 94 Bäckefors, Sverige","Country":"SWE","State":"Västra Götalands län","County":"Bengtsfors","City":"Bäckefors","Street":"166","PostalCode":"668 94","AdditionalData":[{"value":"Sverige","key":"CountryName"},{"value":"Västra Götalands län","key":"StateName"},{"value":"Bengtsfors","key":"CountyName"}]},"MapReference":{"ReferenceId":"30618998","Spot":0.07,"SideOfStreet":"left","CountryId":"20298368","StateId":"20298620","CountyId":"20366153","CityId":"20366807"}}},{"Relevance":1.0,"Distance":156.1,"MatchLevel":"houseNumber","MatchQuality":{"Country":1.0,"State":1.0,"County":1.0,"City":1.0,"Street":[1.0],"PostalCode":1.0},"MatchType":"interpolated","Location":{"LocationId":"NT_fQsxgk-iyO3ODD2WQAD4MD","LocationType":"point","DisplayPosition":{"Latitude":58.79819,"Longitude":12.16179},"MapView":{"TopLeft":{"Latitude":58.7993142,"Longitude":12.15962},"BottomRight":{"Latitude":58.7970658,"Longitude":12.16396}},"Address":{"Label":"Dalslands sjukhus, SE-668 94 Bäckefors, Sverige","Country":"SWE","State":"Västra Götalands län","County":"Bengtsfors","City":"Bäckefors","Street":"Dalslands sjukhus","PostalCode":"668 94","AdditionalData":[{"value":"Sverige","key":"CountryName"},{"value":"Västra Götalands län","key":"StateName"},{"value":"Bengtsfors","key":"CountyName"}],"Building":"Dalslands sjukhus"},"MapReference":{"ReferenceId":"1084501923","Spot":0.78,"SideOfStreet":"right","CountryId":"20298368","StateId":"20298620","CountyId":"20366153","CityId":"20366807","AddressId":"217978166","RoadLinkId":"400860388"}}},{"Relevance":1.0,"Distance":157.8,"MatchLevel":"houseNumber","MatchQuality":{"Country":1.0,"State":1.0,"County":1.0,"City":1.0,"Street":[1.0],"HouseNumber":1.0,"PostalCode":1.0},"MatchType":"interpolated","Location":{"LocationId":"NT_1iy4N71900XKmVC2a-n5hB_zA","LocationType":"point","DisplayPosition":{"Latitude":58.79846,"Longitude":12.15746},"MapView":{"TopLeft":{"Latitude":58.7995842,"Longitude":12.15529},"BottomRight":{"Latitude":58.7973358,"Longitude":12.15963}},"Address":{"Label":"Vättungens säteri 3, SE-668 94 Bäckefors, Sverige","Country":"SWE","State":"Västra Götalands län","County":"Bengtsfors","City":"Bäckefors","Street":"Vättungens säteri","HouseNumber":"3","PostalCode":"668 94","AdditionalData":[{"value":"Sverige","key":"CountryName"},{"value":"Västra Götalands län","key":"StateName"},{"value":"Bengtsfors","key":"CountyName"}]},"MapReference":{"ReferenceId":"30619089","Spot":0.23,"SideOfStreet":"right","CountryId":"20298368","StateId":"20298620","CountyId":"20366153","CityId":"20366807","AddressId":"217910372","RoadLinkId":"152806931"}}},{"Relevance":1.0,"Distance":174.2,"MatchLevel":"street","MatchQuality":{"Country":1.0,"State":1.0,"County":1.0,"City":1.0,"Street":[1.0],"PostalCode":1.0},"Location":{"LocationId":"NT_6QSA8ffLbkyIzBCrU0UWhB_l_30618983_L","LocationType":"point","DisplayPosition":{"Latitude":58.80109,"Longitude":12.15906},"MapView":{"TopLeft":{"Latitude":58.8012,"Longitude":12.15871},"BottomRight":{"Latitude":58.80109,"Longitude":12.15906}},"Address":{"Label":"166, SE-668 40 Bäckefors, Sverige","Country":"SWE","State":"Västra Götalands län","County":"Bengtsfors","City":"Bäckefors","Street":"166","PostalCode":"668 40","AdditionalData":[{"value":"Sverige","key":"CountryName"},{"value":"Västra Götalands län","key":"StateName"},{"value":"Bengtsfors","key":"CountyName"}]},"MapReference":{"ReferenceId":"30618983","Spot":0.0,"SideOfStreet":"left","CountryId":"20298368","StateId":"20298620","CountyId":"20366153","CityId":"20366807"}}},{"Relevance":1.0,"Distance":177.4,"MatchLevel":"street","MatchQuality":{"Country":1.0,"State":1.0,"County":1.0,"City":1.0,"Street":[1.0],"PostalCode":1.0},"Location":{"LocationId":"NT_1iy4N71900XKmVC2a-n5hB_l_30619097_L","LocationType":"point","DisplayPosition":{"Latitude":58.79823,"Longitude":12.15794},"MapView":{"TopLeft":{"Latitude":58.79823,"Longitude":12.15687},"BottomRight":{"Latitude":58.79803,"Longitude":12.15794}},"Address":{"Label":"Vättungens säteri, SE-668 94 Bäckefors, Sverige","Country":"SWE","State":"Västra Götalands län","County":"Bengtsfors","City":"Bäckefors","Street":"Vättungens säteri","PostalCode":"668 94","AdditionalData":[{"value":"Sverige","key":"CountryName"},{"value":"Västra Götalands län","key":"StateName"},{"value":"Bengtsfors","key":"CountyName"}]},"MapReference":{"ReferenceId":"30619097","Spot":1.0,"SideOfStreet":"left","CountryId":"20298368","StateId":"20298620","CountyId":"20366153","CityId":"20366807"}}},{"Relevance":1.0,"Distance":177.9,"MatchLevel":"houseNumber","MatchQuality":{"Country":1.0,"State":1.0,"County":1.0,"City":1.0,"Street":[1.0],"PostalCode":1.0},"MatchType":"interpolated","Location":{"LocationId":"NT_EBzSC92zLpNQlJ5Xvxg1SB","LocationType":"point","DisplayPosition":{"Latitude":58.79934,"Longitude":12.16295},"MapView":{"TopLeft":{"Latitude":58.8004642,"Longitude":12.16078},"BottomRight":{"Latitude":58.7982158,"Longitude":12.16512}},"Address":{"Label":"Vättungen Portvaktstugan, SE-668 94 Bäckefors, Sverige","Country":"SWE","State":"Västra Götalands län","County":"Bengtsfors","City":"Bäckefors","Street":"Vättungen Portvaktstugan","PostalCode":"668 94","AdditionalData":[{"value":"Sverige","key":"CountryName"},{"value":"Västra Götalands län","key":"StateName"},{"value":"Bengtsfors","key":"CountyName"}],"Building":"Vättungen Portvaktstugan"},"MapReference":{"ReferenceId":"1084501921","Spot":0.14,"SideOfStreet":"left","CountryId":"20298368","StateId":"20298620","CountyId":"20366153","CityId":"20366807","AddressId":"217910402","RoadLinkId":"400860386"}}}]}]}}