{"Response":{"MetaInfo":{"Timestamp":"2020-03-28T11:29:07.233+0000","NextPageInformation":"2"},"View":[{"_type":"SearchResultsViewType","ViewId":0,"Result":[{"Relevance":1.0,"Distance":0.0,"Direction":0.0,"MatchLevel":"city","MatchQuality":{"Country":1.0,"State":1.0,"County":1.0,"City":1.0,"PostalCode":1.0},"Location":{"LocationId":"NT_2FVuIUzgoS8GaHr8UDNUyC","LocationType":"point","DisplayPosition":{"Latitude":58.7716266,"Longitude":5.6285443},"MapView":{"TopLeft":{"Latitude":58.78369,"Longitude":5.61865},"BottomRight":{"Latitude":58.76665,"Longitude":5.64687}},"Address":{"Label":"Kleppe, Rogaland, Norge","Country":"NOR","State":"Rogaland","County":"Klepp","City":"Kleppe","PostalCode":"4352","AdditionalData":[{"value":"Norge","key":"CountryName"},{"value":"Rogaland","key":"StateName"},{"value":"Klepp","key":"CountyName"}]},"MapReference":{"ReferenceId":"941381786","SideOfStreet":"neither","CountryId":"20418433","StateId":"20461356","CountyId":"20461445","CityId":"20466542"}}},{"Relevance":1.0,"Distance":30.3,"MatchLevel":"houseNumber","MatchQuality":{"Country":1.0,"State":1.0,"County":1.0,"City":1.0,"Street":[1.0],"HouseNumber":1.0,"PostalCode":1.0},"MatchType":"interpolated","Location":{"LocationId":"NT_nVLvgzV-o5hERUCGzrjovC_xID","LocationType":"point","DisplayPosition":{"Latitude":58.77152,"Longitude":5.62912},"MapView":{"TopLeft":{"Latitude":58.7726442,"Longitude":5.6269517},"BottomRight":{"Latitude":58.7703958,"Longitude":5.6312883}},"Address":{"Label":"Trelastvegen 12, 4352 Kleppe, Norge","Country":"NOR","State":"Rogaland","County":"Klepp","City":"Kleppe","Street":"Trelastvegen","HouseNumber":"12","PostalCode":"4352","AdditionalData":[{"value":"Norge","key":"CountryName"},{"value":"Rogaland","key":"StateName"},{"value":"Klepp","key":"CountyName"}]},"MapReference":{"ReferenceId":"1205299334","Spot":0.0,"SideOfStreet":"right","CountryId":"20418433","StateId":"20461356","CountyId":"20461445","CityId":"20466542","AddressId":"745789486","RoadLinkId":"518895073"}}},{"Relevance":1.0,"Distance":47.2,"MatchLevel":"houseNumber","MatchQuality":{"Country":1.0,"State":1.0,"County":1.0,"City":1.0,"Street":[1.0],"HouseNumber":1.0,"PostalCode":1.0},"MatchType":"interpolated","Location":{"LocationId":"NT_Vgip8hbqCZx4pp-ffdsRLC_0A","LocationType":"point","DisplayPosition":{"Latitude":58.77115,"Longitude":5.62786},"MapView":{"TopLeft":{"Latitude":58.7722742,"Longitude":5.6256917},"BottomRight":{"Latitude":58.7700258,"Longitude":5.6300283}},"Address":{"Label":"Solvangvegen 4, 4352 Kleppe, Norge","Country":"NOR","State":"Rogaland","County":"Klepp","City":"Kleppe","Street":"Solvangvegen","HouseNumber":"4","PostalCode":"4352","AdditionalData":[{"value":"Norge","key":"CountryName"},{"value":"Rogaland","key":"StateName"},{"value":"Klepp","key":"CountyName"}]},"MapReference":{"ReferenceId":"571339351","Spot":0.07,"SideOfStreet":"right","CountryId":"20418433","StateId":"20461356","CountyId":"20461445","CityId":"20466542","AddressId":"304525401","RoadLinkId":"100961029"}}},{"Relevance":1.0,"Distance":52.1,"MatchLevel":"houseNumber","MatchQuality":{"Country":1.0,"State":1.0,"County":1.0,"City":1.0,"Street":[1.0],"HouseNumber":1.0,"PostalCode":1.0},"MatchType":"interpolated","Location":{"LocationId":"NT_tyu-TmaQAw1SIGDfoHpS6A_xAD","LocationType":"point","DisplayPosition":{"Latitude":58.77207,"Longitude":5.62825},"MapView":{"TopLeft":{"Latitude":58.7731942,"Longitude":5.6260817},"BottomRight":{"Latitude":58.7709458,"Longitude":5.6304183}},"Address":{"Label":"Prestevegen 10, 4352 Kleppe, Norge","Country":"NOR","State":"Rogaland","County":"Klepp","City":"Kleppe","Street":"Prestevegen","HouseNumber":"10","PostalCode":"4352","AdditionalData":[{"value":"Norge","key":"CountryName"},{"value":"Rogaland","key":"StateName"},{"value":"Klepp","key":"CountyName"}]},"MapReference":{"ReferenceId":"571339275","Spot":0.51,"SideOfStreet":"right","CountryId":"20418433","StateId":"20461356","CountyId":"20461445","CityId":"20466542","AddressId":"303831524","RoadLinkId":"101074259"}}},{"Relevance":1.0,"Distance":73.0,"MatchLevel":"houseNumber","MatchQuality":{"Country":1.0,"State":1.0,"County":1.0,"City":1.0,"Street":[1.0],"HouseNumber":1.0,"PostalCode":1.0},"MatchType":"interpolated","Location":{"LocationId":"NT_x-8U-1k7AlRNNzzQLb1RHB_zA","LocationType":"point","DisplayPosition":{"Latitude":58.77087,"Longitude":5.6291},"MapView":{"TopLeft":{"Latitude":58.7719942,"Longitude":5.6269318},"BottomRight":{"Latitude":58.7697458,"Longitude":5.6312682}},"Address":{"Label":"Thore Ellingsens veg 3, 4352 Kleppe, Norge","Country":"NOR","State":"Rogaland","County":"Klepp","City":"Kleppe","Street":"Thore Ellingsens veg","HouseNumber":"3","PostalCode":"4352","AdditionalData":[{"value":"Norge","key":"CountryName"},{"value":"Rogaland","key":"StateName"},{"value":"Klepp","key":"CountyName"}]},"MapReference":{"ReferenceId":"571339386","Spot":0.92,"SideOfStreet":"right","CountryId":"20418433","StateId":"20461356","CountyId":"20461445","CityId":"20466542","AddressId":"303815170","RoadLinkId":"100730114"}}},{"Relevance":1.0,"Distance":75.2,"MatchLevel":"houseNumber","MatchQuality":{"Country":1.0,"State":1.0,"County":1.0,"City":1.0,"Street":[1.0],"HouseNumber":1.0,"PostalCode":1.0},"MatchType":"interpolated","Location":{"LocationId":"NT_cKdAmzsbcBIwU8o6T25zpC_l_1205299333_L_1EDN","LocationType":"point","DisplayPosition":{"Latitude":58.771675,"Longitude":5.62998},"MapView":{"TopLeft":{"Latitude":58.7727992,"Longitude":5.6278117},"BottomRight":{"Latitude":58.7705509,"Longitude":5.6321483}},"Address":{"Label":"Jærvegen 514, 4352 Kleppe, Norge","Country":"NOR","State":"Rogaland","County":"Klepp","City":"Kleppe","Street":"Jærvegen","HouseNumber":"514","PostalCode":"4352","AdditionalData":[{"value":"Norge","key":"CountryName"},{"value":"Rogaland","key":"StateName"},{"value":"Klepp","key":"CountyName"}]},"MapReference":{"ReferenceId":"1205299333","Spot":0.5,"SideOfStreet":"left","CountryId":"20418433","StateId":"20461356","CountyId":"20461445","CityId":"20466542"}}},{"Relevance":1.0,"Distance":75.8,"MatchLevel":"houseNumber","MatchQuality":{"Country":1.0,"State":1.0,"County":1.0,"City":1.0,"Street":[1.0],"HouseNumber":1.0,"PostalCode":1.0},"MatchType":"interpolated","Location":{"LocationId":"NT_x-8U-1k7AlRNNzzQLb1RHB_yIE","LocationType":"point","DisplayPosition":{"Latitude":58.77097,"Longitude":5.62819},"MapView":{"TopLeft":{"Latitude":58.7720942,"Longitude":5.6260217},"BottomRight":{"Latitude":58.7698458,"Longitude":5.6303583}},"Address":{"Label":"Thore Ellingsens veg 2B, 4352 Kleppe, Norge","Country":"NOR","State":"Rogaland","County":"Klepp","City":"Kleppe","Street":"Thore Ellingsens veg","HouseNumber":"2B","PostalCode":"4352","AdditionalData":[{"value":"Norge","key":"CountryName"},{"value":"Rogaland","key":"StateName"},{"value":"Klepp","key":"CountyName"}]},"MapReference":{"ReferenceId":"571339366","Spot":0.75,"SideOfStreet":"left","CountryId":"20418433","StateId":"20461356","CountyId":"20461445","CityId":"20466542","AddressId":"304523395","RoadLinkId":"100935924"}}},{"Relevance":1.0,"Distance":80.9,"MatchLevel":"houseNumber","MatchQuality":{"Country":1.0,"State":1.0,"County":1.0,"City":1.0,"Street":[1.0],"HouseNumber":1.0,"PostalCode":1.0},"MatchType":"interpolated","Location":{"LocationId":"NT_tyu-TmaQAw1SIGDfoHpS6A_4A","LocationType":"point","DisplayPosition":{"Latitude":58.77247,"Longitude":5.6287},"MapView":{"TopLeft":{"Latitude":58.7735942,"Longitude":5.6265317},"BottomRight":{"Latitude":58.7713458,"Longitude":5.6308683}},"Address":{"Label":"Prestevegen 8, 4352 Kleppe, Norge","Country":"NOR","State":"Rogaland","County":"Klepp","City":"Kleppe","Street":"Prestevegen","HouseNumber":"8","PostalCode":"4352","AdditionalData":[{"value":"Norge","key":"CountryName"},{"value":"Rogaland","key":"StateName"},{"value":"Klepp","key":"CountyName"}]},"MapReference":{"ReferenceId":"571339196","Spot":0.84,"SideOfStreet":"right","CountryId":"20418433","StateId":"20461356","CountyId":"20461445","CityId":"20466542","AddressId":"383428812","RoadLinkId":"101487277"}}},{"Relevance":1.0,"Distance":81.5,"MatchLevel":"houseNumber","MatchQuality":{"Country":1.0,"State":1.0,"County":1.0,"City":1.0,"Street":[1.0],"HouseNumber":1.0,"PostalCode":1.0},"MatchType":"interpolated","Location":{"LocationId":"NT_x-8U-1k7AlRNNzzQLb1RHB_3A","LocationType":"point","DisplayPosition":{"Latitude":58.771,"Longitude":5.62749},"MapView":{"TopLeft":{"Latitude":58.7721242,"Longitude":5.6253217},"BottomRight":{"Latitude":58.7698758,"Longitude":5.6296583}},"Address":{"Label":"Thore Ellingsens veg 7, 4352 Kleppe, Norge","Country":"NOR","State":"Rogaland","County":"Klepp","City":"Kleppe","Street":"Thore Ellingsens veg","HouseNumber":"7","PostalCode":"4352","AdditionalData":[{"value":"Norge","key":"CountryName"},{"value":"Rogaland","key":"StateName"},{"value":"Klepp","key":"CountyName"}]},"MapReference":{"ReferenceId":"571339354","Spot":0.64,"SideOfStreet":"left","CountryId":"20418433","StateId":"20461356","CountyId":"20461445","CityId":"20466542","AddressId":"303959462","RoadLinkId":"101167397"}}},{"Relevance":1.0,"Distance":83.3,"MatchLevel":"houseNumber","MatchQuality":{"Country":1.0,"State":1.0,"County":1.0,"City":1.0,"Street":[1.0],"HouseNumber":1.0,"PostalCode":1.0},"MatchType":"interpolated","Location":{"LocationId":"NT_lPGVAcyyviJZb80l4Nh8AB_l_1205299332_L_1EjM","LocationType":"point","DisplayPosition":{"Latitude":58.7713011,"Longitude":5.62998},"MapView":{"TopLeft":{"Latitude":58.7724253,"Longitude":5.6278117},"BottomRight":{"Latitude":58.770177,"Longitude":5.6321483}},"Address":{"Label":"Jærvegen 512, 4352 Kleppe, Norge","Country":"NOR","State":"Rogaland","County":"Klepp","City":"Kleppe","Street":"Jærvegen","HouseNumber":"512","PostalCode":"4352","AdditionalData":[{"value":"Norge","key":"CountryName"},{"value":"Rogaland","key":"StateName"},{"value":"Klepp","key":"CountyName"}]},"MapReference":{"ReferenceId":"1205299332","Spot":0.5,"SideOfStreet":"left","CountryId":"20418433","StateId":"20461356","CountyId":"20461445","CityId":"20466542"}}}]}]}}