{"Response":{"MetaInfo":{"Timestamp":"2020-03-31T17:07:34.147+0000","NextPageInformation":"2"},"View":[{"_type":"SearchResultsViewType","ViewId":0,"Result":[{"Relevance":1.0,"Distance":0.0,"Direction":0.0,"MatchLevel":"city","MatchQuality":{"Country":1.0,"State":1.0,"County":1.0,"City":1.0,"PostalCode":1.0},"Location":{"LocationId":"NT_AzmiuO1IBSxZLjXyMhSRmB","LocationType":"point","DisplayPosition":{"Latitude":59.1681,"Longitude":18.138},"MapView":{"TopLeft":{"Latitude":59.21412,"Longitude":18.09919},"BottomRight":{"Latitude":59.15317,"Longitude":18.23809}},"Address":{"Label":"Handen, Stockholms län, Sverige","Country":"SWE","State":"Stockholms län","County":"Haninge","City":"Handen","PostalCode":"136 47","AdditionalData":[{"value":"Sverige","key":"CountryName"},{"value":"Stockholms län","key":"StateName"},{"value":"Haninge","key":"CountyName"}]},"MapReference":{"ReferenceId":"1090019075","SideOfStreet":"neither","CountryId":"20298368","StateId":"20298403","CountyId":"20298454","CityId":"20365734"}}},{"Relevance":1.0,"Distance":2.9,"MatchLevel":"street","MatchQuality":{"Country":1.0,"State":1.0,"County":1.0,"City":1.0,"Street":[1.0],"PostalCode":1.0},"Location":{"LocationId":"NT_-zTtNLgBlXF0X4cwUUDypA_l_29953802_L","LocationType":"point","DisplayPosition":{"Latitude":59.1680741,"Longitude":18.1379985},"MapView":{"TopLeft":{"Latitude":59.16811,"Longitude":18.13737},"BottomRight":{"Latitude":59.16807,"Longitude":18.13807}},"Address":{"Label":"Handenterminalen, SE-136 40 Handen, Sverige","Country":"SWE","State":"Stockholms län","County":"Haninge","City":"Handen","Street":"Handenterminalen","PostalCode":"136 40","AdditionalData":[{"value":"Sverige","key":"CountryName"},{"value":"Stockholms län","key":"StateName"},{"value":"Haninge","key":"CountyName"}]},"MapReference":{"ReferenceId":"29953802","Spot":0.1,"SideOfStreet":"neither","CountryId":"20298368","StateId":"20298403","CountyId":"20298454","CityId":"20365734"}}},{"Relevance":1.0,"Distance":5.2,"MatchLevel":"street","MatchQuality":{"Country":1.0,"State":1.0,"County":1.0,"City":1.0,"Street":[1.0],"PostalCode":1.0},"Location":{"LocationId":"NT_hDY8ej7yAxblc8AlErzjUA_l_1217103652_L","LocationType":"point","DisplayPosition":{"Latitude":59.16807,"Longitude":18.13807},"MapView":{"TopLeft":{"Latitude":59.16858,"Longitude":18.13807},"BottomRight":{"Latitude":59.16807,"Longitude":18.13832}},"Address":{"Label":"Nynäsvägen, SE-136 40 Handen, Sverige","Country":"SWE","State":"Stockholms län","County":"Haninge","City":"Handen","Street":"Nynäsvägen","PostalCode":"136 40","AdditionalData":[{"value":"Sverige","key":"CountryName"},{"value":"Stockholms län","key":"StateName"},{"value":"Haninge","key":"CountyName"}]},"MapReference":{"ReferenceId":"1217103652","Spot":0.0,"SideOfStreet":"left","CountryId":"20298368","StateId":"20298403","CountyId":"20298454","CityId":"20365734"}}},{"Relevance":1.0,"Distance":5.2,"MatchLevel":"street","MatchQuality":{"Country":1.0,"State":1.0,"County":1.0,"City":1.0,"Street":[1.0],"PostalCode":1.0},"Location":{"LocationId":"NT_U79vJPoyGRuKOMMNyJWwQA_l_80550940_R","LocationType":"point","DisplayPosition":{"Latitude":59.16807,"Longitude":18.13807},"MapView":{"TopLeft":{"Latitude":59.16807,"Longitude":18.13807},"BottomRight":{"Latitude":59.16805,"Longitude":18.13823}},"Address":{"Label":"Eskilsvägen, SE-136 40 Handen, Sverige","Country":"SWE","State":"Stockholms län","County":"Haninge","City":"Handen","Street":"Eskilsvägen","PostalCode":"136 40","AdditionalData":[{"value":"Sverige","key":"CountryName"},{"value":"Stockholms län","key":"StateName"},{"value":"Haninge","key":"CountyName"}]},"MapReference":{"ReferenceId":"80550940","Spot":1.0,"SideOfStreet":"right","CountryId":"20298368","StateId":"20298403","CountyId":"20298454","CityId":"20365734"}}},{"Relevance":1.0,"Distance":5.4,"MatchLevel":"street","MatchQuality":{"Country":1.0,"State":1.0,"County":1.0,"City":1.0,"Street":[1.0],"PostalCode":1.0},"Location":{"LocationId":"NT_pQBUZEJKofGFqAnFecCV.C_l_28018468_L","LocationType":"point","DisplayPosition":{"Latitude":59.1680672,"Longitude":18.1380686},"MapView":{"TopLeft":{"Latitude":59.16807,"Longitude":18.13751},"BottomRight":{"Latitude":59.16685,"Longitude":18.13807}},"Address":{"Label":"Nynäsvägen, SE-136 35 Handen, Sverige","Country":"SWE","State":"Stockholms län","County":"Haninge","City":"Handen","Street":"Nynäsvägen","PostalCode":"136 35","AdditionalData":[{"value":"Sverige","key":"CountryName"},{"value":"Stockholms län","key":"StateName"},{"value":"Haninge","key":"CountyName"}]},"MapReference":{"ReferenceId":"28018468","Spot":1.0,"SideOfStreet":"left","CountryId":"20298368","StateId":"20298403","CountyId":"20298454","CityId":"20365734"}}},{"Relevance":1.0,"Distance":14.2,"MatchLevel":"landmark","MatchQuality":{"Country":1.0,"State":1.0,"County":1.0,"City":1.0,"Street":[1.0],"PostalCode":1.0,"Name":1.0},"Location":{"LocationId":"NT_NL64EDA7f59RCemmJEyijD_p_sOB--tHL.cHBDF7nMgB88C","LocationType":"shoppingCentre","Name":"Haninge centrum","DisplayPosition":{"Latitude":59.16915,"Longitude":18.14113},"MapView":{"TopLeft":{"Latitude":59.17095,"Longitude":18.13823},"BottomRight":{"Latitude":59.16788,"Longitude":18.14239}},"Address":{"Label":"Runstensvägen, SE-136 38 Handen, Sverige","Country":"SWE","State":"Stockholms län","County":"Haninge","City":"Handen","Street":"Runstensvägen","PostalCode":"136 38","AdditionalData":[{"value":"Sverige","key":"CountryName"},{"value":"Stockholms län","key":"StateName"},{"value":"Haninge","key":"CountyName"}]},"MapReference":{"CountryId":"20298368","StateId":"20298403","CountyId":"20298454","CityId":"20365734","PlaceId":"1017785059"}}},{"Relevance":1.0,"Distance":14.2,"MatchLevel":"street","MatchQuality":{"Country":1.0,"State":1.0,"County":1.0,"City":1.0,"Street":[1.0],"PostalCode":1.0},"Location":{"LocationId":"NT_f.2wewdAeJfCo0vK5.OQVD_l_1048395651_L","LocationType":"point","DisplayPosition":{"Latitude":59.16805,"Longitude":18.13823},"MapView":{"TopLeft":{"Latitude":59.16824,"Longitude":18.13823},"BottomRight":{"Latitude":59.16805,"Longitude":18.13832}},"Address":{"Label":"Nynäsvägen, SE-136 43 Handen, Sverige","Country":"SWE","State":"Stockholms län","County":"Haninge","City":"Handen","Street":"Nynäsvägen","PostalCode":"136 43","AdditionalData":[{"value":"Sverige","key":"CountryName"},{"value":"Stockholms län","key":"StateName"},{"value":"Haninge","key":"CountyName"}]},"MapReference":{"ReferenceId":"1048395651","Spot":0.0,"SideOfStreet":"left","CountryId":"20298368","StateId":"20298403","CountyId":"20298454","CityId":"20365734"}}},{"Relevance":1.0,"Distance":14.2,"MatchLevel":"street","MatchQuality":{"Country":1.0,"State":1.0,"County":1.0,"City":1.0,"Street":[1.0],"PostalCode":1.0},"Location":{"LocationId":"NT_U79vJPoyGRuKOMMNyJWwQA_l_1217147615_R","LocationType":"point","DisplayPosition":{"Latitude":59.16805,"Longitude":18.13823},"MapView":{"TopLeft":{"Latitude":59.16805,"Longitude":18.13823},"BottomRight":{"Latitude":59.16796,"Longitude":18.139}},"Address":{"Label":"Eskilsvägen, SE-136 43 Handen, Sverige","Country":"SWE","State":"Stockholms län","County":"Haninge","City":"Handen","Street":"Eskilsvägen","PostalCode":"136 43","AdditionalData":[{"value":"Sverige","key":"CountryName"},{"value":"Stockholms län","key":"StateName"},{"value":"Haninge","key":"CountyName"}]},"MapReference":{"ReferenceId":"1217147615","Spot":1.0,"SideOfStreet":"right","CountryId":"20298368","StateId":"20298403","CountyId":"20298454","CityId":"20365734"}}},{"Relevance":1.0,"Distance":15.7,"MatchLevel":"street","MatchQuality":{"Country":1.0,"State":1.0,"County":1.0,"City":1.0,"Street":[1.0],"PostalCode":1.0},"Location":{"LocationId":"NT_f.2wewdAeJfCo0vK5.OQVD_l_1217103893_L","LocationType":"point","DisplayPosition":{"Latitude":59.1680114,"Longitude":18.138214},"MapView":{"TopLeft":{"Latitude":59.16805,"Longitude":18.13811},"BottomRight":{"Latitude":59.16776,"Longitude":18.13823}},"Address":{"Label":"Nynäsvägen, SE-136 43 Handen, Sverige","Country":"SWE","State":"Stockholms län","County":"Haninge","City":"Handen","Street":"Nynäsvägen","PostalCode":"136 43","AdditionalData":[{"value":"Sverige","key":"CountryName"},{"value":"Stockholms län","key":"StateName"},{"value":"Haninge","key":"CountyName"}]},"MapReference":{"ReferenceId":"1217103893","Spot":0.87,"SideOfStreet":"left","CountryId":"20298368","StateId":"20298403","CountyId":"20298454","CityId":"20365734"}}},{"Relevance":1.0,"Distance":24.0,"MatchLevel":"street","MatchQuality":{"Country":1.0,"State":1.0,"County":1.0,"City":1.0,"Street":[1.0],"PostalCode":1.0},"Location":{"LocationId":"NT_f.2wewdAeJfCo0vK5.OQVD_l_1048395652_L","LocationType":"point","DisplayPosition":{"Latitude":59.16824,"Longitude":18.13832},"MapView":{"TopLeft":{"Latitude":59.16974,"Longitude":18.13832},"BottomRight":{"Latitude":59.16824,"Longitude":18.13897}},"Address":{"Label":"Nynäsvägen, SE-136 43 Handen, Sverige","Country":"SWE","State":"Stockholms län","County":"Haninge","City":"Handen","Street":"Nynäsvägen","PostalCode":"136 43","AdditionalData":[{"value":"Sverige","key":"CountryName"},{"value":"Stockholms län","key":"StateName"},{"value":"Haninge","key":"CountyName"}]},"MapReference":{"ReferenceId":"1048395652","Spot":0.0,"SideOfStreet":"left","CountryId":"20298368","StateId":"20298403","CountyId":"20298454","CityId":"20365734"}}}]}]}}