{"Response":{"MetaInfo":{"Timestamp":"2020-03-28T10:50:33.685+0000","NextPageInformation":"2"},"View":[{"_type":"SearchResultsViewType","ViewId":0,"Result":[{"Relevance":1.0,"Distance":0.0,"Direction":0.0,"MatchLevel":"city","MatchQuality":{"Country":1.0,"State":1.0,"County":1.0,"City":1.0,"PostalCode":1.0},"Location":{"LocationId":"NT_Oo64k5aj0OYWE.SgpV4gQC","LocationType":"point","DisplayPosition":{"Latitude":59.131649,"Longitude":15.1467981},"MapView":{"TopLeft":{"Latitude":59.15665,"Longitude":15.11628},"BottomRight":{"Latitude":59.10654,"Longitude":15.16596}},"Address":{"Label":"Kumla, Örebro län, Sverige","Country":"SWE","State":"Örebro län","County":"Kumla","City":"Kumla","PostalCode":"692 31","AdditionalData":[{"value":"Sverige","key":"CountryName"},{"value":"Örebro län","key":"StateName"},{"value":"Kumla","key":"CountyName"}]},"MapReference":{"ReferenceId":"943327700","SideOfStreet":"neither","CountryId":"20298368","StateId":"20298847","CountyId":"20298875","CityId":"20366088"}}},{"Relevance":1.0,"Distance":6.2,"MatchLevel":"houseNumber","MatchQuality":{"Country":1.0,"State":1.0,"County":1.0,"City":1.0,"Street":[1.0],"HouseNumber":1.0,"PostalCode":1.0},"MatchType":"interpolated","Location":{"LocationId":"NT_7Hw0vgwZKHeDeVolACL6aC_xAD","LocationType":"point","DisplayPosition":{"Latitude":59.13168,"Longitude":15.14633},"MapView":{"TopLeft":{"Latitude":59.1328042,"Longitude":15.144139},"BottomRight":{"Latitude":59.1305558,"Longitude":15.148521}},"Address":{"Label":"Norra Kungsvägen 10, SE-692 31 Kumla, Sverige","Country":"SWE","State":"Örebro län","County":"Kumla","City":"Kumla","Street":"Norra Kungsvägen","HouseNumber":"10","PostalCode":"692 31","AdditionalData":[{"value":"Sverige","key":"CountryName"},{"value":"Örebro län","key":"StateName"},{"value":"Kumla","key":"CountyName"}]},"MapReference":{"ReferenceId":"943020612","Spot":1.0,"SideOfStreet":"right","CountryId":"20298368","StateId":"20298847","CountyId":"20298875","CityId":"20366088","AddressId":"216187188","RoadLinkId":"292676307"}}},{"Relevance":1.0,"Distance":29.9,"MatchLevel":"street","MatchQuality":{"Country":1.0,"State":1.0,"County":1.0,"City":1.0,"Street":[1.0],"PostalCode":1.0},"Location":{"LocationId":"NT_7Hw0vgwZKHeDeVolACL6aC_l_943020613_R","LocationType":"point","DisplayPosition":{"Latitude":59.1318112,"Longitude":15.146381},"MapView":{"TopLeft":{"Latitude":59.13204,"Longitude":15.14633},"BottomRight":{"Latitude":59.13168,"Longitude":15.14647}},"Address":{"Label":"Norra Kungsvägen, SE-692 31 Kumla, Sverige","Country":"SWE","State":"Örebro län","County":"Kumla","City":"Kumla","Street":"Norra Kungsvägen","PostalCode":"692 31","AdditionalData":[{"value":"Sverige","key":"CountryName"},{"value":"Örebro län","key":"StateName"},{"value":"Kumla","key":"CountyName"}]},"MapReference":{"ReferenceId":"943020613","Spot":0.36,"SideOfStreet":"right","CountryId":"20298368","StateId":"20298847","CountyId":"20298875","CityId":"20366088"}}},{"Relevance":1.0,"Distance":50.6,"MatchLevel":"houseNumber","MatchQuality":{"Country":1.0,"State":1.0,"County":1.0,"City":1.0,"Street":[1.0],"HouseNumber":1.0,"PostalCode":1.0},"MatchType":"interpolated","Location":{"LocationId":"NT_7Hw0vgwZKHeDeVolACL6aC_xgD","LocationType":"point","DisplayPosition":{"Latitude":59.13211,"Longitude":15.1465},"MapView":{"TopLeft":{"Latitude":59.1332342,"Longitude":15.1443089},"BottomRight":{"Latitude":59.1309858,"Longitude":15.1486911}},"Address":{"Label":"Norra Kungsvägen 18, SE-692 31 Kumla, Sverige","Country":"SWE","State":"Örebro län","County":"Kumla","City":"Kumla","Street":"Norra Kungsvägen","HouseNumber":"18","PostalCode":"692 31","AdditionalData":[{"value":"Sverige","key":"CountryName"},{"value":"Örebro län","key":"StateName"},{"value":"Kumla","key":"CountyName"}]},"MapReference":{"ReferenceId":"29201614","Spot":0.14,"SideOfStreet":"right","CountryId":"20298368","StateId":"20298847","CountyId":"20298875","CityId":"20366088","AddressId":"216187077","RoadLinkId":"81934511"}}},{"Relevance":1.0,"Distance":54.8,"MatchLevel":"houseNumber","MatchQuality":{"Country":1.0,"State":1.0,"County":1.0,"City":1.0,"Street":[1.0],"HouseNumber":1.0,"PostalCode":1.0},"MatchType":"interpolated","Location":{"LocationId":"NT_Ah7yzSXWsxt6fhHHcTRJdD_xAD","LocationType":"point","DisplayPosition":{"Latitude":59.13203,"Longitude":15.14593},"MapView":{"TopLeft":{"Latitude":59.1331542,"Longitude":15.1437389},"BottomRight":{"Latitude":59.1309058,"Longitude":15.1481211}},"Address":{"Label":"Leksandsgatan 10, SE-692 31 Kumla, Sverige","Country":"SWE","State":"Örebro län","County":"Kumla","City":"Kumla","Street":"Leksandsgatan","HouseNumber":"10","PostalCode":"692 31","AdditionalData":[{"value":"Sverige","key":"CountryName"},{"value":"Örebro län","key":"StateName"},{"value":"Kumla","key":"CountyName"}]},"MapReference":{"ReferenceId":"29201617","Spot":0.7,"SideOfStreet":"right","CountryId":"20298368","StateId":"20298847","CountyId":"20298875","CityId":"20366088","AddressId":"216187075","RoadLinkId":"81868219"}}},{"Relevance":1.0,"Distance":61.7,"MatchLevel":"street","MatchQuality":{"Country":1.0,"State":1.0,"County":1.0,"City":1.0,"Street":[1.0],"PostalCode":1.0},"Location":{"LocationId":"NT_7Hw0vgwZKHeDeVolACL6aC_l_943020611_R","LocationType":"point","DisplayPosition":{"Latitude":59.13118,"Longitude":15.14622},"MapView":{"TopLeft":{"Latitude":59.13118,"Longitude":15.14622},"BottomRight":{"Latitude":59.13108,"Longitude":15.14623}},"Address":{"Label":"Norra Kungsvägen, SE-692 31 Kumla, Sverige","Country":"SWE","State":"Örebro län","County":"Kumla","City":"Kumla","Street":"Norra Kungsvägen","PostalCode":"692 31","AdditionalData":[{"value":"Sverige","key":"CountryName"},{"value":"Örebro län","key":"StateName"},{"value":"Kumla","key":"CountyName"}]},"MapReference":{"ReferenceId":"943020611","Spot":1.0,"SideOfStreet":"right","CountryId":"20298368","StateId":"20298847","CountyId":"20298875","CityId":"20366088"}}},{"Relevance":1.0,"Distance":84.6,"MatchLevel":"houseNumber","MatchQuality":{"Country":1.0,"State":1.0,"County":1.0,"City":1.0,"Street":[1.0],"HouseNumber":1.0,"PostalCode":1.0},"MatchType":"interpolated","Location":{"LocationId":"NT_ZrHlMHHhSDyeif4LNxBdEA_xAjQ","LocationType":"point","DisplayPosition":{"Latitude":59.13259,"Longitude":15.14629},"MapView":{"TopLeft":{"Latitude":59.1337142,"Longitude":15.1440989},"BottomRight":{"Latitude":59.1314658,"Longitude":15.1484811}},"Address":{"Label":"Hammargatan 10B, SE-692 31 Kumla, Sverige","Country":"SWE","State":"Örebro län","County":"Kumla","City":"Kumla","Street":"Hammargatan","HouseNumber":"10B","PostalCode":"692 31","AdditionalData":[{"value":"Sverige","key":"CountryName"},{"value":"Örebro län","key":"StateName"},{"value":"Kumla","key":"CountyName"}]},"MapReference":{"ReferenceId":"936169617","Spot":0.31,"SideOfStreet":"left","CountryId":"20298368","StateId":"20298847","CountyId":"20298875","CityId":"20366088","AddressId":"216186741","RoadLinkId":"287165803"}}},{"Relevance":1.0,"Distance":90.3,"MatchLevel":"houseNumber","MatchQuality":{"Country":1.0,"State":1.0,"County":1.0,"City":1.0,"Street":[1.0],"HouseNumber":1.0,"PostalCode":1.0},"MatchType":"interpolated","Location":{"LocationId":"NT_Vj92VpEiT.FghVFl9YTYIC_5A","LocationType":"point","DisplayPosition":{"Latitude":59.13105,"Longitude":15.14557},"MapView":{"TopLeft":{"Latitude":59.1321742,"Longitude":15.143379},"BottomRight":{"Latitude":59.1299258,"Longitude":15.147761}},"Address":{"Label":"Fridhemsgatan 9, SE-692 31 Kumla, Sverige","Country":"SWE","State":"Örebro län","County":"Kumla","City":"Kumla","Street":"Fridhemsgatan","HouseNumber":"9","PostalCode":"692 31","AdditionalData":[{"value":"Sverige","key":"CountryName"},{"value":"Örebro län","key":"StateName"},{"value":"Kumla","key":"CountyName"}]},"MapReference":{"ReferenceId":"29201714","Spot":0.62,"SideOfStreet":"left","CountryId":"20298368","StateId":"20298847","CountyId":"20298875","CityId":"20366088","AddressId":"216187110","RoadLinkId":"82117296"}}},{"Relevance":1.0,"Distance":101.3,"MatchLevel":"houseNumber","MatchQuality":{"Country":1.0,"State":1.0,"County":1.0,"City":1.0,"Street":[1.0],"HouseNumber":1.0,"PostalCode":1.0},"MatchType":"interpolated","Location":{"LocationId":"NT_7Hw0vgwZKHeDeVolACL6aC_yAzQ","LocationType":"point","DisplayPosition":{"Latitude":59.13257,"Longitude":15.14666},"MapView":{"TopLeft":{"Latitude":59.1336942,"Longitude":15.1444689},"BottomRight":{"Latitude":59.1314458,"Longitude":15.1488511}},"Address":{"Label":"Norra Kungsvägen 20C, SE-692 31 Kumla, Sverige","Country":"SWE","State":"Örebro län","County":"Kumla","City":"Kumla","Street":"Norra Kungsvägen","HouseNumber":"20C","PostalCode":"692 31","AdditionalData":[{"value":"Sverige","key":"CountryName"},{"value":"Örebro län","key":"StateName"},{"value":"Kumla","key":"CountyName"}]},"MapReference":{"ReferenceId":"936170165","Spot":0.01,"SideOfStreet":"right","CountryId":"20298368","StateId":"20298847","CountyId":"20298875","CityId":"20366088","AddressId":"216186723","RoadLinkId":"287166293"}}},{"Relevance":1.0,"Distance":111.6,"MatchLevel":"houseNumber","MatchQuality":{"Country":1.0,"State":1.0,"County":1.0,"City":1.0,"Street":[1.0],"HouseNumber":1.0,"PostalCode":1.0},"MatchType":"interpolated","Location":{"LocationId":"NT_7Hw0vgwZKHeDeVolACL6aC_1A","LocationType":"point","DisplayPosition":{"Latitude":59.13067,"Longitude":15.14637},"MapView":{"TopLeft":{"Latitude":59.1317942,"Longitude":15.144179},"BottomRight":{"Latitude":59.1295458,"Longitude":15.148561}},"Address":{"Label":"Norra Kungsvägen 5, SE-692 31 Kumla, Sverige","Country":"SWE","State":"Örebro län","County":"Kumla","City":"Kumla","Street":"Norra Kungsvägen","HouseNumber":"5","PostalCode":"692 31","AdditionalData":[{"value":"Sverige","key":"CountryName"},{"value":"Örebro län","key":"StateName"},{"value":"Kumla","key":"CountyName"}]},"MapReference":{"ReferenceId":"943020610","Spot":0.14,"SideOfStreet":"left","CountryId":"20298368","StateId":"20298847","CountyId":"20298875","CityId":"20366088","AddressId":"216187268","RoadLinkId":"292676305"}}}]}]}}