{"Response":{"MetaInfo":{"Timestamp":"2020-03-28T11:29:19.406+0000","NextPageInformation":"2"},"View":[{"_type":"SearchResultsViewType","ViewId":0,"Result":[{"Relevance":1.0,"Distance":0.0,"Direction":0.0,"MatchLevel":"postalCode","MatchQuality":{"Country":1.0,"State":1.0,"County":1.0,"PostalCode":1.0},"Location":{"LocationId":"NT_3MLCNvYOzKRUDu6PNtL77B","LocationType":"point","DisplayPosition":{"Latitude":59.2512273,"Longitude":10.9337489},"MapView":{"TopLeft":{"Latitude":59.32403,"Longitude":10.605},"BottomRight":{"Latitude":59.08362,"Longitude":11.13072}},"Address":{"Label":"1607, Viken, Norge","Country":"NOR","State":"Viken","County":"Fredrikstad","PostalCode":"1607","AdditionalData":[{"value":"Norge","key":"CountryName"},{"value":"Viken","key":"StateName"},{"value":"Fredrikstad","key":"CountyName"}]},"MapReference":{"ReferenceId":"554665712","SideOfStreet":"neither","CountryId":"20418433","StateId":"20421989","CountyId":"20421993"}}},{"Relevance":1.0,"Distance":45.4,"MatchLevel":"houseNumber","MatchQuality":{"Country":1.0,"State":1.0,"County":1.0,"City":1.0,"Street":[1.0],"HouseNumber":1.0,"PostalCode":1.0},"MatchType":"interpolated","Location":{"LocationId":"NT_C6y8I4Rg0N.K0WqQKmFf.C_xA","LocationType":"point","DisplayPosition":{"Latitude":59.25083,"Longitude":10.9347},"MapView":{"TopLeft":{"Latitude":59.2519542,"Longitude":10.9325013},"BottomRight":{"Latitude":59.2497058,"Longitude":10.9368987}},"Address":{"Label":"Veum alle 1, 1615 Veum, Norge","Country":"NOR","State":"Viken","County":"Fredrikstad","City":"Veum","Street":"Veum alle","HouseNumber":"1","PostalCode":"1615","AdditionalData":[{"value":"Norge","key":"CountryName"},{"value":"Viken","key":"StateName"},{"value":"Fredrikstad","key":"CountyName"}]},"MapReference":{"ReferenceId":"554612388","Spot":0.68,"SideOfStreet":"left","CountryId":"20418433","StateId":"20421989","CountyId":"20421993","CityId":"20422714","AddressId":"695141056","RoadLinkId":"100721192"}}},{"Relevance":1.0,"Distance":49.1,"MatchLevel":"houseNumber","MatchQuality":{"Country":1.0,"State":1.0,"County":1.0,"City":1.0,"Street":[1.0],"HouseNumber":1.0,"PostalCode":1.0},"MatchType":"interpolated","Location":{"LocationId":"NT_U3ULvcLRigxfI2M7mZatRB_l_554612286_L_xA","LocationType":"point","DisplayPosition":{"Latitude":59.2514193,"Longitude":10.9329095},"MapView":{"TopLeft":{"Latitude":59.2525434,"Longitude":10.9307108},"BottomRight":{"Latitude":59.2502951,"Longitude":10.9351082}},"Address":{"Label":"Veum alle 1, 1615 Fredrikstad, Norge","Country":"NOR","State":"Viken","County":"Fredrikstad","City":"Fredrikstad","Street":"Veum alle","HouseNumber":"1","PostalCode":"1615","AdditionalData":[{"value":"Norge","key":"CountryName"},{"value":"Viken","key":"StateName"},{"value":"Fredrikstad","key":"CountyName"}]},"MapReference":{"ReferenceId":"554612286","Spot":0.5,"SideOfStreet":"left","CountryId":"20418433","StateId":"20421989","CountyId":"20421993","CityId":"20421993"}}},{"Relevance":1.0,"Distance":63.0,"MatchLevel":"street","MatchQuality":{"Country":1.0,"State":1.0,"County":1.0,"City":1.0,"Street":[1.0],"PostalCode":1.0},"Location":{"LocationId":"NT_C6y8I4Rg0N.K0WqQKmFf.C_l_554612296_L","LocationType":"point","DisplayPosition":{"Latitude":59.25116,"Longitude":10.93485},"MapView":{"TopLeft":{"Latitude":59.25116,"Longitude":10.93485},"BottomRight":{"Latitude":59.25111,"Longitude":10.93532}},"Address":{"Label":"Veum alle, 1615 Veum, Norge","Country":"NOR","State":"Viken","County":"Fredrikstad","City":"Veum","Street":"Veum alle","PostalCode":"1615","AdditionalData":[{"value":"Norge","key":"CountryName"},{"value":"Viken","key":"StateName"},{"value":"Fredrikstad","key":"CountyName"}]},"MapReference":{"ReferenceId":"554612296","Spot":1.0,"SideOfStreet":"left","CountryId":"20418433","StateId":"20421989","CountyId":"20421993","CityId":"20422714"}}},{"Relevance":1.0,"Distance":108.1,"MatchLevel":"houseNumber","MatchQuality":{"Country":1.0,"State":1.0,"County":1.0,"City":1.0,"Street":[1.0],"HouseNumber":1.0,"PostalCode":1.0},"MatchType":"interpolated","Location":{"LocationId":"NT_C6y8I4Rg0N.K0WqQKmFf.C_yA","LocationType":"point","DisplayPosition":{"Latitude":59.25179,"Longitude":10.93564},"MapView":{"TopLeft":{"Latitude":59.2529142,"Longitude":10.9334412},"BottomRight":{"Latitude":59.2506658,"Longitude":10.9378388}},"Address":{"Label":"Veum alle 2, 1615 Veum, Norge","Country":"NOR","State":"Viken","County":"Fredrikstad","City":"Veum","Street":"Veum alle","HouseNumber":"2","PostalCode":"1615","AdditionalData":[{"value":"Norge","key":"CountryName"},{"value":"Viken","key":"StateName"},{"value":"Fredrikstad","key":"CountyName"}]},"MapReference":{"ReferenceId":"554612295","Spot":0.8,"SideOfStreet":"left","CountryId":"20418433","StateId":"20421989","CountyId":"20421993","CityId":"20422714","AddressId":"302927673","RoadLinkId":"101184221"}}},{"Relevance":1.0,"Distance":116.8,"MatchLevel":"houseNumber","MatchQuality":{"Country":1.0,"State":1.0,"County":1.0,"City":1.0,"Street":[1.0],"HouseNumber":1.0,"PostalCode":1.0},"MatchType":"interpolated","Location":{"LocationId":"NT_C6y8I4Rg0N.K0WqQKmFf.C_1A","LocationType":"point","DisplayPosition":{"Latitude":59.25106,"Longitude":10.93573},"MapView":{"TopLeft":{"Latitude":59.2521842,"Longitude":10.9335313},"BottomRight":{"Latitude":59.2499358,"Longitude":10.9379287}},"Address":{"Label":"Veum alle 5, 1615 Veum, Norge","Country":"NOR","State":"Viken","County":"Fredrikstad","City":"Veum","Street":"Veum alle","HouseNumber":"5","PostalCode":"1615","AdditionalData":[{"value":"Norge","key":"CountryName"},{"value":"Viken","key":"StateName"},{"value":"Fredrikstad","key":"CountyName"}]},"MapReference":{"ReferenceId":"554612311","Spot":0.8,"SideOfStreet":"left","CountryId":"20418433","StateId":"20421989","CountyId":"20421993","CityId":"20422714","AddressId":"303173957","RoadLinkId":"100816185"}}},{"Relevance":1.0,"Distance":131.5,"MatchLevel":"street","MatchQuality":{"Country":1.0,"State":1.0,"County":1.0,"City":1.0,"Street":[1.0],"PostalCode":1.0},"Location":{"LocationId":"NT_fLkcvvgtD8sK41JM09jHNC_l_554612239_R","LocationType":"point","DisplayPosition":{"Latitude":59.25235,"Longitude":10.93302},"MapView":{"TopLeft":{"Latitude":59.25235,"Longitude":10.9316},"BottomRight":{"Latitude":59.25184,"Longitude":10.93302}},"Address":{"Label":"Evenrødveien, 1615 Fredrikstad, Norge","Country":"NOR","State":"Viken","County":"Fredrikstad","City":"Fredrikstad","Street":"Evenrødveien","PostalCode":"1615","AdditionalData":[{"value":"Norge","key":"CountryName"},{"value":"Viken","key":"StateName"},{"value":"Fredrikstad","key":"CountyName"}]},"MapReference":{"ReferenceId":"554612239","Spot":1.0,"SideOfStreet":"right","CountryId":"20418433","StateId":"20421989","CountyId":"20421993","CityId":"20421993"}}},{"Relevance":1.0,"Distance":138.7,"MatchLevel":"street","MatchQuality":{"Country":1.0,"State":1.0,"County":1.0,"City":1.0,"Street":[1.0],"PostalCode":1.0},"Location":{"LocationId":"NT_1jTBtU0PSFmJ4VjYX8iaBA_l_554612196_R","LocationType":"point","DisplayPosition":{"Latitude":59.2524558,"Longitude":10.9333307},"MapView":{"TopLeft":{"Latitude":59.25277,"Longitude":10.93302},"BottomRight":{"Latitude":59.25235,"Longitude":10.93427}},"Address":{"Label":"Evenrødveien, 1615 Veum, Norge","Country":"NOR","State":"Viken","County":"Fredrikstad","City":"Veum","Street":"Evenrødveien","PostalCode":"1615","AdditionalData":[{"value":"Norge","key":"CountryName"},{"value":"Viken","key":"StateName"},{"value":"Fredrikstad","key":"CountyName"}]},"MapReference":{"ReferenceId":"554612196","Spot":0.25,"SideOfStreet":"right","CountryId":"20418433","StateId":"20421989","CountyId":"20421993","CityId":"20422714"}}},{"Relevance":1.0,"Distance":156.2,"MatchLevel":"houseNumber","MatchQuality":{"Country":1.0,"State":1.0,"County":1.0,"City":1.0,"Street":[1.0],"HouseNumber":1.0,"PostalCode":1.0},"MatchType":"interpolated","Location":{"LocationId":"NT_1jTBtU0PSFmJ4VjYX8iaBA_0A","LocationType":"point","DisplayPosition":{"Latitude":59.25254,"Longitude":10.93277},"MapView":{"TopLeft":{"Latitude":59.2536642,"Longitude":10.9305712},"BottomRight":{"Latitude":59.2514158,"Longitude":10.9349688}},"Address":{"Label":"Evenrødveien 4, 1615 Veum, Norge","Country":"NOR","State":"Viken","County":"Fredrikstad","City":"Veum","Street":"Evenrødveien","HouseNumber":"4","PostalCode":"1615","AdditionalData":[{"value":"Norge","key":"CountryName"},{"value":"Viken","key":"StateName"},{"value":"Fredrikstad","key":"CountyName"}]},"MapReference":{"ReferenceId":"554612197","Spot":0.47,"SideOfStreet":"left","CountryId":"20418433","StateId":"20421989","CountyId":"20421993","CityId":"20422714","AddressId":"303216021","RoadLinkId":"101086799"}}},{"Relevance":1.0,"Distance":156.3,"MatchLevel":"houseNumber","MatchQuality":{"Country":1.0,"State":1.0,"County":1.0,"City":1.0,"Street":[1.0],"HouseNumber":1.0,"PostalCode":1.0},"MatchType":"interpolated","Location":{"LocationId":"NT_C6y8I4Rg0N.K0WqQKmFf.C_zA","LocationType":"point","DisplayPosition":{"Latitude":59.25,"Longitude":10.93509},"MapView":{"TopLeft":{"Latitude":59.2511242,"Longitude":10.9328914},"BottomRight":{"Latitude":59.2488758,"Longitude":10.9372886}},"Address":{"Label":"Veum alle 3, 1615 Veum, Norge","Country":"NOR","State":"Viken","County":"Fredrikstad","City":"Veum","Street":"Veum alle","HouseNumber":"3","PostalCode":"1615","AdditionalData":[{"value":"Norge","key":"CountryName"},{"value":"Viken","key":"StateName"},{"value":"Fredrikstad","key":"CountyName"}]},"MapReference":{"ReferenceId":"554612406","Spot":0.52,"SideOfStreet":"left","CountryId":"20418433","StateId":"20421989","CountyId":"20421993","CityId":"20422714","AddressId":"303126649","RoadLinkId":"101343403"}}}]}]}}