{"Response":{"MetaInfo":{"Timestamp":"2020-03-28T10:00:49.996+0000","NextPageInformation":"2"},"View":[{"_type":"SearchResultsViewType","ViewId":0,"Result":[{"Relevance":1.0,"Distance":0.0,"Direction":0.0,"MatchLevel":"district","MatchQuality":{"Country":1.0,"State":1.0,"County":1.0,"City":1.0,"District":1.0,"PostalCode":1.0},"Location":{"LocationId":"NT_UC4nA3CsaFw1Ef2fnPR5.C","LocationType":"point","DisplayPosition":{"Latitude":59.3810003,"Longitude":17.8989307},"MapView":{"TopLeft":{"Latitude":59.39173,"Longitude":17.86652},"BottomRight":{"Latitude":59.37268,"Longitude":17.9093}},"Address":{"Label":"Solhem, Stockholm, Stockholms län, Sverige","Country":"SWE","State":"Stockholms län","County":"Stockholm","City":"Stockholm","District":"Solhem","PostalCode":"163 51","AdditionalData":[{"value":"Sverige","key":"CountryName"},{"value":"Stockholms län","key":"StateName"},{"value":"Stockholm","key":"CountyName"}]},"MapReference":{"ReferenceId":"811961249","SideOfStreet":"neither","CountryId":"20298368","StateId":"20298403","CountyId":"20298488","CityId":"20298488","DistrictId":"20365777"}}},{"Relevance":1.0,"Distance":8.3,"MatchLevel":"street","MatchQuality":{"Country":1.0,"State":1.0,"County":1.0,"City":1.0,"District":1.0,"Street":[1.0],"PostalCode":1.0},"Location":{"LocationId":"NT_Tb9gswfsXSlV32mMBc10KB_l_1245294839_L","LocationType":"point","DisplayPosition":{"Latitude":59.3810745,"Longitude":17.8989352},"MapView":{"TopLeft":{"Latitude":59.38109,"Longitude":17.89868},"BottomRight":{"Latitude":59.38107,"Longitude":17.89901}},"Address":{"Label":"Spånga torgväg, SE-163 51 Spånga, Sverige","Country":"SWE","State":"Stockholms län","County":"Stockholm","City":"Spånga","District":"Solhem","Street":"Spånga torgväg","PostalCode":"163 51","AdditionalData":[{"value":"Sverige","key":"CountryName"},{"value":"Stockholms län","key":"StateName"},{"value":"Stockholm","key":"CountyName"}]},"MapReference":{"ReferenceId":"1245294839","Spot":0.23,"SideOfStreet":"left","CountryId":"20298368","StateId":"20298403","CountyId":"20298488","CityId":"20854577","DistrictId":"20365777"}}},{"Relevance":1.0,"Distance":9.3,"MatchLevel":"houseNumber","MatchQuality":{"Country":1.0,"State":1.0,"County":1.0,"City":1.0,"District":1.0,"Street":[1.0],"HouseNumber":1.0,"PostalCode":1.0},"MatchType":"interpolated","Location":{"LocationId":"NT_Tb9gswfsXSlV32mMBc10KB_2A","LocationType":"point","DisplayPosition":{"Latitude":59.38107,"Longitude":17.89902},"MapView":{"TopLeft":{"Latitude":59.3821942,"Longitude":17.8968129},"BottomRight":{"Latitude":59.3799458,"Longitude":17.9012271}},"Address":{"Label":"Spånga torgväg 6, SE-163 51 Spånga, Sverige","Country":"SWE","State":"Stockholms län","County":"Stockholm","City":"Spånga","District":"Solhem","Street":"Spånga torgväg","HouseNumber":"6","PostalCode":"163 51","AdditionalData":[{"value":"Sverige","key":"CountryName"},{"value":"Stockholms län","key":"StateName"},{"value":"Stockholm","key":"CountyName"}]},"MapReference":{"ReferenceId":"812862594","Spot":0.99,"SideOfStreet":"right","CountryId":"20298368","StateId":"20298403","CountyId":"20298488","CityId":"20854577","DistrictId":"20365777","AddressId":"216757336","RoadLinkId":"200181666"}}},{"Relevance":1.0,"Distance":15.6,"MatchLevel":"houseNumber","MatchQuality":{"Country":1.0,"State":1.0,"County":1.0,"City":1.0,"District":1.0,"Street":[1.0],"HouseNumber":1.0,"PostalCode":1.0},"MatchType":"interpolated","Location":{"LocationId":"NT_Tb9gswfsXSlV32mMBc10KB_3A","LocationType":"point","DisplayPosition":{"Latitude":59.38086,"Longitude":17.89893},"MapView":{"TopLeft":{"Latitude":59.3819842,"Longitude":17.8967229},"BottomRight":{"Latitude":59.3797358,"Longitude":17.9011371}},"Address":{"Label":"Spånga torgväg 7, SE-163 51 Spånga, Sverige","Country":"SWE","State":"Stockholms län","County":"Stockholm","City":"Spånga","District":"Solhem","Street":"Spånga torgväg","HouseNumber":"7","PostalCode":"163 51","AdditionalData":[{"value":"Sverige","key":"CountryName"},{"value":"Stockholms län","key":"StateName"},{"value":"Stockholm","key":"CountyName"}]},"MapReference":{"ReferenceId":"80548438","Spot":0.59,"SideOfStreet":"left","CountryId":"20298368","StateId":"20298403","CountyId":"20298488","CityId":"20854577","DistrictId":"20365777","AddressId":"216778923","RoadLinkId":"82108686"}}},{"Relevance":1.0,"Distance":16.2,"MatchLevel":"houseNumber","MatchQuality":{"Country":1.0,"State":1.0,"County":1.0,"City":1.0,"District":1.0,"Street":[1.0],"HouseNumber":1.0,"PostalCode":1.0},"MatchType":"interpolated","Location":{"LocationId":"NT_Vr6Xn06ruy-uaaYES1q5VA_l_80548440_L_xA","LocationType":"point","DisplayPosition":{"Latitude":59.3812,"Longitude":17.89896},"MapView":{"TopLeft":{"Latitude":59.3823242,"Longitude":17.8967528},"BottomRight":{"Latitude":59.3800759,"Longitude":17.9011671}},"Address":{"Label":"Spånga torg 1, SE-163 51 Spånga, Sverige","Country":"SWE","State":"Stockholms län","County":"Stockholm","City":"Spånga","District":"Solhem","Street":"Spånga torg","HouseNumber":"1","PostalCode":"163 51","AdditionalData":[{"value":"Sverige","key":"CountryName"},{"value":"Stockholms län","key":"StateName"},{"value":"Stockholm","key":"CountyName"}]},"MapReference":{"ReferenceId":"80548440","Spot":0.3,"SideOfStreet":"left","CountryId":"20298368","StateId":"20298403","CountyId":"20298488","CityId":"20854577","DistrictId":"20365777"}}},{"Relevance":1.0,"Distance":31.4,"MatchLevel":"houseNumber","MatchQuality":{"Country":1.0,"State":1.0,"County":1.0,"City":1.0,"District":1.0,"Street":[1.0],"HouseNumber":1.0,"PostalCode":1.0},"MatchType":"interpolated","Location":{"LocationId":"NT_Tb9gswfsXSlV32mMBc10KB_5A","LocationType":"point","DisplayPosition":{"Latitude":59.38111,"Longitude":17.89842},"MapView":{"TopLeft":{"Latitude":59.3822342,"Longitude":17.8962129},"BottomRight":{"Latitude":59.3799858,"Longitude":17.9006271}},"Address":{"Label":"Spånga torgväg 9, SE-163 51 Spånga, Sverige","Country":"SWE","State":"Stockholms län","County":"Stockholm","City":"Spånga","District":"Solhem","Street":"Spånga torgväg","HouseNumber":"9","PostalCode":"163 51","AdditionalData":[{"value":"Sverige","key":"CountryName"},{"value":"Stockholms län","key":"StateName"},{"value":"Stockholm","key":"CountyName"}]},"MapReference":{"ReferenceId":"1245294840","Spot":0.19,"SideOfStreet":"left","CountryId":"20298368","StateId":"20298403","CountyId":"20298488","CityId":"20854577","DistrictId":"20365777","AddressId":"216761727","RoadLinkId":"566737440"}}},{"Relevance":1.0,"Distance":36.4,"MatchLevel":"houseNumber","MatchQuality":{"Country":1.0,"State":1.0,"County":1.0,"City":1.0,"District":1.0,"Street":[1.0],"HouseNumber":1.0,"PostalCode":1.0},"MatchType":"interpolated","Location":{"LocationId":"NT_Zp3c0a3QxYZIOtygiyYnpC_xAD","LocationType":"point","DisplayPosition":{"Latitude":59.38056,"Longitude":17.89906},"MapView":{"TopLeft":{"Latitude":59.3816842,"Longitude":17.8968529},"BottomRight":{"Latitude":59.3794358,"Longitude":17.9012671}},"Address":{"Label":"Sörgårdsvägen 10, SE-163 52 Spånga, Sverige","Country":"SWE","State":"Stockholms län","County":"Stockholm","City":"Spånga","District":"Solhem","Street":"Sörgårdsvägen","HouseNumber":"10","PostalCode":"163 52","AdditionalData":[{"value":"Sverige","key":"CountryName"},{"value":"Stockholms län","key":"StateName"},{"value":"Stockholm","key":"CountyName"}]},"MapReference":{"ReferenceId":"27993398","Spot":0.15,"SideOfStreet":"left","CountryId":"20298368","StateId":"20298403","CountyId":"20298488","CityId":"20854577","DistrictId":"20365777","AddressId":"216771469","RoadLinkId":"81646657"}}},{"Relevance":1.0,"Distance":41.0,"MatchLevel":"houseNumber","MatchQuality":{"Country":1.0,"State":1.0,"County":1.0,"City":1.0,"District":1.0,"Street":[1.0],"HouseNumber":1.0,"PostalCode":1.0},"MatchType":"interpolated","Location":{"LocationId":"NT_Vr6Xn06ruy-uaaYES1q5VA_1A","LocationType":"point","DisplayPosition":{"Latitude":59.38151,"Longitude":17.89851},"MapView":{"TopLeft":{"Latitude":59.3826342,"Longitude":17.8963028},"BottomRight":{"Latitude":59.3803858,"Longitude":17.9007172}},"Address":{"Label":"Spånga torg 5, SE-163 51 Spånga, Sverige","Country":"SWE","State":"Stockholms län","County":"Stockholm","City":"Spånga","District":"Solhem","Street":"Spånga torg","HouseNumber":"5","PostalCode":"163 51","AdditionalData":[{"value":"Sverige","key":"CountryName"},{"value":"Stockholms län","key":"StateName"},{"value":"Stockholm","key":"CountyName"}]},"MapReference":{"ReferenceId":"763552852","Spot":0.55,"SideOfStreet":"right","CountryId":"20298368","StateId":"20298403","CountyId":"20298488","CityId":"20854577","DistrictId":"20365777","AddressId":"216761720","RoadLinkId":"157839949"}}},{"Relevance":1.0,"Distance":41.3,"MatchLevel":"houseNumber","MatchQuality":{"Country":1.0,"State":1.0,"County":1.0,"City":1.0,"District":1.0,"Street":[1.0],"HouseNumber":1.0,"PostalCode":1.0},"MatchType":"interpolated","Location":{"LocationId":"NT_.PaDHva0M.wQnYXH-x7bxD_0ETN","LocationType":"point","DisplayPosition":{"Latitude":59.38099,"Longitude":17.89997},"MapView":{"TopLeft":{"Latitude":59.3821142,"Longitude":17.8977629},"BottomRight":{"Latitude":59.3798658,"Longitude":17.9021771}},"Address":{"Label":"Spånga Kyrkväg 415, SE-163 56 Spånga, Sverige","Country":"SWE","State":"Stockholms län","County":"Stockholm","City":"Spånga","District":"Solhem","Street":"Spånga Kyrkväg","HouseNumber":"415","PostalCode":"163 56","AdditionalData":[{"value":"Sverige","key":"CountryName"},{"value":"Stockholms län","key":"StateName"},{"value":"Stockholm","key":"CountyName"}]},"MapReference":{"ReferenceId":"812862589","Spot":0.0,"SideOfStreet":"left","CountryId":"20298368","StateId":"20298403","CountyId":"20298488","CityId":"20854577","DistrictId":"20365777","AddressId":"216744456","RoadLinkId":"200181661"}}},{"Relevance":1.0,"Distance":42.6,"MatchLevel":"houseNumber","MatchQuality":{"Country":1.0,"State":1.0,"County":1.0,"City":1.0,"District":1.0,"Street":[1.0],"HouseNumber":1.0,"PostalCode":1.0},"MatchType":"interpolated","Location":{"LocationId":"NT_Zp3c0a3QxYZIOtygiyYnpC_xID","LocationType":"point","DisplayPosition":{"Latitude":59.38058,"Longitude":17.8984},"MapView":{"TopLeft":{"Latitude":59.3817042,"Longitude":17.8961929},"BottomRight":{"Latitude":59.3794558,"Longitude":17.9006071}},"Address":{"Label":"Sörgårdsvägen 12, SE-163 52 Spånga, Sverige","Country":"SWE","State":"Stockholms län","County":"Stockholm","City":"Spånga","District":"Solhem","Street":"Sörgårdsvägen","HouseNumber":"12","PostalCode":"163 52","AdditionalData":[{"value":"Sverige","key":"CountryName"},{"value":"Stockholms län","key":"StateName"},{"value":"Stockholm","key":"CountyName"}]},"MapReference":{"ReferenceId":"808186451","Spot":0.64,"SideOfStreet":"right","CountryId":"20298368","StateId":"20298403","CountyId":"20298488","CityId":"20854577","DistrictId":"20365777","AddressId":"216760204","RoadLinkId":"195529498"}}}]}]}}