{"Response":{"MetaInfo":{"Timestamp":"2020-03-28T11:36:28.679+0000","NextPageInformation":"2"},"View":[{"_type":"SearchResultsViewType","ViewId":0,"Result":[{"Relevance":1.0,"Distance":-13.6,"MatchLevel":"landmark","MatchQuality":{"Country":1.0,"State":1.0,"County":1.0,"City":1.0,"District":1.0,"Street":[1.0],"PostalCode":1.0,"Name":1.0},"Location":{"LocationId":"NT_PEy.bIYil76kASwgrtQfIA_p_BYYPY9axmjxNm22qhIkHYA","LocationType":"sportsComplex","Name":"Stockholm Stadion","DisplayPosition":{"Latitude":59.34386,"Longitude":18.07919},"MapView":{"TopLeft":{"Latitude":59.34942,"Longitude":18.07642},"BottomRight":{"Latitude":59.34386,"Longitude":18.0831}},"Address":{"Label":"Lidingövägen, SE-114 33 Stockholm, Sverige","Country":"SWE","State":"Stockholms län","County":"Stockholm","City":"Stockholm","District":"Norra Djurgården","Street":"Lidingövägen","PostalCode":"114 33","AdditionalData":[{"value":"Sverige","key":"CountryName"},{"value":"Stockholms län","key":"StateName"},{"value":"Stockholm","key":"CountyName"}]},"MapReference":{"CountryId":"20298368","StateId":"20298403","CountyId":"20298488","CityId":"20298488","DistrictId":"20298539","PlaceId":"18678647"}}},{"Relevance":1.0,"Distance":0.0,"Direction":0.0,"MatchLevel":"district","MatchQuality":{"Country":1.0,"State":1.0,"County":1.0,"City":1.0,"District":1.0,"PostalCode":1.0},"Location":{"LocationId":"NT_8U-hheCwq5d6pwmzNywvPA","LocationType":"point","DisplayPosition":{"Latitude":59.3486208,"Longitude":18.0793182},"MapView":{"TopLeft":{"Latitude":59.37573,"Longitude":18.04059},"BottomRight":{"Latitude":59.34386,"Longitude":18.09892}},"Address":{"Label":"Norra Djurgården, Stockholm, Stockholms län, Sverige","Country":"SWE","State":"Stockholms län","County":"Stockholm","City":"Stockholm","District":"Norra Djurgården","PostalCode":"114 18","AdditionalData":[{"value":"Sverige","key":"CountryName"},{"value":"Stockholms län","key":"StateName"},{"value":"Stockholm","key":"CountyName"}]},"MapReference":{"ReferenceId":"855115387","SideOfStreet":"neither","CountryId":"20298368","StateId":"20298403","CountyId":"20298488","CityId":"20298488","DistrictId":"20298539"}}},{"Relevance":1.0,"Distance":13.7,"MatchLevel":"street","MatchQuality":{"Country":1.0,"State":1.0,"County":1.0,"City":1.0,"District":1.0,"Street":[1.0],"PostalCode":1.0},"Location":{"LocationId":"NT_Wg2.YXT.j0fnSg2BcjIIWD_l_1194164418_R","LocationType":"point","DisplayPosition":{"Latitude":59.348742,"Longitude":18.0792708},"MapView":{"TopLeft":{"Latitude":59.34942,"Longitude":18.07818},"BottomRight":{"Latitude":59.34793,"Longitude":18.08032}},"Address":{"Label":"Drottning Sofias väg, SE-114 33 Stockholm, Sverige","Country":"SWE","State":"Stockholms län","County":"Stockholm","City":"Stockholm","District":"Norra Djurgården","Street":"Drottning Sofias väg","PostalCode":"114 33","AdditionalData":[{"value":"Sverige","key":"CountryName"},{"value":"Stockholms län","key":"StateName"},{"value":"Stockholm","key":"CountyName"}]},"MapReference":{"ReferenceId":"1194164418","Spot":0.52,"SideOfStreet":"right","CountryId":"20298368","StateId":"20298403","CountyId":"20298488","CityId":"20298488","DistrictId":"20298539"}}},{"Relevance":1.0,"Distance":29.8,"MatchLevel":"landmark","MatchQuality":{"Country":1.0,"State":1.0,"County":1.0,"City":1.0,"District":1.0,"Street":[1.0],"PostalCode":1.0,"Name":1.0},"Location":{"LocationId":"NT_4LNaphHTxr2uz8JZ-hiAqC_p_5XjCcz1F4NWOtoeDBKBdvA","LocationType":"park","Name":"Lill-Jansskogen","DisplayPosition":{"Latitude":59.34669,"Longitude":18.07855},"MapView":{"TopLeft":{"Latitude":59.35564,"Longitude":18.05976},"BottomRight":{"Latitude":59.34608,"Longitude":18.08475}},"Address":{"Label":"Drottning Sofias väg, SE-114 33 Stockholm, Sverige","Country":"SWE","State":"Stockholms län","County":"Stockholm","City":"Stockholm","District":"Norra Djurgården","Street":"Drottning Sofias väg","PostalCode":"114 33","AdditionalData":[{"value":"Sverige","key":"CountryName"},{"value":"Stockholms län","key":"StateName"},{"value":"Stockholm","key":"CountyName"}]},"MapReference":{"CountryId":"20298368","StateId":"20298403","CountyId":"20298488","CityId":"20298488","DistrictId":"20298539","PlaceId":"1131754094"}}},{"Relevance":1.0,"Distance":31.7,"MatchLevel":"houseNumber","MatchQuality":{"Country":1.0,"State":1.0,"County":1.0,"City":1.0,"District":1.0,"Street":[1.0],"HouseNumber":1.0,"PostalCode":1.0},"MatchType":"interpolated","Location":{"LocationId":"NT_dbAnvZqymISvUwSHB5VmpC_l_1194164416_L_yMD","LocationType":"point","DisplayPosition":{"Latitude":59.3489045,"Longitude":18.0792726},"MapView":{"TopLeft":{"Latitude":59.3500287,"Longitude":18.0770676},"BottomRight":{"Latitude":59.3477804,"Longitude":18.0814777}},"Address":{"Label":"Träskportsvägen 23, SE-114 33 Stockholm, Sverige","Country":"SWE","State":"Stockholms län","County":"Stockholm","City":"Stockholm","District":"Norra Djurgården","Street":"Träskportsvägen","HouseNumber":"23","PostalCode":"114 33","AdditionalData":[{"value":"Sverige","key":"CountryName"},{"value":"Stockholms län","key":"StateName"},{"value":"Stockholm","key":"CountyName"}]},"MapReference":{"ReferenceId":"1194164416","Spot":0.7,"SideOfStreet":"left","CountryId":"20298368","StateId":"20298403","CountyId":"20298488","CityId":"20298488","DistrictId":"20298539"}}},{"Relevance":1.0,"Distance":56.8,"MatchLevel":"street","MatchQuality":{"Country":1.0,"State":1.0,"County":1.0,"City":1.0,"District":1.0,"PostalCode":1.0},"Location":{"LocationId":"NT_oUFe0c16LvL4a3mnDJoJvC_l_854661434_L","LocationType":"point","DisplayPosition":{"Latitude":59.34913,"Longitude":18.07924},"MapView":{"TopLeft":{"Latitude":59.34981,"Longitude":18.07575},"BottomRight":{"Latitude":59.34913,"Longitude":18.08001}},"Address":{"Label":"SE-114 33 Stockholm, Sverige","Country":"SWE","State":"Stockholms län","County":"Stockholm","City":"Stockholm","District":"Norra Djurgården","PostalCode":"114 33","AdditionalData":[{"value":"Sverige","key":"CountryName"},{"value":"Stockholms län","key":"StateName"},{"value":"Stockholm","key":"CountyName"}]},"MapReference":{"ReferenceId":"854661434","Spot":0.18,"SideOfStreet":"left","CountryId":"20298368","StateId":"20298403","CountyId":"20298488","CityId":"20298488","DistrictId":"20298539"}}},{"Relevance":1.0,"Distance":79.2,"MatchLevel":"houseNumber","MatchQuality":{"Country":1.0,"State":1.0,"County":1.0,"City":1.0,"District":1.0,"Street":[1.0],"HouseNumber":1.0,"PostalCode":1.0},"MatchType":"interpolated","Location":{"LocationId":"NT_-fXjm52b3U3YiftDW6A65B_xUDS","LocationType":"point","DisplayPosition":{"Latitude":59.34825,"Longitude":18.08046},"MapView":{"TopLeft":{"Latitude":59.3493742,"Longitude":18.078255},"BottomRight":{"Latitude":59.3471258,"Longitude":18.082665}},"Address":{"Label":"Södra Fiskartorpsvägen 15H, SE-114 33 Stockholm, Sverige","Country":"SWE","State":"Stockholms län","County":"Stockholm","City":"Stockholm","District":"Norra Djurgården","Street":"Södra Fiskartorpsvägen","HouseNumber":"15H","PostalCode":"114 33","AdditionalData":[{"value":"Sverige","key":"CountryName"},{"value":"Stockholms län","key":"StateName"},{"value":"Stockholm","key":"CountyName"}]},"MapReference":{"ReferenceId":"1247871822","Spot":0.69,"SideOfStreet":"left","CountryId":"20298368","StateId":"20298403","CountyId":"20298488","CityId":"20298488","DistrictId":"20298539","AddressId":"569692278","RoadLinkId":"569738717"}}},{"Relevance":1.0,"Distance":86.0,"MatchLevel":"houseNumber","MatchQuality":{"Country":1.0,"State":1.0,"County":1.0,"City":1.0,"District":1.0,"Street":[1.0],"HouseNumber":1.0,"PostalCode":1.0},"MatchType":"interpolated","Location":{"LocationId":"NT_-fXjm52b3U3YiftDW6A65B_yAD","LocationType":"point","DisplayPosition":{"Latitude":59.34881,"Longitude":18.08079},"MapView":{"TopLeft":{"Latitude":59.3499342,"Longitude":18.078585},"BottomRight":{"Latitude":59.3476858,"Longitude":18.082995}},"Address":{"Label":"Södra Fiskartorpsvägen 20, SE-114 33 Stockholm, Sverige","Country":"SWE","State":"Stockholms län","County":"Stockholm","City":"Stockholm","District":"Norra Djurgården","Street":"Södra Fiskartorpsvägen","HouseNumber":"20","PostalCode":"114 33","AdditionalData":[{"value":"Sverige","key":"CountryName"},{"value":"Stockholms län","key":"StateName"},{"value":"Stockholm","key":"CountyName"}]},"MapReference":{"ReferenceId":"808275430","Spot":0.09,"SideOfStreet":"right","CountryId":"20298368","StateId":"20298403","CountyId":"20298488","CityId":"20298488","DistrictId":"20298539","AddressId":"216744271","RoadLinkId":"195623616"}}},{"Relevance":1.0,"Distance":91.7,"MatchLevel":"houseNumber","MatchQuality":{"Country":1.0,"State":1.0,"County":1.0,"City":1.0,"District":1.0,"Street":[1.0],"HouseNumber":1.0,"PostalCode":1.0},"MatchType":"interpolated","Location":{"LocationId":"NT_-fXjm52b3U3YiftDW6A65B_xMzQ","LocationType":"point","DisplayPosition":{"Latitude":59.3478,"Longitude":18.07916},"MapView":{"TopLeft":{"Latitude":59.3489242,"Longitude":18.076955},"BottomRight":{"Latitude":59.3466758,"Longitude":18.081365}},"Address":{"Label":"Södra Fiskartorpsvägen 13C, SE-114 33 Stockholm, Sverige","Country":"SWE","State":"Stockholms län","County":"Stockholm","City":"Stockholm","District":"Norra Djurgården","Street":"Södra Fiskartorpsvägen","HouseNumber":"13C","PostalCode":"114 33","AdditionalData":[{"value":"Sverige","key":"CountryName"},{"value":"Stockholms län","key":"StateName"},{"value":"Stockholm","key":"CountyName"}]},"MapReference":{"ReferenceId":"1247871821","Spot":0.39,"SideOfStreet":"left","CountryId":"20298368","StateId":"20298403","CountyId":"20298488","CityId":"20298488","DistrictId":"20298539","AddressId":"216748268","RoadLinkId":"569738716"}}},{"Relevance":1.0,"Distance":98.3,"MatchLevel":"houseNumber","MatchQuality":{"Country":1.0,"State":1.0,"County":1.0,"City":1.0,"District":1.0,"Street":[1.0],"HouseNumber":1.0,"PostalCode":1.0},"MatchType":"interpolated","Location":{"LocationId":"NT_dbAnvZqymISvUwSHB5VmpC_l_854661433_L_yUD","LocationType":"point","DisplayPosition":{"Latitude":59.3494061,"Longitude":18.0801141},"MapView":{"TopLeft":{"Latitude":59.3505303,"Longitude":18.0779091},"BottomRight":{"Latitude":59.348282,"Longitude":18.0823192}},"Address":{"Label":"Träskportsvägen 25, SE-114 33 Stockholm, Sverige","Country":"SWE","State":"Stockholms län","County":"Stockholm","City":"Stockholm","District":"Norra Djurgården","Street":"Träskportsvägen","HouseNumber":"25","PostalCode":"114 33","AdditionalData":[{"value":"Sverige","key":"CountryName"},{"value":"Stockholms län","key":"StateName"},{"value":"Stockholm","key":"CountyName"}]},"MapReference":{"ReferenceId":"854661433","Spot":0.55,"SideOfStreet":"left","CountryId":"20298368","StateId":"20298403","CountyId":"20298488","CityId":"20298488","DistrictId":"20298539"}}}]}]}}