{"Response":{"MetaInfo":{"Timestamp":"2020-03-28T11:03:13.764+0000","NextPageInformation":"2"},"View":[{"_type":"SearchResultsViewType","ViewId":0,"Result":[{"Relevance":1.0,"Distance":0.0,"Direction":0.0,"MatchLevel":"district","MatchQuality":{"Country":1.0,"County":1.0,"City":1.0,"District":1.0,"PostalCode":1.0},"Location":{"LocationId":"NT_1P3o9x2cUQSF49s9S6wuAD","LocationType":"point","DisplayPosition":{"Latitude":59.399837,"Longitude":24.702112},"MapView":{"TopLeft":{"Latitude":59.41914,"Longitude":24.63855},"BottomRight":{"Latitude":59.39133,"Longitude":24.70994}},"Address":{"Label":"Mustamäe, Tallinn, Eesti","Country":"EST","County":"Harju Maakond","City":"Tallinn","District":"Mustamäe","PostalCode":"12911","AdditionalData":[{"value":"Eesti","key":"CountryName"},{"value":"Harju Maakond","key":"CountyName"}]},"MapReference":{"ReferenceId":"751496054","SideOfStreet":"neither","CountryId":"20633738","CountyId":"20650280","CityId":"20650379"}}},{"Relevance":1.0,"Distance":1.6,"MatchLevel":"landmark","MatchQuality":{"Country":1.0,"County":1.0,"City":1.0,"District":1.0,"Street":[1.0],"PostalCode":1.0,"Name":1.0},"Location":{"LocationId":"NT_pdIelZNUwHBXJHu6feJtiC_p_SVQdU.gPfDqOfNd7LBQA4C","LocationType":"hospital","Name":"Põhja-Eesti Regionaalhaigla","DisplayPosition":{"Latitude":59.39751,"Longitude":24.70088},"MapView":{"TopLeft":{"Latitude":59.39985,"Longitude":24.69758},"BottomRight":{"Latitude":59.39663,"Longitude":24.70446}},"Address":{"Label":"Juhan Sütiste tee, Mustamäe, Tallinn, 13419 Harju Maakond, Eesti","Country":"EST","County":"Harju Maakond","City":"Tallinn","District":"Mustamäe","Street":"Juhan Sütiste tee","PostalCode":"13419","AdditionalData":[{"value":"Eesti","key":"CountryName"},{"value":"Harju Maakond","key":"CountyName"}]},"MapReference":{"CountryId":"20633738","CountyId":"20650280","CityId":"20650379","PlaceId":"996675790"}}},{"Relevance":1.0,"Distance":3.6,"MatchLevel":"street","MatchQuality":{"Country":1.0,"County":1.0,"City":1.0,"District":1.0,"Street":[1.0],"PostalCode":1.0},"Location":{"LocationId":"NT_i2tFAhXnn8BbhU3cfm2m0D_l_751562957_L","LocationType":"point","DisplayPosition":{"Latitude":59.39985,"Longitude":24.70217},"MapView":{"TopLeft":{"Latitude":59.39985,"Longitude":24.70217},"BottomRight":{"Latitude":59.39937,"Longitude":24.70307}},"Address":{"Label":"Juhan Sütiste tee, Mustamäe, Tallinn, 13419 Harju Maakond, Eesti","Country":"EST","County":"Harju Maakond","City":"Tallinn","District":"Mustamäe","Street":"Juhan Sütiste tee","PostalCode":"13419","AdditionalData":[{"value":"Eesti","key":"CountryName"},{"value":"Harju Maakond","key":"CountyName"}]},"MapReference":{"ReferenceId":"751562957","Spot":1.0,"SideOfStreet":"left","CountryId":"20633738","CountyId":"20650280","CityId":"20650379"}}},{"Relevance":1.0,"Distance":3.6,"MatchLevel":"street","MatchQuality":{"Country":1.0,"County":1.0,"City":1.0,"District":1.0,"PostalCode":1.0},"Location":{"LocationId":"NT_HB3OtmbxhnlpD5mrRRt2aC_l_1255149391_L","LocationType":"point","DisplayPosition":{"Latitude":59.39985,"Longitude":24.70217},"MapView":{"TopLeft":{"Latitude":59.40051,"Longitude":24.70208},"BottomRight":{"Latitude":59.39985,"Longitude":24.70217}},"Address":{"Label":"Mustamäe, Tallinn, 13419 Harju Maakond, Eesti","Country":"EST","County":"Harju Maakond","City":"Tallinn","District":"Mustamäe","PostalCode":"13419","AdditionalData":[{"value":"Eesti","key":"CountryName"},{"value":"Harju Maakond","key":"CountyName"}]},"MapReference":{"ReferenceId":"1255149391","Spot":0.0,"SideOfStreet":"left","CountryId":"20633738","CountyId":"20650280","CityId":"20650379"}}},{"Relevance":1.0,"Distance":3.6,"MatchLevel":"street","MatchQuality":{"Country":1.0,"County":1.0,"City":1.0,"District":1.0,"PostalCode":1.0},"Location":{"LocationId":"NT_HB3OtmbxhnlpD5mrRRt2aC_l_1202647546_L","LocationType":"point","DisplayPosition":{"Latitude":59.39985,"Longitude":24.70217},"MapView":{"TopLeft":{"Latitude":59.40006,"Longitude":24.70217},"BottomRight":{"Latitude":59.39985,"Longitude":24.70316}},"Address":{"Label":"Mustamäe, Tallinn, 13419 Harju Maakond, Eesti","Country":"EST","County":"Harju Maakond","City":"Tallinn","District":"Mustamäe","PostalCode":"13419","AdditionalData":[{"value":"Eesti","key":"CountryName"},{"value":"Harju Maakond","key":"CountyName"}]},"MapReference":{"ReferenceId":"1202647546","Spot":0.0,"SideOfStreet":"left","CountryId":"20633738","CountyId":"20650280","CityId":"20650379"}}},{"Relevance":1.0,"Distance":3.6,"MatchLevel":"street","MatchQuality":{"Country":1.0,"County":1.0,"City":1.0,"District":1.0,"PostalCode":1.0},"Location":{"LocationId":"NT_HB3OtmbxhnlpD5mrRRt2aC_l_751732247_L","LocationType":"point","DisplayPosition":{"Latitude":59.3998688,"Longitude":24.7021254},"MapView":{"TopLeft":{"Latitude":59.39993,"Longitude":24.70198},"BottomRight":{"Latitude":59.39985,"Longitude":24.70217}},"Address":{"Label":"Mustamäe, Tallinn, 13419 Harju Maakond, Eesti","Country":"EST","County":"Harju Maakond","City":"Tallinn","District":"Mustamäe","PostalCode":"13419","AdditionalData":[{"value":"Eesti","key":"CountryName"},{"value":"Harju Maakond","key":"CountyName"}]},"MapReference":{"ReferenceId":"751732247","Spot":0.23,"SideOfStreet":"neither","CountryId":"20633738","CountyId":"20650280","CityId":"20650379"}}},{"Relevance":1.0,"Distance":12.8,"MatchLevel":"street","MatchQuality":{"Country":1.0,"County":1.0,"City":1.0,"District":1.0,"PostalCode":1.0},"Location":{"LocationId":"NT_HB3OtmbxhnlpD5mrRRt2aC_l_751382498_L","LocationType":"point","DisplayPosition":{"Latitude":59.39993,"Longitude":24.70198},"MapView":{"TopLeft":{"Latitude":59.40036,"Longitude":24.7013},"BottomRight":{"Latitude":59.39993,"Longitude":24.70198}},"Address":{"Label":"Mustamäe, Tallinn, 13419 Harju Maakond, Eesti","Country":"EST","County":"Harju Maakond","City":"Tallinn","District":"Mustamäe","PostalCode":"13419","AdditionalData":[{"value":"Eesti","key":"CountryName"},{"value":"Harju Maakond","key":"CountyName"}]},"MapReference":{"ReferenceId":"751382498","Spot":0.0,"SideOfStreet":"left","CountryId":"20633738","CountyId":"20650280","CityId":"20650379"}}},{"Relevance":1.0,"Distance":49.4,"MatchLevel":"houseNumber","MatchQuality":{"Country":1.0,"County":1.0,"City":1.0,"District":1.0,"Street":[1.0],"HouseNumber":1.0,"PostalCode":1.0},"MatchType":"interpolated","Location":{"LocationId":"NT_i2tFAhXnn8BbhU3cfm2m0D_xcD","LocationType":"point","DisplayPosition":{"Latitude":59.39951,"Longitude":24.70152},"MapView":{"TopLeft":{"Latitude":59.4006342,"Longitude":24.6993117},"BottomRight":{"Latitude":59.3983858,"Longitude":24.7037283}},"Address":{"Label":"Juhan Sütiste tee 17, Mustamäe, Tallinn, 13419 Harju Maakond, Eesti","Country":"EST","County":"Harju Maakond","City":"Tallinn","District":"Mustamäe","Street":"Juhan Sütiste tee","HouseNumber":"17","PostalCode":"13419","AdditionalData":[{"value":"Eesti","key":"CountryName"},{"value":"Harju Maakond","key":"CountyName"}]},"MapReference":{"ReferenceId":"751753741","Spot":0.76,"SideOfStreet":"left","CountryId":"20633738","CountyId":"20650280","CityId":"20650379","AddressId":"699661404","RoadLinkId":"245162273"}}},{"Relevance":1.0,"Distance":55.3,"MatchLevel":"houseNumber","MatchQuality":{"Country":1.0,"County":1.0,"City":1.0,"District":1.0,"Street":[1.0],"HouseNumber":1.0,"PostalCode":1.0},"MatchType":"interpolated","Location":{"LocationId":"NT_SoDEpjqeBhJtsDXgkeGHzD_zID","LocationType":"point","DisplayPosition":{"Latitude":59.40026,"Longitude":24.70366},"MapView":{"TopLeft":{"Latitude":59.4013842,"Longitude":24.7014516},"BottomRight":{"Latitude":59.3991358,"Longitude":24.7058684}},"Address":{"Label":"Retke tee 32, Mustamäe, Tallinn, 13419 Harju Maakond, Eesti","Country":"EST","County":"Harju Maakond","City":"Tallinn","District":"Mustamäe","Street":"Retke tee","HouseNumber":"32","PostalCode":"13419","AdditionalData":[{"value":"Eesti","key":"CountryName"},{"value":"Harju Maakond","key":"CountyName"}]},"MapReference":{"ReferenceId":"917672410","Spot":0.35,"SideOfStreet":"right","CountryId":"20633738","CountyId":"20650280","CityId":"20650379","AddressId":"378704279","RoadLinkId":"275261067"}}},{"Relevance":1.0,"Distance":69.4,"MatchLevel":"street","MatchQuality":{"Country":1.0,"County":1.0,"City":1.0,"District":1.0,"PostalCode":1.0},"Location":{"LocationId":"NT_HB3OtmbxhnlpD5mrRRt2aC_l_1255148807_R","LocationType":"point","DisplayPosition":{"Latitude":59.4004523,"Longitude":24.7019069},"MapView":{"TopLeft":{"Latitude":59.40051,"Longitude":24.70138},"BottomRight":{"Latitude":59.40034,"Longitude":24.70208}},"Address":{"Label":"Mustamäe, Tallinn, 13419 Harju Maakond, Eesti","Country":"EST","County":"Harju Maakond","City":"Tallinn","District":"Mustamäe","PostalCode":"13419","AdditionalData":[{"value":"Eesti","key":"CountryName"},{"value":"Harju Maakond","key":"CountyName"}]},"MapReference":{"ReferenceId":"1255148807","Spot":0.75,"SideOfStreet":"right","CountryId":"20633738","CountyId":"20650280","CityId":"20650379"}}}]}]}}