{"Response":{"MetaInfo":{"Timestamp":"2020-03-28T11:36:32.024+0000","NextPageInformation":"2"},"View":[{"_type":"SearchResultsViewType","ViewId":0,"Result":[{"Relevance":1.0,"Distance":0.0,"Direction":0.0,"MatchLevel":"city","MatchQuality":{"Country":1.0,"State":1.0,"County":1.0,"City":1.0,"PostalCode":1.0},"Location":{"LocationId":"NT_3FB1Di5-acKQi1jod.tq5C","LocationType":"point","DisplayPosition":{"Latitude":59.6149082,"Longitude":16.5884702},"MapView":{"TopLeft":{"Latitude":59.65827,"Longitude":16.44134},"BottomRight":{"Latitude":59.5822,"Longitude":16.62731}},"Address":{"Label":"Västerås, Västmanlands län, Sverige","Country":"SWE","State":"Västmanlands län","County":"Västerås","City":"Västerås","PostalCode":"722 12","AdditionalData":[{"value":"Sverige","key":"CountryName"},{"value":"Västmanlands län","key":"StateName"},{"value":"Västerås","key":"CountyName"}]},"MapReference":{"ReferenceId":"29048307","SideOfStreet":"neither","CountryId":"20298368","StateId":"20298890","CountyId":"20298897","CityId":"20298899"}}},{"Relevance":1.0,"Distance":17.0,"MatchLevel":"street","MatchQuality":{"Country":1.0,"State":1.0,"County":1.0,"City":1.0,"Street":[1.0],"PostalCode":1.0},"Location":{"LocationId":"NT_mpOFVdNK89gU92626MtYjB_l_29047601_L","LocationType":"point","DisplayPosition":{"Latitude":59.6148652,"Longitude":16.5887604},"MapView":{"TopLeft":{"Latitude":59.61679,"Longitude":16.58865},"BottomRight":{"Latitude":59.61466,"Longitude":16.58877}},"Address":{"Label":"Cedergatan, SE-723 41 Västerås, Sverige","Country":"SWE","State":"Västmanlands län","County":"Västerås","City":"Västerås","Street":"Cedergatan","PostalCode":"723 41","AdditionalData":[{"value":"Sverige","key":"CountryName"},{"value":"Västmanlands län","key":"StateName"},{"value":"Västerås","key":"CountyName"}]},"MapReference":{"ReferenceId":"29047601","Spot":0.1,"SideOfStreet":"left","CountryId":"20298368","StateId":"20298890","CountyId":"20298897","CityId":"20298899"}}},{"Relevance":1.0,"Distance":24.7,"MatchLevel":"street","MatchQuality":{"Country":1.0,"State":1.0,"County":1.0,"City":1.0,"Street":[1.0],"PostalCode":1.0},"Location":{"LocationId":"NT_25lKQHxPYh5EJ4HzxPSB4A_l_967362407_R","LocationType":"point","DisplayPosition":{"Latitude":59.6146866,"Longitude":16.5884492},"MapView":{"TopLeft":{"Latitude":59.61475,"Longitude":16.58778},"BottomRight":{"Latitude":59.61466,"Longitude":16.58873}},"Address":{"Label":"Stockholmsvägen, SE-723 44 Västerås, Sverige","Country":"SWE","State":"Västmanlands län","County":"Västerås","City":"Västerås","Street":"Stockholmsvägen","PostalCode":"723 44","AdditionalData":[{"value":"Sverige","key":"CountryName"},{"value":"Västmanlands län","key":"StateName"},{"value":"Västerås","key":"CountyName"}]},"MapReference":{"ReferenceId":"967362407","Spot":0.3,"SideOfStreet":"right","CountryId":"20298368","StateId":"20298890","CountyId":"20298897","CityId":"20298899"}}},{"Relevance":1.0,"Distance":31.2,"MatchLevel":"street","MatchQuality":{"Country":1.0,"State":1.0,"County":1.0,"City":1.0,"Street":[1.0],"PostalCode":1.0},"Location":{"LocationId":"NT_jdFBAo.TPqP7Wpj.DFhLtA_l_29047613_R","LocationType":"point","DisplayPosition":{"Latitude":59.61466,"Longitude":16.58873},"MapView":{"TopLeft":{"Latitude":59.61466,"Longitude":16.58873},"BottomRight":{"Latitude":59.61451,"Longitude":16.59031}},"Address":{"Label":"Stockholmsvägen, SE-723 41 Västerås, Sverige","Country":"SWE","State":"Västmanlands län","County":"Västerås","City":"Västerås","Street":"Stockholmsvägen","PostalCode":"723 41","AdditionalData":[{"value":"Sverige","key":"CountryName"},{"value":"Västmanlands län","key":"StateName"},{"value":"Västerås","key":"CountyName"}]},"MapReference":{"ReferenceId":"29047613","Spot":1.0,"SideOfStreet":"right","CountryId":"20298368","StateId":"20298890","CountyId":"20298897","CityId":"20298899"}}},{"Relevance":1.0,"Distance":63.3,"MatchLevel":"houseNumber","MatchQuality":{"Country":1.0,"State":1.0,"County":1.0,"City":1.0,"Street":[1.0],"HouseNumber":1.0,"PostalCode":1.0},"MatchType":"interpolated","Location":{"LocationId":"NT_sS6lDr--LIFyg45eoy1thB_zEE","LocationType":"point","DisplayPosition":{"Latitude":59.61503,"Longitude":16.59033},"MapView":{"TopLeft":{"Latitude":59.6161542,"Longitude":16.5881075},"BottomRight":{"Latitude":59.6139058,"Longitude":16.5925525}},"Address":{"Label":"Högby Skogsväg 3A, SE-723 41 Västerås, Sverige","Country":"SWE","State":"Västmanlands län","County":"Västerås","City":"Västerås","Street":"Högby Skogsväg","HouseNumber":"3A","PostalCode":"723 41","AdditionalData":[{"value":"Sverige","key":"CountryName"},{"value":"Västmanlands län","key":"StateName"},{"value":"Västerås","key":"CountyName"}]},"MapReference":{"ReferenceId":"29047579","Spot":0.16,"SideOfStreet":"left","CountryId":"20298368","StateId":"20298890","CountyId":"20298897","CityId":"20298899","AddressId":"217107432","RoadLinkId":"81949602"}}},{"Relevance":1.0,"Distance":72.2,"MatchLevel":"houseNumber","MatchQuality":{"Country":1.0,"State":1.0,"County":1.0,"City":1.0,"Street":[1.0],"HouseNumber":1.0,"PostalCode":1.0},"MatchType":"interpolated","Location":{"LocationId":"NT_Sv-HPumwzvlydagCSb7XHA_zMTR","LocationType":"point","DisplayPosition":{"Latitude":59.61348,"Longitude":16.58823},"MapView":{"TopLeft":{"Latitude":59.6146042,"Longitude":16.5860076},"BottomRight":{"Latitude":59.6123558,"Longitude":16.5904524}},"Address":{"Label":"Klockartorpsgatan 33E, SE-723 44 Västerås, Sverige","Country":"SWE","State":"Västmanlands län","County":"Västerås","City":"Västerås","Street":"Klockartorpsgatan","HouseNumber":"33E","PostalCode":"723 44","AdditionalData":[{"value":"Sverige","key":"CountryName"},{"value":"Västmanlands län","key":"StateName"},{"value":"Västerås","key":"CountyName"}]},"MapReference":{"ReferenceId":"29047767","Spot":0.08,"SideOfStreet":"right","CountryId":"20298368","StateId":"20298890","CountyId":"20298897","CityId":"20298899","AddressId":"217107911","RoadLinkId":"82188429"}}},{"Relevance":1.0,"Distance":81.1,"MatchLevel":"houseNumber","MatchQuality":{"Country":1.0,"State":1.0,"County":1.0,"City":1.0,"Street":[1.0],"HouseNumber":1.0,"PostalCode":1.0},"MatchType":"interpolated","Location":{"LocationId":"NT_WjarxAsWxVj8YKuHe6Ty9D_yA","LocationType":"point","DisplayPosition":{"Latitude":59.61437,"Longitude":16.59029},"MapView":{"TopLeft":{"Latitude":59.6154942,"Longitude":16.5880676},"BottomRight":{"Latitude":59.6132458,"Longitude":16.5925124}},"Address":{"Label":"Funkisgatan 2, SE-723 46 Västerås, Sverige","Country":"SWE","State":"Västmanlands län","County":"Västerås","City":"Västerås","Street":"Funkisgatan","HouseNumber":"2","PostalCode":"723 46","AdditionalData":[{"value":"Sverige","key":"CountryName"},{"value":"Västmanlands län","key":"StateName"},{"value":"Västerås","key":"CountyName"}]},"MapReference":{"ReferenceId":"29154391","Spot":0.99,"SideOfStreet":"left","CountryId":"20298368","StateId":"20298890","CountyId":"20298897","CityId":"20298899","AddressId":"217117956","RoadLinkId":"81828234"}}},{"Relevance":1.0,"Distance":88.3,"MatchLevel":"houseNumber","MatchQuality":{"Country":1.0,"State":1.0,"County":1.0,"City":1.0,"Street":[1.0],"HouseNumber":1.0,"PostalCode":1.0},"MatchType":"interpolated","Location":{"LocationId":"NT_sS6lDr--LIFyg45eoy1thB_xA","LocationType":"point","DisplayPosition":{"Latitude":59.61482,"Longitude":16.59032},"MapView":{"TopLeft":{"Latitude":59.6159442,"Longitude":16.5880975},"BottomRight":{"Latitude":59.6136958,"Longitude":16.5925425}},"Address":{"Label":"Högby Skogsväg 1, SE-723 41 Västerås, Sverige","Country":"SWE","State":"Västmanlands län","County":"Västerås","City":"Västerås","Street":"Högby Skogsväg","HouseNumber":"1","PostalCode":"723 41","AdditionalData":[{"value":"Sverige","key":"CountryName"},{"value":"Västmanlands län","key":"StateName"},{"value":"Västerås","key":"CountyName"}]},"MapReference":{"ReferenceId":"29047612","Spot":0.82,"SideOfStreet":"left","CountryId":"20298368","StateId":"20298890","CountyId":"20298897","CityId":"20298899","AddressId":"217107824","RoadLinkId":"81801431"}}},{"Relevance":1.0,"Distance":129.6,"MatchLevel":"houseNumber","MatchQuality":{"Country":1.0,"State":1.0,"County":1.0,"City":1.0,"Street":[1.0],"HouseNumber":1.0,"PostalCode":1.0},"MatchType":"interpolated","Location":{"LocationId":"NT_-3WFlExyEA7iSAhHY7dusC_yA","LocationType":"point","DisplayPosition":{"Latitude":59.61488,"Longitude":16.59077},"MapView":{"TopLeft":{"Latitude":59.6160042,"Longitude":16.5885475},"BottomRight":{"Latitude":59.6137558,"Longitude":16.5929925}},"Address":{"Label":"Grytaborgsvägen 2, SE-723 41 Västerås, Sverige","Country":"SWE","State":"Västmanlands län","County":"Västerås","City":"Västerås","Street":"Grytaborgsvägen","HouseNumber":"2","PostalCode":"723 41","AdditionalData":[{"value":"Sverige","key":"CountryName"},{"value":"Västmanlands län","key":"StateName"},{"value":"Västerås","key":"CountyName"}]},"MapReference":{"ReferenceId":"29047584","Spot":0.2,"SideOfStreet":"right","CountryId":"20298368","StateId":"20298890","CountyId":"20298897","CityId":"20298899","AddressId":"217107724","RoadLinkId":"82162045"}}},{"Relevance":1.0,"Distance":139.9,"MatchLevel":"houseNumber","MatchQuality":{"Country":1.0,"State":1.0,"County":1.0,"City":1.0,"Street":[1.0],"HouseNumber":1.0,"PostalCode":1.0},"MatchType":"interpolated","Location":{"LocationId":"NT_sS6lDr--LIFyg45eoy1thB_5A","LocationType":"point","DisplayPosition":{"Latitude":59.6159,"Longitude":16.5904},"MapView":{"TopLeft":{"Latitude":59.6170242,"Longitude":16.5881775},"BottomRight":{"Latitude":59.6147758,"Longitude":16.5926225}},"Address":{"Label":"Högby Skogsväg 9, SE-723 41 Västerås, Sverige","Country":"SWE","State":"Västmanlands län","County":"Västerås","City":"Västerås","Street":"Högby Skogsväg","HouseNumber":"9","PostalCode":"723 41","AdditionalData":[{"value":"Sverige","key":"CountryName"},{"value":"Västmanlands län","key":"StateName"},{"value":"Västerås","key":"CountyName"}]},"MapReference":{"ReferenceId":"29047458","Spot":0.25,"SideOfStreet":"left","CountryId":"20298368","StateId":"20298890","CountyId":"20298897","CityId":"20298899","AddressId":"217107497","RoadLinkId":"81762040"}}}]}]}}