{"Response":{"MetaInfo":{"Timestamp":"2020-03-28T10:45:22.965+0000","NextPageInformation":"2"},"View":[{"_type":"SearchResultsViewType","ViewId":0,"Result":[{"Relevance":1.0,"Distance":0.0,"Direction":0.0,"MatchLevel":"city","MatchQuality":{"Country":1.0,"State":1.0,"County":1.0,"City":1.0,"PostalCode":1.0},"Location":{"LocationId":"NT_OTfLyV-glkDWsxZWpDOxsB","LocationType":"point","DisplayPosition":{"Latitude":59.9160428,"Longitude":10.5002285},"MapView":{"TopLeft":{"Latitude":59.93022,"Longitude":10.49646},"BottomRight":{"Latitude":59.90583,"Longitude":10.52533}},"Address":{"Label":"Kolsås, Viken, Norge","Country":"NOR","State":"Viken","County":"Bærum","City":"Kolsås","PostalCode":"1352","AdditionalData":[{"value":"Norge","key":"CountryName"},{"value":"Viken","key":"StateName"},{"value":"Bærum","key":"CountyName"}]},"MapReference":{"ReferenceId":"972118080","SideOfStreet":"neither","CountryId":"20418433","StateId":"20421989","CountyId":"20421972","CityId":"20480510"}}},{"Relevance":1.0,"Distance":4.4,"MatchLevel":"street","MatchQuality":{"Country":1.0,"State":1.0,"County":1.0,"City":1.0,"PostalCode":1.0},"Location":{"LocationId":"NT_aAVCyXDUSdWhFryZXiU5SB_l_1012363649_L","LocationType":"point","DisplayPosition":{"Latitude":59.91606,"Longitude":10.5003},"MapView":{"TopLeft":{"Latitude":59.91639,"Longitude":10.49994},"BottomRight":{"Latitude":59.91522,"Longitude":10.5009}},"Address":{"Label":"1352 Kolsås, Norge","Country":"NOR","State":"Viken","County":"Bærum","City":"Kolsås","PostalCode":"1352","AdditionalData":[{"value":"Norge","key":"CountryName"},{"value":"Viken","key":"StateName"},{"value":"Bærum","key":"CountyName"}]},"MapReference":{"ReferenceId":"1012363649","Spot":0.68,"SideOfStreet":"left","CountryId":"20418433","StateId":"20421989","CountyId":"20421972","CityId":"20480510"}}},{"Relevance":1.0,"Distance":47.3,"MatchLevel":"street","MatchQuality":{"Country":1.0,"State":1.0,"County":1.0,"City":1.0,"PostalCode":1.0},"Location":{"LocationId":"NT_aAVCyXDUSdWhFryZXiU5SB_l_1012363646_R","LocationType":"point","DisplayPosition":{"Latitude":59.9162567,"Longitude":10.4994953},"MapView":{"TopLeft":{"Latitude":59.917,"Longitude":10.49939},"BottomRight":{"Latitude":59.91574,"Longitude":10.49979}},"Address":{"Label":"1352 Kolsås, Norge","Country":"NOR","State":"Viken","County":"Bærum","City":"Kolsås","PostalCode":"1352","AdditionalData":[{"value":"Norge","key":"CountryName"},{"value":"Viken","key":"StateName"},{"value":"Bærum","key":"CountyName"}]},"MapReference":{"ReferenceId":"1012363646","Spot":0.4,"SideOfStreet":"right","CountryId":"20418433","StateId":"20421989","CountyId":"20421972","CityId":"20480510"}}},{"Relevance":1.0,"Distance":54.5,"MatchLevel":"street","MatchQuality":{"Country":1.0,"State":1.0,"County":1.0,"City":1.0,"Street":[1.0],"PostalCode":1.0},"Location":{"LocationId":"NT_ZYnN7GfG8IPjGGXtV5QTmB_l_1206193631_R","LocationType":"point","DisplayPosition":{"Latitude":59.9162128,"Longitude":10.4993105},"MapView":{"TopLeft":{"Latitude":59.91702,"Longitude":10.49908},"BottomRight":{"Latitude":59.91603,"Longitude":10.49946}},"Address":{"Label":"Glitterudveien, 1352 Kolsås, Norge","Country":"NOR","State":"Viken","County":"Bærum","City":"Kolsås","Street":"Glitterudveien","PostalCode":"1352","AdditionalData":[{"value":"Norge","key":"CountryName"},{"value":"Viken","key":"StateName"},{"value":"Bærum","key":"CountyName"}]},"MapReference":{"ReferenceId":"1206193631","Spot":0.27,"SideOfStreet":"right","CountryId":"20418433","StateId":"20421989","CountyId":"20421972","CityId":"20480510"}}},{"Relevance":1.0,"Distance":64.0,"MatchLevel":"street","MatchQuality":{"Country":1.0,"State":1.0,"County":1.0,"City":1.0,"PostalCode":1.0},"Location":{"LocationId":"NT_aAVCyXDUSdWhFryZXiU5SB_l_1205984380_R","LocationType":"point","DisplayPosition":{"Latitude":59.91603,"Longitude":10.49908},"MapView":{"TopLeft":{"Latitude":59.91738,"Longitude":10.49757},"BottomRight":{"Latitude":59.91603,"Longitude":10.49908}},"Address":{"Label":"1352 Kolsås, Norge","Country":"NOR","State":"Viken","County":"Bærum","City":"Kolsås","PostalCode":"1352","AdditionalData":[{"value":"Norge","key":"CountryName"},{"value":"Viken","key":"StateName"},{"value":"Bærum","key":"CountyName"}]},"MapReference":{"ReferenceId":"1205984380","Spot":0.0,"SideOfStreet":"right","CountryId":"20418433","StateId":"20421989","CountyId":"20421972","CityId":"20480510"}}},{"Relevance":1.0,"Distance":71.3,"MatchLevel":"street","MatchQuality":{"Country":1.0,"State":1.0,"County":1.0,"City":1.0,"PostalCode":1.0},"Location":{"LocationId":"NT_aAVCyXDUSdWhFryZXiU5SB_l_1012363648_R","LocationType":"point","DisplayPosition":{"Latitude":59.9154599,"Longitude":10.4996974},"MapView":{"TopLeft":{"Latitude":59.91574,"Longitude":10.49939},"BottomRight":{"Latitude":59.91522,"Longitude":10.49994}},"Address":{"Label":"1352 Kolsås, Norge","Country":"NOR","State":"Viken","County":"Bærum","City":"Kolsås","PostalCode":"1352","AdditionalData":[{"value":"Norge","key":"CountryName"},{"value":"Viken","key":"StateName"},{"value":"Bærum","key":"CountyName"}]},"MapReference":{"ReferenceId":"1012363648","Spot":0.45,"SideOfStreet":"right","CountryId":"20418433","StateId":"20421989","CountyId":"20421972","CityId":"20480510"}}},{"Relevance":1.0,"Distance":72.6,"MatchLevel":"street","MatchQuality":{"Country":1.0,"State":1.0,"County":1.0,"City":1.0,"Street":[1.0],"PostalCode":1.0},"Location":{"LocationId":"NT_lYNTngI9o4LsEKpdv1GpmD_l_972118080_R","LocationType":"point","DisplayPosition":{"Latitude":59.91559,"Longitude":10.49929},"MapView":{"TopLeft":{"Latitude":59.91598,"Longitude":10.4989},"BottomRight":{"Latitude":59.91559,"Longitude":10.49929}},"Address":{"Label":"Brynsveien, 1352 Kolsås, Norge","Country":"NOR","State":"Viken","County":"Bærum","City":"Kolsås","Street":"Brynsveien","PostalCode":"1352","AdditionalData":[{"value":"Norge","key":"CountryName"},{"value":"Viken","key":"StateName"},{"value":"Bærum","key":"CountyName"}]},"MapReference":{"ReferenceId":"972118080","Spot":0.0,"SideOfStreet":"right","CountryId":"20418433","StateId":"20421989","CountyId":"20421972","CityId":"20480510"}}},{"Relevance":1.0,"Distance":78.2,"MatchLevel":"houseNumber","MatchQuality":{"Country":1.0,"State":1.0,"County":1.0,"City":1.0,"Street":[1.0],"HouseNumber":1.0,"PostalCode":1.0},"MatchType":"interpolated","Location":{"LocationId":"NT_.gGp9EfEM2XeHg1gURjVCD_xA","LocationType":"point","DisplayPosition":{"Latitude":59.91696,"Longitude":10.50057},"MapView":{"TopLeft":{"Latitude":59.9180842,"Longitude":10.4983273},"BottomRight":{"Latitude":59.9158358,"Longitude":10.5028127}},"Address":{"Label":"Rødskiferveien 1, 1352 Kolsås, Norge","Country":"NOR","State":"Viken","County":"Bærum","City":"Kolsås","Street":"Rødskiferveien","HouseNumber":"1","PostalCode":"1352","AdditionalData":[{"value":"Norge","key":"CountryName"},{"value":"Viken","key":"StateName"},{"value":"Bærum","key":"CountyName"}]},"MapReference":{"ReferenceId":"1012363644","Spot":0.08,"SideOfStreet":"left","CountryId":"20418433","StateId":"20421989","CountyId":"20421972","CityId":"20480510","AddressId":"303006573","RoadLinkId":"336572269"}}},{"Relevance":1.0,"Distance":79.2,"MatchLevel":"street","MatchQuality":{"Country":1.0,"State":1.0,"County":1.0,"City":1.0,"Street":[1.0],"PostalCode":1.0},"Location":{"LocationId":"NT_1eas0myTTX9Cg7WRl8K5FA_l_972118082_R","LocationType":"point","DisplayPosition":{"Latitude":59.91545,"Longitude":10.49944},"MapView":{"TopLeft":{"Latitude":59.91559,"Longitude":10.49929},"BottomRight":{"Latitude":59.91545,"Longitude":10.49944}},"Address":{"Label":"Brynsveien, 1352 Kolsås, Norge","Country":"NOR","State":"Viken","County":"Bærum","City":"Kolsås","Street":"Brynsveien","PostalCode":"1352","AdditionalData":[{"value":"Norge","key":"CountryName"},{"value":"Viken","key":"StateName"},{"value":"Bærum","key":"CountyName"}]},"MapReference":{"ReferenceId":"972118082","Spot":0.0,"SideOfStreet":"right","CountryId":"20418433","StateId":"20421989","CountyId":"20421972","CityId":"20480510"}}},{"Relevance":1.0,"Distance":82.9,"MatchLevel":"street","MatchQuality":{"Country":1.0,"State":1.0,"County":1.0,"City":1.0,"Street":[1.0],"PostalCode":1.0},"Location":{"LocationId":"NT_1eas0myTTX9Cg7WRl8K5FA_l_1120786013_R","LocationType":"point","DisplayPosition":{"Latitude":59.91539,"Longitude":10.49951},"MapView":{"TopLeft":{"Latitude":59.91545,"Longitude":10.49944},"BottomRight":{"Latitude":59.91539,"Longitude":10.49951}},"Address":{"Label":"Brynsveien, 1352 Kolsås, Norge","Country":"NOR","State":"Viken","County":"Bærum","City":"Kolsås","Street":"Brynsveien","PostalCode":"1352","AdditionalData":[{"value":"Norge","key":"CountryName"},{"value":"Viken","key":"StateName"},{"value":"Bærum","key":"CountyName"}]},"MapReference":{"ReferenceId":"1120786013","Spot":0.0,"SideOfStreet":"right","CountryId":"20418433","StateId":"20421989","CountyId":"20421972","CityId":"20480510"}}}]}]}}