{"Response":{"MetaInfo":{"Timestamp":"2020-03-28T11:06:48.683+0000","NextPageInformation":"2"},"View":[{"_type":"SearchResultsViewType","ViewId":0,"Result":[{"Relevance":1.0,"Distance":0.0,"Direction":0.0,"MatchLevel":"district","MatchQuality":{"Country":1.0,"State":1.0,"County":1.0,"City":1.0,"District":1.0,"PostalCode":1.0},"Location":{"LocationId":"NT_WlSd4EbOv3y1VvylC1OFwB","LocationType":"point","DisplayPosition":{"Latitude":60.160264,"Longitude":24.7483004},"MapView":{"TopLeft":{"Latitude":60.27021,"Longitude":24.61043},"BottomRight":{"Latitude":60.10574,"Longitude":24.85124}},"Address":{"Label":"Espoo, Etelä-Suomi, Suomi","Country":"FIN","State":"Etelä-Suomi","County":"Uusimaa","City":"Espoo","District":"Espoo","PostalCode":"02770","AdditionalData":[{"value":"Suomi","key":"CountryName"},{"value":"Etelä-Suomi","key":"StateName"},{"value":"Uusimaa","key":"CountyName"}]},"MapReference":{"ReferenceId":"782925993","SideOfStreet":"neither","CountryId":"20241487","StateId":"20422913","CountyId":"20422914","CityId":"20864188","DistrictId":"20448572"}}},{"Relevance":1.0,"Distance":21.1,"MatchLevel":"houseNumber","MatchQuality":{"Country":1.0,"State":1.0,"County":1.0,"City":1.0,"District":1.0,"Street":[1.0],"HouseNumber":1.0,"PostalCode":1.0},"MatchType":"interpolated","Location":{"LocationId":"NT_fE66Qw41hovdGbtuFtQhGC_xA","LocationType":"point","DisplayPosition":{"Latitude":60.15985,"Longitude":24.74886},"MapView":{"TopLeft":{"Latitude":60.1609742,"Longitude":24.7466008},"BottomRight":{"Latitude":60.1587258,"Longitude":24.7511192}},"Address":{"Label":"Matinkatu 1, FI-02230 Espoo, Suomi","Country":"FIN","State":"Etelä-Suomi","County":"Uusimaa","City":"Espoo","District":"Espoo","Street":"Matinkatu","HouseNumber":"1","PostalCode":"02230","AdditionalData":[{"value":"Suomi","key":"CountryName"},{"value":"Etelä-Suomi","key":"StateName"},{"value":"Uusimaa","key":"CountyName"}]},"MapReference":{"ReferenceId":"1160274064","Spot":0.62,"SideOfStreet":"left","CountryId":"20241487","StateId":"20422913","CountyId":"20422914","CityId":"20448374","DistrictId":"20448572","AddressId":"263202418","RoadLinkId":"466747508"}}},{"Relevance":1.0,"Distance":41.5,"MatchLevel":"street","MatchQuality":{"Country":1.0,"State":1.0,"County":1.0,"City":1.0,"District":1.0,"PostalCode":1.0},"Location":{"LocationId":"NT_cdaO7euinVxeXdCF1kikqD_l_1241291777_L","LocationType":"point","DisplayPosition":{"Latitude":60.15991,"Longitude":24.74854},"MapView":{"TopLeft":{"Latitude":60.15996,"Longitude":24.74852},"BottomRight":{"Latitude":60.15979,"Longitude":24.74874}},"Address":{"Label":"FI-02230 Espoo, Suomi","Country":"FIN","State":"Etelä-Suomi","County":"Uusimaa","City":"Espoo","District":"Espoo","PostalCode":"02230","AdditionalData":[{"value":"Suomi","key":"CountryName"},{"value":"Etelä-Suomi","key":"StateName"},{"value":"Uusimaa","key":"CountyName"}]},"MapReference":{"ReferenceId":"1241291777","Spot":0.39,"SideOfStreet":"left","CountryId":"20241487","StateId":"20422913","CountyId":"20422914","CityId":"20448374","DistrictId":"20448572"}}},{"Relevance":1.0,"Distance":41.6,"MatchLevel":"street","MatchQuality":{"Country":1.0,"State":1.0,"County":1.0,"City":1.0,"District":1.0,"PostalCode":1.0},"Location":{"LocationId":"NT_cdaO7euinVxeXdCF1kikqD_l_1241291778_R","LocationType":"point","DisplayPosition":{"Latitude":60.15996,"Longitude":24.74874},"MapView":{"TopLeft":{"Latitude":60.15998,"Longitude":24.74874},"BottomRight":{"Latitude":60.15989,"Longitude":24.74905}},"Address":{"Label":"FI-02230 Espoo, Suomi","Country":"FIN","State":"Etelä-Suomi","County":"Uusimaa","City":"Espoo","District":"Espoo","PostalCode":"02230","AdditionalData":[{"value":"Suomi","key":"CountryName"},{"value":"Etelä-Suomi","key":"StateName"},{"value":"Uusimaa","key":"CountyName"}]},"MapReference":{"ReferenceId":"1241291778","Spot":1.0,"SideOfStreet":"right","CountryId":"20241487","StateId":"20422913","CountyId":"20422914","CityId":"20448374","DistrictId":"20448572"}}},{"Relevance":1.0,"Distance":42.8,"MatchLevel":"street","MatchQuality":{"Country":1.0,"State":1.0,"County":1.0,"City":1.0,"District":1.0,"Street":[1.0],"PostalCode":1.0},"Location":{"LocationId":"NT_23CzOg0Olm7VrSsSDZNNdD_l_1091003781_L","LocationType":"point","DisplayPosition":{"Latitude":60.1606339,"Longitude":24.7485162},"MapView":{"TopLeft":{"Latitude":60.16069,"Longitude":24.74842},"BottomRight":{"Latitude":60.16056,"Longitude":24.74945}},"Address":{"Label":"Matinsyrjä, FI-02230 Espoo, Suomi","Country":"FIN","State":"Etelä-Suomi","County":"Uusimaa","City":"Espoo","District":"Espoo","Street":"Matinsyrjä","PostalCode":"02230","AdditionalData":[{"value":"Suomi","key":"CountryName"},{"value":"Etelä-Suomi","key":"StateName"},{"value":"Uusimaa","key":"CountyName"}]},"MapReference":{"ReferenceId":"1091003781","Spot":0.89,"SideOfStreet":"left","CountryId":"20241487","StateId":"20422913","CountyId":"20422914","CityId":"20448374","DistrictId":"20448572"}}},{"Relevance":1.0,"Distance":45.6,"MatchLevel":"street","MatchQuality":{"Country":1.0,"State":1.0,"County":1.0,"City":1.0,"District":1.0,"PostalCode":1.0},"Location":{"LocationId":"NT_cdaO7euinVxeXdCF1kikqD_l_1091003772_R","LocationType":"point","DisplayPosition":{"Latitude":60.1606731,"Longitude":24.748242},"MapView":{"TopLeft":{"Latitude":60.16069,"Longitude":24.74751},"BottomRight":{"Latitude":60.16047,"Longitude":24.74842}},"Address":{"Label":"FI-02230 Espoo, Suomi","Country":"FIN","State":"Etelä-Suomi","County":"Uusimaa","City":"Espoo","District":"Espoo","PostalCode":"02230","AdditionalData":[{"value":"Suomi","key":"CountryName"},{"value":"Etelä-Suomi","key":"StateName"},{"value":"Uusimaa","key":"CountyName"}]},"MapReference":{"ReferenceId":"1091003772","Spot":0.81,"SideOfStreet":"right","CountryId":"20241487","StateId":"20422913","CountyId":"20422914","CityId":"20448374","DistrictId":"20448572"}}},{"Relevance":1.0,"Distance":49.4,"MatchLevel":"street","MatchQuality":{"Country":1.0,"State":1.0,"County":1.0,"City":1.0,"District":1.0,"Street":[1.0],"PostalCode":1.0},"Location":{"LocationId":"NT_W.QsPtmGyBOMlkJz7MB1aC_l_1091003773_R","LocationType":"point","DisplayPosition":{"Latitude":60.16047,"Longitude":24.74751},"MapView":{"TopLeft":{"Latitude":60.16047,"Longitude":24.74723},"BottomRight":{"Latitude":60.16013,"Longitude":24.74751}},"Address":{"Label":"Kotoniitynpolku, FI-02230 Espoo, Suomi","Country":"FIN","State":"Etelä-Suomi","County":"Uusimaa","City":"Espoo","District":"Espoo","Street":"Kotoniitynpolku","PostalCode":"02230","AdditionalData":[{"value":"Suomi","key":"CountryName"},{"value":"Etelä-Suomi","key":"StateName"},{"value":"Uusimaa","key":"CountyName"}]},"MapReference":{"ReferenceId":"1091003773","Spot":1.0,"SideOfStreet":"right","CountryId":"20241487","StateId":"20422913","CountyId":"20422914","CityId":"20448374","DistrictId":"20448572"}}},{"Relevance":1.0,"Distance":49.4,"MatchLevel":"street","MatchQuality":{"Country":1.0,"State":1.0,"County":1.0,"City":1.0,"District":1.0,"Street":[1.0],"PostalCode":1.0},"Location":{"LocationId":"NT_W.QsPtmGyBOMlkJz7MB1aC_l_1091003771_L","LocationType":"point","DisplayPosition":{"Latitude":60.16047,"Longitude":24.74751},"MapView":{"TopLeft":{"Latitude":60.16073,"Longitude":24.74617},"BottomRight":{"Latitude":60.16044,"Longitude":24.74751}},"Address":{"Label":"Kotoniitynpolku, FI-02230 Espoo, Suomi","Country":"FIN","State":"Etelä-Suomi","County":"Uusimaa","City":"Espoo","District":"Espoo","Street":"Kotoniitynpolku","PostalCode":"02230","AdditionalData":[{"value":"Suomi","key":"CountryName"},{"value":"Etelä-Suomi","key":"StateName"},{"value":"Uusimaa","key":"CountyName"}]},"MapReference":{"ReferenceId":"1091003771","Spot":0.0,"SideOfStreet":"left","CountryId":"20241487","StateId":"20422913","CountyId":"20422914","CityId":"20448374","DistrictId":"20448572"}}},{"Relevance":1.0,"Distance":56.6,"MatchLevel":"landmark","MatchQuality":{"Country":1.0,"State":1.0,"County":1.0,"City":1.0,"District":1.0,"Street":[1.0],"HouseNumber":1.0,"PostalCode":1.0,"Name":1.0},"Location":{"LocationId":"NT_zoSuz18B4jsw6.KbeC9O0C_p_Prb8xE1YPNkPccZ3cYKWuD","LocationType":"park","Name":"Matinkylän Urheilupuisto","DisplayPosition":{"Latitude":60.15662,"Longitude":24.75226},"MapView":{"TopLeft":{"Latitude":60.1577442,"Longitude":24.750001},"BottomRight":{"Latitude":60.1554958,"Longitude":24.754519}},"Address":{"Label":"Matinkartanontie 1, FI-02230 Espoo, Suomi","Country":"FIN","State":"Etelä-Suomi","County":"Uusimaa","City":"Espoo","District":"Espoo","Street":"Matinkartanontie","HouseNumber":"1","PostalCode":"02230","AdditionalData":[{"value":"Suomi","key":"CountryName"},{"value":"Etelä-Suomi","key":"StateName"},{"value":"Uusimaa","key":"CountyName"}]},"MapReference":{"CountryId":"20241487","StateId":"20422913","CountyId":"20422914","CityId":"20448374","DistrictId":"20448572","PlaceId":"553714235"}}},{"Relevance":1.0,"Distance":56.6,"MatchLevel":"street","MatchQuality":{"Country":1.0,"State":1.0,"County":1.0,"City":1.0,"District":1.0,"Street":[1.0],"PostalCode":1.0},"Location":{"LocationId":"NT_4JktTjUaHhZuwOab7a7DQC_l_1211513015_L","LocationType":"point","DisplayPosition":{"Latitude":60.16018,"Longitude":24.74931},"MapView":{"TopLeft":{"Latitude":60.16039,"Longitude":24.74931},"BottomRight":{"Latitude":60.16005,"Longitude":24.74935}},"Address":{"Label":"Matinkartanontie, FI-02230 Espoo, Suomi","Country":"FIN","State":"Etelä-Suomi","County":"Uusimaa","City":"Espoo","District":"Espoo","Street":"Matinkartanontie","PostalCode":"02230","AdditionalData":[{"value":"Suomi","key":"CountryName"},{"value":"Etelä-Suomi","key":"StateName"},{"value":"Uusimaa","key":"CountyName"}]},"MapReference":{"ReferenceId":"1211513015","Spot":0.39,"SideOfStreet":"left","CountryId":"20241487","StateId":"20422913","CountyId":"20422914","CityId":"20448374","DistrictId":"20448572"}}}]}]}}