{"Response":{"MetaInfo":{"Timestamp":"2020-03-28T11:06:33.681+0000","NextPageInformation":"2"},"View":[{"_type":"SearchResultsViewType","ViewId":0,"Result":[{"Relevance":1.0,"Distance":0.0,"Direction":0.0,"MatchLevel":"district","MatchQuality":{"Country":1.0,"State":1.0,"County":1.0,"City":1.0,"District":1.0,"PostalCode":1.0},"Location":{"LocationId":"NT_F0VVl7WkfnzwUBy8XxNC1D","LocationType":"point","DisplayPosition":{"Latitude":60.1882121,"Longitude":24.9798252},"MapView":{"TopLeft":{"Latitude":60.19847,"Longitude":24.95311},"BottomRight":{"Latitude":60.17569,"Longitude":24.98667}},"Address":{"Label":"Sörnäinen, Helsinki, Etelä-Suomi, Suomi","Country":"FIN","State":"Etelä-Suomi","County":"Uusimaa","City":"Helsinki","District":"Sörnäinen","PostalCode":"00500","AdditionalData":[{"value":"Suomi","key":"CountryName"},{"value":"Etelä-Suomi","key":"StateName"},{"value":"Uusimaa","key":"CountyName"}]},"MapReference":{"ReferenceId":"554899925","SideOfStreet":"neither","CountryId":"20241487","StateId":"20422913","CountyId":"20422914","CityId":"20422915"}}},{"Relevance":1.0,"Distance":2.0,"MatchLevel":"houseNumber","MatchQuality":{"Country":1.0,"State":1.0,"County":1.0,"City":1.0,"District":1.0,"Street":[1.0],"HouseNumber":1.0,"PostalCode":1.0},"MatchType":"interpolated","Location":{"LocationId":"NT_F5nRQOiF3sA.m-XYjklljB_xMD","LocationType":"point","DisplayPosition":{"Latitude":60.18825,"Longitude":24.97965},"MapView":{"TopLeft":{"Latitude":60.1893742,"Longitude":24.9773888},"BottomRight":{"Latitude":60.1871258,"Longitude":24.9819112}},"Address":{"Label":"Kalasatamankatu 13, FI-00580 Helsinki, Suomi","Country":"FIN","State":"Etelä-Suomi","County":"Uusimaa","City":"Helsinki","District":"Sörnäinen","Street":"Kalasatamankatu","HouseNumber":"13","PostalCode":"00580","AdditionalData":[{"value":"Suomi","key":"CountryName"},{"value":"Etelä-Suomi","key":"StateName"},{"value":"Uusimaa","key":"CountyName"}]},"MapReference":{"ReferenceId":"1210774341","Spot":0.39,"SideOfStreet":"right","CountryId":"20241487","StateId":"20422913","CountyId":"20422914","CityId":"20422915","AddressId":"771332418","RoadLinkId":"525793359"}}},{"Relevance":1.0,"Distance":48.1,"MatchLevel":"landmark","MatchQuality":{"Country":1.0,"State":1.0,"County":1.0,"City":1.0,"District":1.0,"Street":[1.0],"PostalCode":1.0,"Name":1.0},"Location":{"LocationId":"NT_71agYa2g2iqzoR-saT7OoC_p_LSgo90sAjGyaAi82wQ-1GD","LocationType":"shoppingCentre","Name":"Redi","DisplayPosition":{"Latitude":60.18602,"Longitude":24.97862},"MapView":{"TopLeft":{"Latitude":60.18801,"Longitude":24.97703},"BottomRight":{"Latitude":60.18592,"Longitude":24.98169}},"Address":{"Label":"Leonkatu, FI-00540 Helsinki, Suomi","Country":"FIN","State":"Etelä-Suomi","County":"Uusimaa","City":"Helsinki","District":"Sörnäinen","Street":"Leonkatu","PostalCode":"00540","AdditionalData":[{"value":"Suomi","key":"CountryName"},{"value":"Etelä-Suomi","key":"StateName"},{"value":"Uusimaa","key":"CountyName"}]},"MapReference":{"CountryId":"20241487","StateId":"20422913","CountyId":"20422914","CityId":"20422915","PlaceId":"1203926733"}}},{"Relevance":1.0,"Distance":49.2,"MatchLevel":"houseNumber","MatchQuality":{"Country":1.0,"State":1.0,"County":1.0,"City":1.0,"District":1.0,"Street":[1.0],"HouseNumber":1.0,"PostalCode":1.0},"MatchType":"interpolated","Location":{"LocationId":"NT_07MV-4sUfNoT8cYlm9BVzA_xkD","LocationType":"point","DisplayPosition":{"Latitude":60.18777,"Longitude":24.97983},"MapView":{"TopLeft":{"Latitude":60.1888942,"Longitude":24.9775688},"BottomRight":{"Latitude":60.1866458,"Longitude":24.9820912}},"Address":{"Label":"Työpajankatu 19, FI-00580 Helsinki, Suomi","Country":"FIN","State":"Etelä-Suomi","County":"Uusimaa","City":"Helsinki","District":"Sörnäinen","Street":"Työpajankatu","HouseNumber":"19","PostalCode":"00580","AdditionalData":[{"value":"Suomi","key":"CountryName"},{"value":"Etelä-Suomi","key":"StateName"},{"value":"Uusimaa","key":"CountyName"}]},"MapReference":{"ReferenceId":"1228309888","Spot":0.33,"SideOfStreet":"left","CountryId":"20241487","StateId":"20422913","CountyId":"20422914","CityId":"20422915","AddressId":"771332543","RoadLinkId":"547225902"}}},{"Relevance":1.0,"Distance":52.5,"MatchLevel":"street","MatchQuality":{"Country":1.0,"State":1.0,"County":1.0,"City":1.0,"District":1.0,"PostalCode":1.0},"Location":{"LocationId":"NT_BoHdUUG9.aJDostLYavhHB_l_1228309889_R","LocationType":"point","DisplayPosition":{"Latitude":60.18775,"Longitude":24.98002},"MapView":{"TopLeft":{"Latitude":60.18775,"Longitude":24.98002},"BottomRight":{"Latitude":60.18766,"Longitude":24.98071}},"Address":{"Label":"FI-00580 Helsinki, Suomi","Country":"FIN","State":"Etelä-Suomi","County":"Uusimaa","City":"Helsinki","District":"Sörnäinen","PostalCode":"00580","AdditionalData":[{"value":"Suomi","key":"CountryName"},{"value":"Etelä-Suomi","key":"StateName"},{"value":"Uusimaa","key":"CountyName"}]},"MapReference":{"ReferenceId":"1228309889","Spot":1.0,"SideOfStreet":"right","CountryId":"20241487","StateId":"20422913","CountyId":"20422914","CityId":"20422915"}}},{"Relevance":1.0,"Distance":55.2,"MatchLevel":"houseNumber","MatchQuality":{"Country":1.0,"State":1.0,"County":1.0,"City":1.0,"District":1.0,"Street":[1.0],"HouseNumber":1.0,"PostalCode":1.0},"MatchType":"interpolated","Location":{"LocationId":"NT_YEocvGmcqZGczbdtCCg2HC_3A","LocationType":"point","DisplayPosition":{"Latitude":60.18879,"Longitude":24.98048},"MapView":{"TopLeft":{"Latitude":60.1899142,"Longitude":24.9782188},"BottomRight":{"Latitude":60.1876658,"Longitude":24.9827412}},"Address":{"Label":"Tukkutorinkuja 7, FI-00580 Helsinki, Suomi","Country":"FIN","State":"Etelä-Suomi","County":"Uusimaa","City":"Helsinki","District":"Sörnäinen","Street":"Tukkutorinkuja","HouseNumber":"7","PostalCode":"00580","AdditionalData":[{"value":"Suomi","key":"CountryName"},{"value":"Etelä-Suomi","key":"StateName"},{"value":"Uusimaa","key":"CountyName"}]},"MapReference":{"ReferenceId":"1210774339","Spot":0.73,"SideOfStreet":"left","CountryId":"20241487","StateId":"20422913","CountyId":"20422914","CityId":"20422915","AddressId":"771328015","RoadLinkId":"525793357"}}},{"Relevance":1.0,"Distance":63.5,"MatchLevel":"houseNumber","MatchQuality":{"Country":1.0,"State":1.0,"County":1.0,"City":1.0,"District":1.0,"Street":[1.0],"HouseNumber":1.0,"PostalCode":1.0},"MatchType":"interpolated","Location":{"LocationId":"NT_07MV-4sUfNoT8cYlm9BVzA_xID","LocationType":"point","DisplayPosition":{"Latitude":60.18792,"Longitude":24.97855},"MapView":{"TopLeft":{"Latitude":60.1890442,"Longitude":24.9762888},"BottomRight":{"Latitude":60.1867958,"Longitude":24.9808112}},"Address":{"Label":"Työpajankatu 12, FI-00580 Helsinki, Suomi","Country":"FIN","State":"Etelä-Suomi","County":"Uusimaa","City":"Helsinki","District":"Sörnäinen","Street":"Työpajankatu","HouseNumber":"12","PostalCode":"00580","AdditionalData":[{"value":"Suomi","key":"CountryName"},{"value":"Etelä-Suomi","key":"StateName"},{"value":"Uusimaa","key":"CountyName"}]},"MapReference":{"ReferenceId":"1210774338","Spot":0.54,"SideOfStreet":"right","CountryId":"20241487","StateId":"20422913","CountyId":"20422914","CityId":"20422915","AddressId":"771332652","RoadLinkId":"525793352"}}},{"Relevance":1.0,"Distance":63.5,"MatchLevel":"houseNumber","MatchQuality":{"Country":1.0,"State":1.0,"County":1.0,"City":1.0,"District":1.0,"Street":[1.0],"HouseNumber":1.0,"PostalCode":1.0},"MatchType":"interpolated","Location":{"LocationId":"NT_WjPDEy9MjtydxcL.rjNB-A_xMD","LocationType":"point","DisplayPosition":{"Latitude":60.18854,"Longitude":24.97805},"MapView":{"TopLeft":{"Latitude":60.1896642,"Longitude":24.9757888},"BottomRight":{"Latitude":60.1874158,"Longitude":24.9803112}},"Address":{"Label":"Hermannin rantatie 13, FI-00580 Helsinki, Suomi","Country":"FIN","State":"Etelä-Suomi","County":"Uusimaa","City":"Helsinki","District":"Sörnäinen","Street":"Hermannin rantatie","HouseNumber":"13","PostalCode":"00580","AdditionalData":[{"value":"Suomi","key":"CountryName"},{"value":"Etelä-Suomi","key":"StateName"},{"value":"Uusimaa","key":"CountyName"}]},"MapReference":{"ReferenceId":"1255228010","Spot":0.27,"SideOfStreet":"right","CountryId":"20241487","StateId":"20422913","CountyId":"20422914","CityId":"20422915","AddressId":"771326978","RoadLinkId":"578628000"}}},{"Relevance":1.0,"Distance":71.7,"MatchLevel":"houseNumber","MatchQuality":{"Country":1.0,"State":1.0,"County":1.0,"City":1.0,"District":1.0,"Street":[1.0],"HouseNumber":1.0,"PostalCode":1.0},"MatchType":"interpolated","Location":{"LocationId":"NT_07MV-4sUfNoT8cYlm9BVzA_yED","LocationType":"point","DisplayPosition":{"Latitude":60.18765,"Longitude":24.98046},"MapView":{"TopLeft":{"Latitude":60.1887742,"Longitude":24.9781989},"BottomRight":{"Latitude":60.1865258,"Longitude":24.9827211}},"Address":{"Label":"Työpajankatu 21, FI-00580 Helsinki, Suomi","Country":"FIN","State":"Etelä-Suomi","County":"Uusimaa","City":"Helsinki","District":"Sörnäinen","Street":"Työpajankatu","HouseNumber":"21","PostalCode":"00580","AdditionalData":[{"value":"Suomi","key":"CountryName"},{"value":"Etelä-Suomi","key":"StateName"},{"value":"Uusimaa","key":"CountyName"}]},"MapReference":{"ReferenceId":"1248662108","Spot":0.73,"SideOfStreet":"left","CountryId":"20241487","StateId":"20422913","CountyId":"20422914","CityId":"20422915","AddressId":"771332749","RoadLinkId":"571246665"}}},{"Relevance":1.0,"Distance":73.9,"MatchLevel":"houseNumber","MatchQuality":{"Country":1.0,"State":1.0,"County":1.0,"City":1.0,"District":1.0,"Street":[1.0],"HouseNumber":1.0,"PostalCode":1.0},"MatchType":"interpolated","Location":{"LocationId":"NT_07MV-4sUfNoT8cYlm9BVzA_xQD","LocationType":"point","DisplayPosition":{"Latitude":60.18771,"Longitude":24.9807},"MapView":{"TopLeft":{"Latitude":60.1888342,"Longitude":24.9784389},"BottomRight":{"Latitude":60.1865858,"Longitude":24.9829611}},"Address":{"Label":"Työpajankatu 14, FI-00580 Helsinki, Suomi","Country":"FIN","State":"Etelä-Suomi","County":"Uusimaa","City":"Helsinki","District":"Sörnäinen","Street":"Työpajankatu","HouseNumber":"14","PostalCode":"00580","AdditionalData":[{"value":"Suomi","key":"CountryName"},{"value":"Etelä-Suomi","key":"StateName"},{"value":"Uusimaa","key":"CountyName"}]},"MapReference":{"ReferenceId":"1235384440","Spot":0.49,"SideOfStreet":"right","CountryId":"20241487","StateId":"20422913","CountyId":"20422914","CityId":"20422915","AddressId":"754709406","RoadLinkId":"555873522"}}}]}]}}