{"Response":{"MetaInfo":{"Timestamp":"2020-03-28T11:07:20.673+0000","NextPageInformation":"2"},"View":[{"_type":"SearchResultsViewType","ViewId":0,"Result":[{"Relevance":1.0,"Distance":-312.1,"MatchLevel":"landmark","MatchQuality":{"Country":1.0,"State":1.0,"County":1.0,"Name":1.0},"Location":{"LocationId":"NT_-Z.mbMYHIDR5OcrLuCgIkB","LocationType":"island","Name":"Åland","DisplayPosition":{"Latitude":60.24424,"Longitude":20.12333},"MapView":{"TopLeft":{"Latitude":60.42775,"Longitude":19.63456},"BottomRight":{"Latitude":60.06072,"Longitude":20.27529}},"Address":{"Label":"Finland","Country":"FIN","State":"Åland","County":"Åland","AdditionalData":[{"value":"Finland","key":"CountryName"},{"value":"Åland","key":"StateName"},{"value":"Åland","key":"CountyName"}]},"MapReference":{"CountryId":"20241487","StateId":"20501531","CountyId":"20501532","PlaceId":"553584450"}}},{"Relevance":1.0,"Distance":0.0,"Direction":0.0,"MatchLevel":"district","MatchQuality":{"Country":1.0,"State":1.0,"County":1.0,"City":1.0,"District":1.0,"PostalCode":1.0},"Location":{"LocationId":"NT_WrYxG0pftnW7mc7WnSHBAC","LocationType":"point","DisplayPosition":{"Latitude":60.1140735,"Longitude":19.9301486},"MapView":{"TopLeft":{"Latitude":60.12849,"Longitude":19.92275},"BottomRight":{"Latitude":60.07236,"Longitude":19.96568}},"Address":{"Label":"Mariehamn, Åland, Finland","Country":"FIN","State":"Åland","County":"Åland","City":"Mariehamn","District":"Mariehamn","PostalCode":"22100","AdditionalData":[{"value":"Finland","key":"CountryName"},{"value":"Åland","key":"StateName"},{"value":"Åland","key":"CountyName"}]},"MapReference":{"ReferenceId":"577541414","SideOfStreet":"neither","CountryId":"20241487","StateId":"20501531","CountyId":"20501532","CityId":"20501575","DistrictId":"20501577"}}},{"Relevance":1.0,"Distance":43.6,"MatchLevel":"street","MatchQuality":{"Country":1.0,"State":1.0,"County":1.0,"City":1.0,"District":1.0,"PostalCode":1.0},"Location":{"LocationId":"NT_tg0sOdsq5WUvn3QAdJulOA_l_577541416_R","LocationType":"point","DisplayPosition":{"Latitude":60.1137111,"Longitude":19.9298466},"MapView":{"TopLeft":{"Latitude":60.11386,"Longitude":19.92932},"BottomRight":{"Latitude":60.1137,"Longitude":19.92986}},"Address":{"Label":"FI-22100 Mariehamn, Finland","Country":"FIN","State":"Åland","County":"Åland","City":"Mariehamn","District":"Mariehamn","PostalCode":"22100","AdditionalData":[{"value":"Finland","key":"CountryName"},{"value":"Åland","key":"StateName"},{"value":"Åland","key":"CountyName"}]},"MapReference":{"ReferenceId":"577541416","Spot":0.03,"SideOfStreet":"right","CountryId":"20241487","StateId":"20501531","CountyId":"20501532","CityId":"20501575","DistrictId":"20501577"}}},{"Relevance":1.0,"Distance":44.5,"MatchLevel":"street","MatchQuality":{"Country":1.0,"State":1.0,"County":1.0,"City":1.0,"District":1.0,"PostalCode":1.0},"Location":{"LocationId":"NT_tg0sOdsq5WUvn3QAdJulOA_l_577541465_R","LocationType":"point","DisplayPosition":{"Latitude":60.1137,"Longitude":19.92986},"MapView":{"TopLeft":{"Latitude":60.1137,"Longitude":19.92982},"BottomRight":{"Latitude":60.11341,"Longitude":19.92992}},"Address":{"Label":"FI-22100 Mariehamn, Finland","Country":"FIN","State":"Åland","County":"Åland","City":"Mariehamn","District":"Mariehamn","PostalCode":"22100","AdditionalData":[{"value":"Finland","key":"CountryName"},{"value":"Åland","key":"StateName"},{"value":"Åland","key":"CountyName"}]},"MapReference":{"ReferenceId":"577541465","Spot":1.0,"SideOfStreet":"right","CountryId":"20241487","StateId":"20501531","CountyId":"20501532","CityId":"20501575","DistrictId":"20501577"}}},{"Relevance":1.0,"Distance":45.1,"MatchLevel":"street","MatchQuality":{"Country":1.0,"State":1.0,"County":1.0,"City":1.0,"District":1.0,"Street":[1.0],"PostalCode":1.0},"Location":{"LocationId":"NT_jpl6iJeM2jUyrQxPaVDWcC_l_577695537_R","LocationType":"point","DisplayPosition":{"Latitude":60.1136679,"Longitude":19.9301196},"MapView":{"TopLeft":{"Latitude":60.1137,"Longitude":19.92986},"BottomRight":{"Latitude":60.11366,"Longitude":19.93068}},"Address":{"Label":"Sjukhusvägen, FI-22100 Mariehamn, Finland","Country":"FIN","State":"Åland","County":"Åland","City":"Mariehamn","District":"Mariehamn","Street":"Sjukhusvägen","PostalCode":"22100","AdditionalData":[{"value":"Finland","key":"CountryName"},{"value":"Åland","key":"StateName"},{"value":"Åland","key":"CountyName"}]},"MapReference":{"ReferenceId":"577695537","Spot":0.68,"SideOfStreet":"right","CountryId":"20241487","StateId":"20501531","CountyId":"20501532","CityId":"20501575","DistrictId":"20501577"}}},{"Relevance":1.0,"Distance":48.6,"MatchLevel":"houseNumber","MatchQuality":{"Country":1.0,"State":1.0,"County":1.0,"City":1.0,"District":1.0,"Street":[1.0],"HouseNumber":1.0,"PostalCode":1.0},"MatchType":"interpolated","Location":{"LocationId":"NT_Gc6r2Pqz3jFhRX5bNgVlRA_zAD","LocationType":"point","DisplayPosition":{"Latitude":60.11454,"Longitude":19.92997},"MapView":{"TopLeft":{"Latitude":60.1156642,"Longitude":19.9277139},"BottomRight":{"Latitude":60.1134158,"Longitude":19.9322261}},"Address":{"Label":"Åsvägen 30, FI-22100 Mariehamn, Finland","Country":"FIN","State":"Åland","County":"Åland","City":"Mariehamn","District":"Mariehamn","Street":"Åsvägen","HouseNumber":"30","PostalCode":"22100","AdditionalData":[{"value":"Finland","key":"CountryName"},{"value":"Åland","key":"StateName"},{"value":"Åland","key":"CountyName"}]},"MapReference":{"ReferenceId":"1209843709","Spot":0.27,"SideOfStreet":"left","CountryId":"20241487","StateId":"20501531","CountyId":"20501532","CityId":"20501575","DistrictId":"20501577","AddressId":"775080202","RoadLinkId":"524613911"}}},{"Relevance":1.0,"Distance":51.7,"MatchLevel":"street","MatchQuality":{"Country":1.0,"State":1.0,"County":1.0,"City":1.0,"District":1.0,"Street":[1.0],"PostalCode":1.0},"Location":{"LocationId":"NT_7q-w2A2rdcSm8O.q8SKqKA_l_1241444689_R","LocationType":"point","DisplayPosition":{"Latitude":60.11386,"Longitude":19.92932},"MapView":{"TopLeft":{"Latitude":60.11494,"Longitude":19.92885},"BottomRight":{"Latitude":60.11386,"Longitude":19.92932}},"Address":{"Label":"Svibyvägen, FI-22100 Mariehamn, Finland","Country":"FIN","State":"Åland","County":"Åland","City":"Mariehamn","District":"Mariehamn","Street":"Svibyvägen","PostalCode":"22100","AdditionalData":[{"value":"Finland","key":"CountryName"},{"value":"Åland","key":"StateName"},{"value":"Åland","key":"CountyName"}]},"MapReference":{"ReferenceId":"1241444689","Spot":0.0,"SideOfStreet":"right","CountryId":"20241487","StateId":"20501531","CountyId":"20501532","CityId":"20501575","DistrictId":"20501577"}}},{"Relevance":1.0,"Distance":51.7,"MatchLevel":"street","MatchQuality":{"Country":1.0,"State":1.0,"County":1.0,"City":1.0,"District":1.0,"PostalCode":1.0},"Location":{"LocationId":"NT_tg0sOdsq5WUvn3QAdJulOA_l_577541388_L","LocationType":"point","DisplayPosition":{"Latitude":60.11386,"Longitude":19.92932},"MapView":{"TopLeft":{"Latitude":60.11386,"Longitude":19.92917},"BottomRight":{"Latitude":60.11385,"Longitude":19.92932}},"Address":{"Label":"FI-22100 Mariehamn, Finland","Country":"FIN","State":"Åland","County":"Åland","City":"Mariehamn","District":"Mariehamn","PostalCode":"22100","AdditionalData":[{"value":"Finland","key":"CountryName"},{"value":"Åland","key":"StateName"},{"value":"Åland","key":"CountyName"}]},"MapReference":{"ReferenceId":"577541388","Spot":1.0,"SideOfStreet":"left","CountryId":"20241487","StateId":"20501531","CountyId":"20501532","CityId":"20501575","DistrictId":"20501577"}}},{"Relevance":1.0,"Distance":54.6,"MatchLevel":"street","MatchQuality":{"Country":1.0,"State":1.0,"County":1.0,"City":1.0,"District":1.0,"Street":[1.0],"PostalCode":1.0},"Location":{"LocationId":"NT_jpl6iJeM2jUyrQxPaVDWcC_l_578990388_L","LocationType":"point","DisplayPosition":{"Latitude":60.11366,"Longitude":19.93068},"MapView":{"TopLeft":{"Latitude":60.11377,"Longitude":19.93068},"BottomRight":{"Latitude":60.11366,"Longitude":19.93206}},"Address":{"Label":"Sjukhusvägen, FI-22100 Mariehamn, Finland","Country":"FIN","State":"Åland","County":"Åland","City":"Mariehamn","District":"Mariehamn","Street":"Sjukhusvägen","PostalCode":"22100","AdditionalData":[{"value":"Finland","key":"CountryName"},{"value":"Åland","key":"StateName"},{"value":"Åland","key":"CountyName"}]},"MapReference":{"ReferenceId":"578990388","Spot":0.0,"SideOfStreet":"left","CountryId":"20241487","StateId":"20501531","CountyId":"20501532","CityId":"20501575","DistrictId":"20501577"}}},{"Relevance":1.0,"Distance":59.5,"MatchLevel":"street","MatchQuality":{"Country":1.0,"State":1.0,"County":1.0,"City":1.0,"District":1.0,"Street":[1.0],"PostalCode":1.0},"Location":{"LocationId":"NT_DLGLgRf.H71DfE7Gt9ec7C_l_577695536_L","LocationType":"point","DisplayPosition":{"Latitude":60.1135438,"Longitude":19.9302957},"MapView":{"TopLeft":{"Latitude":60.11366,"Longitude":19.92982},"BottomRight":{"Latitude":60.11341,"Longitude":19.93068}},"Address":{"Label":"Sjukhusvägen, FI-22100 Mariehamn, Finland","Country":"FIN","State":"Åland","County":"Åland","City":"Mariehamn","District":"Mariehamn","Street":"Sjukhusvägen","PostalCode":"22100","AdditionalData":[{"value":"Finland","key":"CountryName"},{"value":"Åland","key":"StateName"},{"value":"Åland","key":"CountyName"}]},"MapReference":{"ReferenceId":"577695536","Spot":0.55,"SideOfStreet":"left","CountryId":"20241487","StateId":"20501531","CountyId":"20501532","CityId":"20501575","DistrictId":"20501577"}}}]}]}}