{"Response":{"MetaInfo":{"Timestamp":"2020-03-28T09:48:24.306+0000","NextPageInformation":"2"},"View":[{"_type":"SearchResultsViewType","ViewId":0,"Result":[{"Relevance":1.0,"Distance":-159.0,"MatchLevel":"landmark","MatchQuality":{"Country":1.0,"State":1.0,"County":1.0,"Name":1.0},"Location":{"LocationId":"NT_-Z.mbMYHIDR5OcrLuCgIkB","LocationType":"island","Name":"Åland","DisplayPosition":{"Latitude":60.24424,"Longitude":20.12333},"MapView":{"TopLeft":{"Latitude":60.42775,"Longitude":19.63456},"BottomRight":{"Latitude":60.06072,"Longitude":20.27529}},"Address":{"Label":"Finland","Country":"FIN","State":"Åland","County":"Åland","AdditionalData":[{"value":"Finland","key":"CountryName"},{"value":"Åland","key":"StateName"},{"value":"Åland","key":"CountyName"}]},"MapReference":{"CountryId":"20241487","StateId":"20501531","CountyId":"20501532","PlaceId":"553584450"}}},{"Relevance":1.0,"Distance":0.0,"Direction":0.0,"MatchLevel":"city","MatchQuality":{"Country":1.0,"State":1.0,"County":1.0,"City":1.0,"PostalCode":1.0},"Location":{"LocationId":"NT_OcOPoG.gEoGgLFSpre2WyC","LocationType":"point","DisplayPosition":{"Latitude":60.1145599,"Longitude":19.9125643},"MapView":{"TopLeft":{"Latitude":60.21062,"Longitude":19.72696},"BottomRight":{"Latitude":60.06968,"Longitude":20.05097}},"Address":{"Label":"Jomala, Åland, Finland","Country":"FIN","State":"Åland","County":"Åland","City":"Jomala","PostalCode":"22150","AdditionalData":[{"value":"Finland","key":"CountryName"},{"value":"Åland","key":"StateName"},{"value":"Åland","key":"CountyName"}]},"MapReference":{"ReferenceId":"1060779778","SideOfStreet":"neither","CountryId":"20241487","StateId":"20501531","CountyId":"20501532","CityId":"20501564"}}},{"Relevance":1.0,"Distance":22.9,"MatchLevel":"houseNumber","MatchQuality":{"Country":1.0,"State":1.0,"County":1.0,"City":1.0,"Street":[1.0],"HouseNumber":1.0,"PostalCode":1.0},"MatchType":"interpolated","Location":{"LocationId":"NT_MCNE7W0jFh003y9wseFYyD_0A","LocationType":"point","DisplayPosition":{"Latitude":60.11398,"Longitude":19.91251},"MapView":{"TopLeft":{"Latitude":60.1151042,"Longitude":19.9102539},"BottomRight":{"Latitude":60.1128558,"Longitude":19.9147661}},"Address":{"Label":"Lövuddsvägen 4, FI-22120 Mariehamn, Finland","Country":"FIN","State":"Åland","County":"Åland","City":"Mariehamn","Street":"Lövuddsvägen","HouseNumber":"4","PostalCode":"22120","AdditionalData":[{"value":"Finland","key":"CountryName"},{"value":"Åland","key":"StateName"},{"value":"Åland","key":"CountyName"}]},"MapReference":{"ReferenceId":"578955643","Spot":0.87,"SideOfStreet":"left","CountryId":"20241487","StateId":"20501531","CountyId":"20501532","CityId":"20864625","AddressId":"774982088","RoadLinkId":"96998715"}}},{"Relevance":1.0,"Distance":44.1,"MatchLevel":"houseNumber","MatchQuality":{"Country":1.0,"State":1.0,"County":1.0,"City":1.0,"Street":[1.0],"HouseNumber":1.0,"PostalCode":1.0},"MatchType":"interpolated","Location":{"LocationId":"NT_4A7CNqaw-8aFwPQpHX9mhD_l_1254679212_L_xAD","LocationType":"point","DisplayPosition":{"Latitude":60.1141964,"Longitude":19.9133114},"MapView":{"TopLeft":{"Latitude":60.1153205,"Longitude":19.9110553},"BottomRight":{"Latitude":60.1130722,"Longitude":19.9155675}},"Address":{"Label":"Flygfältsvägen 10, FI-22120 Mariehamn, Finland","Country":"FIN","State":"Åland","County":"Åland","City":"Mariehamn","Street":"Flygfältsvägen","HouseNumber":"10","PostalCode":"22120","AdditionalData":[{"value":"Finland","key":"CountryName"},{"value":"Åland","key":"StateName"},{"value":"Åland","key":"CountyName"}]},"MapReference":{"ReferenceId":"1254679212","Spot":0.51,"SideOfStreet":"left","CountryId":"20241487","StateId":"20501531","CountyId":"20501532","CityId":"20864625"}}},{"Relevance":1.0,"Distance":47.8,"MatchLevel":"houseNumber","MatchQuality":{"Country":1.0,"State":1.0,"County":1.0,"City":1.0,"Street":[1.0],"HouseNumber":1.0,"PostalCode":1.0},"MatchType":"interpolated","Location":{"LocationId":"NT_4A7CNqaw-8aFwPQpHX9mhD_l_1254679213_L_xID","LocationType":"point","DisplayPosition":{"Latitude":60.11441,"Longitude":19.91354},"MapView":{"TopLeft":{"Latitude":60.1155342,"Longitude":19.9112839},"BottomRight":{"Latitude":60.1132859,"Longitude":19.9157962}},"Address":{"Label":"Flygfältsvägen 12, FI-22120 Mariehamn, Finland","Country":"FIN","State":"Åland","County":"Åland","City":"Mariehamn","Street":"Flygfältsvägen","HouseNumber":"12","PostalCode":"22120","AdditionalData":[{"value":"Finland","key":"CountryName"},{"value":"Åland","key":"StateName"},{"value":"Åland","key":"CountyName"}]},"MapReference":{"ReferenceId":"1254679213","Spot":0.06,"SideOfStreet":"left","CountryId":"20241487","StateId":"20501531","CountyId":"20501532","CityId":"20864625"}}},{"Relevance":1.0,"Distance":54.7,"MatchLevel":"houseNumber","MatchQuality":{"Country":1.0,"State":1.0,"County":1.0,"City":1.0,"Street":[1.0],"HouseNumber":1.0,"PostalCode":1.0},"MatchType":"interpolated","Location":{"LocationId":"NT_4A7CNqaw-8aFwPQpHX9mhD_l_578955653_L_4A","LocationType":"point","DisplayPosition":{"Latitude":60.1139934,"Longitude":19.9131034},"MapView":{"TopLeft":{"Latitude":60.1151176,"Longitude":19.9108473},"BottomRight":{"Latitude":60.1128693,"Longitude":19.9153595}},"Address":{"Label":"Flygfältsvägen 8, FI-22120 Mariehamn, Finland","Country":"FIN","State":"Åland","County":"Åland","City":"Mariehamn","Street":"Flygfältsvägen","HouseNumber":"8","PostalCode":"22120","AdditionalData":[{"value":"Finland","key":"CountryName"},{"value":"Åland","key":"StateName"},{"value":"Åland","key":"CountyName"}]},"MapReference":{"ReferenceId":"578955653","Spot":0.5,"SideOfStreet":"left","CountryId":"20241487","StateId":"20501531","CountyId":"20501532","CityId":"20864625"}}},{"Relevance":1.0,"Distance":115.7,"MatchLevel":"houseNumber","MatchQuality":{"Country":1.0,"State":1.0,"County":1.0,"City":1.0,"Street":[1.0],"HouseNumber":1.0,"PostalCode":1.0},"MatchType":"interpolated","Location":{"LocationId":"NT_4A7CNqaw-8aFwPQpHX9mhD_l_577541468_L_2A","LocationType":"point","DisplayPosition":{"Latitude":60.1134956,"Longitude":19.9128223},"MapView":{"TopLeft":{"Latitude":60.1146197,"Longitude":19.9105663},"BottomRight":{"Latitude":60.1123714,"Longitude":19.9150784}},"Address":{"Label":"Flygfältsvägen 6, FI-22120 Mariehamn, Finland","Country":"FIN","State":"Åland","County":"Åland","City":"Mariehamn","Street":"Flygfältsvägen","HouseNumber":"6","PostalCode":"22120","AdditionalData":[{"value":"Finland","key":"CountryName"},{"value":"Åland","key":"StateName"},{"value":"Åland","key":"CountyName"}]},"MapReference":{"ReferenceId":"577541468","Spot":0.62,"SideOfStreet":"left","CountryId":"20241487","StateId":"20501531","CountyId":"20501532","CityId":"20864625"}}},{"Relevance":1.0,"Distance":152.1,"MatchLevel":"houseNumber","MatchQuality":{"Country":1.0,"State":1.0,"County":1.0,"City":1.0,"Street":[1.0],"HouseNumber":1.0,"PostalCode":1.0},"MatchType":"interpolated","Location":{"LocationId":"NT_MCNE7W0jFh003y9wseFYyD_yA","LocationType":"point","DisplayPosition":{"Latitude":60.11399,"Longitude":19.91506},"MapView":{"TopLeft":{"Latitude":60.1151142,"Longitude":19.9128039},"BottomRight":{"Latitude":60.1128658,"Longitude":19.9173161}},"Address":{"Label":"Lövuddsvägen 2, FI-22120 Mariehamn, Finland","Country":"FIN","State":"Åland","County":"Åland","City":"Mariehamn","Street":"Lövuddsvägen","HouseNumber":"2","PostalCode":"22120","AdditionalData":[{"value":"Finland","key":"CountryName"},{"value":"Åland","key":"StateName"},{"value":"Åland","key":"CountyName"}]},"MapReference":{"ReferenceId":"1053425107","Spot":0.91,"SideOfStreet":"left","CountryId":"20241487","StateId":"20501531","CountyId":"20501532","CityId":"20864625","AddressId":"774964114","RoadLinkId":"431775760"}}},{"Relevance":1.0,"Distance":192.6,"MatchLevel":"street","MatchQuality":{"Country":1.0,"State":1.0,"County":1.0,"City":1.0,"Street":[1.0],"PostalCode":1.0},"Location":{"LocationId":"NT_4A7CNqaw-8aFwPQpHX9mhD_l_1012344282_R","LocationType":"point","DisplayPosition":{"Latitude":60.11285,"Longitude":19.91312},"MapView":{"TopLeft":{"Latitude":60.11285,"Longitude":19.91312},"BottomRight":{"Latitude":60.11267,"Longitude":19.9134}},"Address":{"Label":"Flygfältsvägen, FI-22120 Mariehamn, Finland","Country":"FIN","State":"Åland","County":"Åland","City":"Mariehamn","Street":"Flygfältsvägen","PostalCode":"22120","AdditionalData":[{"value":"Finland","key":"CountryName"},{"value":"Åland","key":"StateName"},{"value":"Åland","key":"CountyName"}]},"MapReference":{"ReferenceId":"1012344282","Spot":1.0,"SideOfStreet":"right","CountryId":"20241487","StateId":"20501531","CountyId":"20501532","CityId":"20864625"}}},{"Relevance":1.0,"Distance":192.6,"MatchLevel":"street","MatchQuality":{"Country":1.0,"State":1.0,"County":1.0,"City":1.0,"Street":[1.0],"PostalCode":1.0},"Location":{"LocationId":"NT_4A7CNqaw-8aFwPQpHX9mhD_l_1012344281_L","LocationType":"point","DisplayPosition":{"Latitude":60.11285,"Longitude":19.91312},"MapView":{"TopLeft":{"Latitude":60.11285,"Longitude":19.91312},"BottomRight":{"Latitude":60.1126,"Longitude":19.91316}},"Address":{"Label":"Flygfältsvägen, FI-22120 Mariehamn, Finland","Country":"FIN","State":"Åland","County":"Åland","City":"Mariehamn","Street":"Flygfältsvägen","PostalCode":"22120","AdditionalData":[{"value":"Finland","key":"CountryName"},{"value":"Åland","key":"StateName"},{"value":"Åland","key":"CountyName"}]},"MapReference":{"ReferenceId":"1012344281","Spot":1.0,"SideOfStreet":"left","CountryId":"20241487","StateId":"20501531","CountyId":"20501532","CityId":"20864625"}}}]}]}}