{"Response":{"MetaInfo":{"Timestamp":"2020-03-28T11:06:46.212+0000","NextPageInformation":"2"},"View":[{"_type":"SearchResultsViewType","ViewId":0,"Result":[{"Relevance":1.0,"Distance":0.0,"Direction":0.0,"MatchLevel":"district","MatchQuality":{"Country":1.0,"State":1.0,"County":1.0,"City":1.0,"District":1.0,"PostalCode":1.0},"Location":{"LocationId":"NT_3NUewPv-xrkbjAyR7zjxYD","LocationType":"point","DisplayPosition":{"Latitude":60.2223391,"Longitude":24.0176353},"MapView":{"TopLeft":{"Latitude":60.23886,"Longitude":23.97791},"BottomRight":{"Latitude":60.17859,"Longitude":24.0405}},"Address":{"Label":"Virkkala, Lohja, Etelä-Suomi, Suomi","Country":"FIN","State":"Etelä-Suomi","County":"Uusimaa","City":"Lohja","District":"Virkkala","PostalCode":"08700","AdditionalData":[{"value":"Suomi","key":"CountryName"},{"value":"Etelä-Suomi","key":"StateName"},{"value":"Uusimaa","key":"CountyName"}]},"MapReference":{"ReferenceId":"846166128","SideOfStreet":"neither","CountryId":"20241487","StateId":"20422913","CountyId":"20422914","CityId":"20448370","DistrictId":"20448755"}}},{"Relevance":1.0,"Distance":5.1,"MatchLevel":"landmark","MatchQuality":{"Country":1.0,"State":1.0,"County":1.0,"City":1.0,"District":1.0,"PostalCode":1.0,"Name":1.0},"Location":{"LocationId":"NT_e4WFD7nP1oGMSdcof9MaTD_p_hsQ9O5xGBRlxy1f8t9HKAA","LocationType":"hospital","Name":"Lohjan sairaala","DisplayPosition":{"Latitude":60.22339,"Longitude":24.01641},"MapView":{"TopLeft":{"Latitude":60.22513,"Longitude":24.01363},"BottomRight":{"Latitude":60.2222,"Longitude":24.02154}},"Address":{"Label":"FI-08200 Lohja, Suomi","Country":"FIN","State":"Etelä-Suomi","County":"Uusimaa","City":"Lohja","District":"Virkkala","PostalCode":"08200","AdditionalData":[{"value":"Suomi","key":"CountryName"},{"value":"Etelä-Suomi","key":"StateName"},{"value":"Uusimaa","key":"CountyName"}]},"MapReference":{"CountryId":"20241487","StateId":"20422913","CountyId":"20422914","CityId":"20448370","DistrictId":"20448755","PlaceId":"553716714"}}},{"Relevance":1.0,"Distance":15.4,"MatchLevel":"street","MatchQuality":{"Country":1.0,"State":1.0,"County":1.0,"City":1.0,"District":1.0,"PostalCode":1.0},"Location":{"LocationId":"NT_QJYrLCLcqzKc15ri9jh3kC_l_569001950_R","LocationType":"point","DisplayPosition":{"Latitude":60.22232,"Longitude":24.01736},"MapView":{"TopLeft":{"Latitude":60.22232,"Longitude":24.01552},"BottomRight":{"Latitude":60.22211,"Longitude":24.01736}},"Address":{"Label":"FI-08200 Lohja, Suomi","Country":"FIN","State":"Etelä-Suomi","County":"Uusimaa","City":"Lohja","District":"Virkkala","PostalCode":"08200","AdditionalData":[{"value":"Suomi","key":"CountryName"},{"value":"Etelä-Suomi","key":"StateName"},{"value":"Uusimaa","key":"CountyName"}]},"MapReference":{"ReferenceId":"569001950","Spot":1.0,"SideOfStreet":"right","CountryId":"20241487","StateId":"20422913","CountyId":"20422914","CityId":"20448370","DistrictId":"20448755"}}},{"Relevance":1.0,"Distance":33.0,"MatchLevel":"houseNumber","MatchQuality":{"Country":1.0,"State":1.0,"County":1.0,"City":1.0,"District":1.0,"Street":[1.0],"HouseNumber":1.0,"PostalCode":1.0},"MatchType":"interpolated","Location":{"LocationId":"NT_.aKtB.yyVH5K7z5j8RXxCB_4A","LocationType":"point","DisplayPosition":{"Latitude":60.2226,"Longitude":24.01735},"MapView":{"TopLeft":{"Latitude":60.2237242,"Longitude":24.0150864},"BottomRight":{"Latitude":60.2214758,"Longitude":24.0196136}},"Address":{"Label":"Sairaalatie 8, FI-08200 Lohja, Suomi","Country":"FIN","State":"Etelä-Suomi","County":"Uusimaa","City":"Lohja","District":"Virkkala","Street":"Sairaalatie","HouseNumber":"8","PostalCode":"08200","AdditionalData":[{"value":"Suomi","key":"CountryName"},{"value":"Etelä-Suomi","key":"StateName"},{"value":"Uusimaa","key":"CountyName"}]},"MapReference":{"ReferenceId":"569001883","Spot":0.45,"SideOfStreet":"right","CountryId":"20241487","StateId":"20422913","CountyId":"20422914","CityId":"20448370","DistrictId":"20448755","AddressId":"263971341","RoadLinkId":"558277747"}}},{"Relevance":1.0,"Distance":48.5,"MatchLevel":"street","MatchQuality":{"Country":1.0,"State":1.0,"County":1.0,"City":1.0,"District":1.0,"PostalCode":1.0},"Location":{"LocationId":"NT_QJYrLCLcqzKc15ri9jh3kC_l_569001935_R","LocationType":"point","DisplayPosition":{"Latitude":60.22257,"Longitude":24.01689},"MapView":{"TopLeft":{"Latitude":60.22257,"Longitude":24.01552},"BottomRight":{"Latitude":60.2222,"Longitude":24.01689}},"Address":{"Label":"FI-08200 Lohja, Suomi","Country":"FIN","State":"Etelä-Suomi","County":"Uusimaa","City":"Lohja","District":"Virkkala","PostalCode":"08200","AdditionalData":[{"value":"Suomi","key":"CountryName"},{"value":"Etelä-Suomi","key":"StateName"},{"value":"Uusimaa","key":"CountyName"}]},"MapReference":{"ReferenceId":"569001935","Spot":1.0,"SideOfStreet":"right","CountryId":"20241487","StateId":"20422913","CountyId":"20422914","CityId":"20448370","DistrictId":"20448755"}}},{"Relevance":1.0,"Distance":117.8,"MatchLevel":"street","MatchQuality":{"Country":1.0,"State":1.0,"County":1.0,"City":1.0,"District":1.0,"PostalCode":1.0},"Location":{"LocationId":"NT_QJYrLCLcqzKc15ri9jh3kC_l_569001936_R","LocationType":"point","DisplayPosition":{"Latitude":60.2222,"Longitude":24.01552},"MapView":{"TopLeft":{"Latitude":60.22229,"Longitude":24.01508},"BottomRight":{"Latitude":60.2222,"Longitude":24.01552}},"Address":{"Label":"FI-08200 Lohja, Suomi","Country":"FIN","State":"Etelä-Suomi","County":"Uusimaa","City":"Lohja","District":"Virkkala","PostalCode":"08200","AdditionalData":[{"value":"Suomi","key":"CountryName"},{"value":"Etelä-Suomi","key":"StateName"},{"value":"Uusimaa","key":"CountyName"}]},"MapReference":{"ReferenceId":"569001936","Spot":0.0,"SideOfStreet":"right","CountryId":"20241487","StateId":"20422913","CountyId":"20422914","CityId":"20448370","DistrictId":"20448755"}}},{"Relevance":1.0,"Distance":141.2,"MatchLevel":"street","MatchQuality":{"Country":1.0,"State":1.0,"County":1.0,"City":1.0,"District":1.0,"PostalCode":1.0},"Location":{"LocationId":"NT_QJYrLCLcqzKc15ri9jh3kC_l_569001921_R","LocationType":"point","DisplayPosition":{"Latitude":60.22229,"Longitude":24.01508},"MapView":{"TopLeft":{"Latitude":60.2226,"Longitude":24.01432},"BottomRight":{"Latitude":60.22229,"Longitude":24.01508}},"Address":{"Label":"FI-08200 Lohja, Suomi","Country":"FIN","State":"Etelä-Suomi","County":"Uusimaa","City":"Lohja","District":"Virkkala","PostalCode":"08200","AdditionalData":[{"value":"Suomi","key":"CountryName"},{"value":"Etelä-Suomi","key":"StateName"},{"value":"Uusimaa","key":"CountyName"}]},"MapReference":{"ReferenceId":"569001921","Spot":0.0,"SideOfStreet":"right","CountryId":"20241487","StateId":"20422913","CountyId":"20422914","CityId":"20448370","DistrictId":"20448755"}}},{"Relevance":1.0,"Distance":143.0,"MatchLevel":"street","MatchQuality":{"Country":1.0,"State":1.0,"County":1.0,"City":1.0,"District":1.0,"PostalCode":1.0},"Location":{"LocationId":"NT_QJYrLCLcqzKc15ri9jh3kC_l_578395909_L","LocationType":"point","DisplayPosition":{"Latitude":60.223615,"Longitude":24.0173118},"MapView":{"TopLeft":{"Latitude":60.22367,"Longitude":24.01569},"BottomRight":{"Latitude":60.22332,"Longitude":24.01745}},"Address":{"Label":"FI-08200 Lohja, Suomi","Country":"FIN","State":"Etelä-Suomi","County":"Uusimaa","City":"Lohja","District":"Virkkala","PostalCode":"08200","AdditionalData":[{"value":"Suomi","key":"CountryName"},{"value":"Etelä-Suomi","key":"StateName"},{"value":"Uusimaa","key":"CountyName"}]},"MapReference":{"ReferenceId":"578395909","Spot":0.07,"SideOfStreet":"left","CountryId":"20241487","StateId":"20422913","CountyId":"20422914","CityId":"20448370","DistrictId":"20448755"}}},{"Relevance":1.0,"Distance":146.1,"MatchLevel":"street","MatchQuality":{"Country":1.0,"State":1.0,"County":1.0,"City":1.0,"District":1.0,"PostalCode":1.0},"Location":{"LocationId":"NT_QJYrLCLcqzKc15ri9jh3kC_l_578396691_R","LocationType":"point","DisplayPosition":{"Latitude":60.22365,"Longitude":24.01745},"MapView":{"TopLeft":{"Latitude":60.22442,"Longitude":24.01745},"BottomRight":{"Latitude":60.22365,"Longitude":24.01813}},"Address":{"Label":"FI-08200 Lohja, Suomi","Country":"FIN","State":"Etelä-Suomi","County":"Uusimaa","City":"Lohja","District":"Virkkala","PostalCode":"08200","AdditionalData":[{"value":"Suomi","key":"CountryName"},{"value":"Etelä-Suomi","key":"StateName"},{"value":"Uusimaa","key":"CountyName"}]},"MapReference":{"ReferenceId":"578396691","Spot":0.0,"SideOfStreet":"right","CountryId":"20241487","StateId":"20422913","CountyId":"20422914","CityId":"20448370","DistrictId":"20448755"}}},{"Relevance":1.0,"Distance":166.6,"MatchLevel":"street","MatchQuality":{"Country":1.0,"State":1.0,"County":1.0,"City":1.0,"District":1.0,"PostalCode":1.0},"Location":{"LocationId":"NT_QJYrLCLcqzKc15ri9jh3kC_l_569001812_R","LocationType":"point","DisplayPosition":{"Latitude":60.22296,"Longitude":24.01489},"MapView":{"TopLeft":{"Latitude":60.22338,"Longitude":24.01448},"BottomRight":{"Latitude":60.22296,"Longitude":24.01489}},"Address":{"Label":"FI-08200 Lohja, Suomi","Country":"FIN","State":"Etelä-Suomi","County":"Uusimaa","City":"Lohja","District":"Virkkala","PostalCode":"08200","AdditionalData":[{"value":"Suomi","key":"CountryName"},{"value":"Etelä-Suomi","key":"StateName"},{"value":"Uusimaa","key":"CountyName"}]},"MapReference":{"ReferenceId":"569001812","Spot":0.0,"SideOfStreet":"right","CountryId":"20241487","StateId":"20422913","CountyId":"20422914","CityId":"20448370","DistrictId":"20448755"}}}]}]}}