{"Response":{"MetaInfo":{"Timestamp":"2020-03-28T10:27:15.818+0000","NextPageInformation":"2"},"View":[{"_type":"SearchResultsViewType","ViewId":0,"Result":[{"Relevance":1.0,"Distance":0.0,"Direction":0.0,"MatchLevel":"district","MatchQuality":{"Country":1.0,"State":1.0,"County":1.0,"City":1.0,"District":1.0,"PostalCode":1.0},"Location":{"LocationId":"NT_NVf4PZKVmjz1XrpjgBARuB","LocationType":"point","DisplayPosition":{"Latitude":60.2340491,"Longitude":25.009795},"MapView":{"TopLeft":{"Latitude":60.26557,"Longitude":24.98905},"BottomRight":{"Latitude":60.22828,"Longitude":25.06213}},"Address":{"Label":"Malmi, Helsinki, Etelä-Suomi, Suomi","Country":"FIN","State":"Etelä-Suomi","County":"Uusimaa","City":"Helsinki","District":"Malmi","PostalCode":"00700","AdditionalData":[{"value":"Suomi","key":"CountryName"},{"value":"Etelä-Suomi","key":"StateName"},{"value":"Uusimaa","key":"CountyName"}]},"MapReference":{"ReferenceId":"943648492","SideOfStreet":"neither","CountryId":"20241487","StateId":"20422913","CountyId":"20422914","CityId":"20422915"}}},{"Relevance":1.0,"Distance":0.8,"MatchLevel":"street","MatchQuality":{"Country":1.0,"State":1.0,"County":1.0,"City":1.0,"District":1.0,"Street":[1.0],"PostalCode":1.0},"Location":{"LocationId":"NT_cxUss6WCnZezSApP.qINRC_l_578393656_L","LocationType":"point","DisplayPosition":{"Latitude":60.2340418,"Longitude":25.0097974},"MapView":{"TopLeft":{"Latitude":60.23425,"Longitude":25.00916},"BottomRight":{"Latitude":60.23338,"Longitude":25.01044}},"Address":{"Label":"Meripihkapolku, FI-00710 Helsinki, Suomi","Country":"FIN","State":"Etelä-Suomi","County":"Uusimaa","City":"Helsinki","District":"Malmi","Street":"Meripihkapolku","PostalCode":"00710","AdditionalData":[{"value":"Suomi","key":"CountryName"},{"value":"Etelä-Suomi","key":"StateName"},{"value":"Uusimaa","key":"CountyName"}]},"MapReference":{"ReferenceId":"578393656","Spot":0.59,"SideOfStreet":"neither","CountryId":"20241487","StateId":"20422913","CountyId":"20422914","CityId":"20422915"}}},{"Relevance":1.0,"Distance":30.4,"MatchLevel":"houseNumber","MatchQuality":{"Country":1.0,"State":1.0,"County":1.0,"City":1.0,"District":1.0,"Street":[1.0],"HouseNumber":1.0,"PostalCode":1.0},"MatchType":"interpolated","Location":{"LocationId":"NT_d7XzMi72DEf3sOz7StKXvC_0A","LocationType":"point","DisplayPosition":{"Latitude":60.23457,"Longitude":25.00921},"MapView":{"TopLeft":{"Latitude":60.2356942,"Longitude":25.0069456},"BottomRight":{"Latitude":60.2334458,"Longitude":25.0114744}},"Address":{"Label":"Graniittitie 4, FI-00710 Helsinki, Suomi","Country":"FIN","State":"Etelä-Suomi","County":"Uusimaa","City":"Helsinki","District":"Malmi","Street":"Graniittitie","HouseNumber":"4","PostalCode":"00710","AdditionalData":[{"value":"Suomi","key":"CountryName"},{"value":"Etelä-Suomi","key":"StateName"},{"value":"Uusimaa","key":"CountyName"}]},"MapReference":{"ReferenceId":"941130198","Spot":0.71,"SideOfStreet":"right","CountryId":"20241487","StateId":"20422913","CountyId":"20422914","CityId":"20422915","AddressId":"223059252","RoadLinkId":"291177028"}}},{"Relevance":1.0,"Distance":36.8,"MatchLevel":"houseNumber","MatchQuality":{"Country":1.0,"State":1.0,"County":1.0,"City":1.0,"District":1.0,"Street":[1.0],"HouseNumber":1.0,"PostalCode":1.0},"MatchType":"interpolated","Location":{"LocationId":"NT_zwsGCcgHhw6ludwDKfT2HC_4A","LocationType":"point","DisplayPosition":{"Latitude":60.23449,"Longitude":25.01006},"MapView":{"TopLeft":{"Latitude":60.2356142,"Longitude":25.0077956},"BottomRight":{"Latitude":60.2333658,"Longitude":25.0123244}},"Address":{"Label":"Meripihkatie 8, FI-00710 Helsinki, Suomi","Country":"FIN","State":"Etelä-Suomi","County":"Uusimaa","City":"Helsinki","District":"Malmi","Street":"Meripihkatie","HouseNumber":"8","PostalCode":"00710","AdditionalData":[{"value":"Suomi","key":"CountryName"},{"value":"Etelä-Suomi","key":"StateName"},{"value":"Uusimaa","key":"CountyName"}]},"MapReference":{"ReferenceId":"943781456","Spot":0.86,"SideOfStreet":"left","CountryId":"20241487","StateId":"20422913","CountyId":"20422914","CityId":"20422915","AddressId":"223077398","RoadLinkId":"293323303"}}},{"Relevance":1.0,"Distance":42.8,"MatchLevel":"houseNumber","MatchQuality":{"Country":1.0,"State":1.0,"County":1.0,"City":1.0,"District":1.0,"Street":[1.0],"HouseNumber":1.0,"PostalCode":1.0},"MatchType":"interpolated","Location":{"LocationId":"NT_zwsGCcgHhw6ludwDKfT2HC_zA","LocationType":"point","DisplayPosition":{"Latitude":60.23421,"Longitude":25.0105},"MapView":{"TopLeft":{"Latitude":60.2353342,"Longitude":25.0082356},"BottomRight":{"Latitude":60.2330858,"Longitude":25.0127644}},"Address":{"Label":"Meripihkatie 3, FI-00710 Helsinki, Suomi","Country":"FIN","State":"Etelä-Suomi","County":"Uusimaa","City":"Helsinki","District":"Malmi","Street":"Meripihkatie","HouseNumber":"3","PostalCode":"00710","AdditionalData":[{"value":"Suomi","key":"CountryName"},{"value":"Etelä-Suomi","key":"StateName"},{"value":"Uusimaa","key":"CountyName"}]},"MapReference":{"ReferenceId":"943781455","Spot":0.87,"SideOfStreet":"right","CountryId":"20241487","StateId":"20422913","CountyId":"20422914","CityId":"20422915","AddressId":"223077399","RoadLinkId":"293323298"}}},{"Relevance":1.0,"Distance":54.7,"MatchLevel":"street","MatchQuality":{"Country":1.0,"State":1.0,"County":1.0,"City":1.0,"District":1.0,"Street":[1.0],"PostalCode":1.0},"Location":{"LocationId":"NT_zwsGCcgHhw6ludwDKfT2HC_l_943781457_L","LocationType":"point","DisplayPosition":{"Latitude":60.23453,"Longitude":25.01},"MapView":{"TopLeft":{"Latitude":60.23467,"Longitude":25.00991},"BottomRight":{"Latitude":60.23453,"Longitude":25.01}},"Address":{"Label":"Meripihkatie, FI-00710 Helsinki, Suomi","Country":"FIN","State":"Etelä-Suomi","County":"Uusimaa","City":"Helsinki","District":"Malmi","Street":"Meripihkatie","PostalCode":"00710","AdditionalData":[{"value":"Suomi","key":"CountryName"},{"value":"Etelä-Suomi","key":"StateName"},{"value":"Uusimaa","key":"CountyName"}]},"MapReference":{"ReferenceId":"943781457","Spot":0.0,"SideOfStreet":"left","CountryId":"20241487","StateId":"20422913","CountyId":"20422914","CityId":"20422915"}}},{"Relevance":1.0,"Distance":69.3,"MatchLevel":"street","MatchQuality":{"Country":1.0,"State":1.0,"County":1.0,"City":1.0,"District":1.0,"Street":[1.0],"PostalCode":1.0},"Location":{"LocationId":"NT_-5QFi-n.7OVfIpPPebO60C_l_943812249_R","LocationType":"point","DisplayPosition":{"Latitude":60.23467,"Longitude":25.00991},"MapView":{"TopLeft":{"Latitude":60.23478,"Longitude":25.00991},"BottomRight":{"Latitude":60.23467,"Longitude":25.01008}},"Address":{"Label":"Meripihkatie, FI-00710 Helsinki, Suomi","Country":"FIN","State":"Etelä-Suomi","County":"Uusimaa","City":"Helsinki","District":"Malmi","Street":"Meripihkatie","PostalCode":"00710","AdditionalData":[{"value":"Suomi","key":"CountryName"},{"value":"Etelä-Suomi","key":"StateName"},{"value":"Uusimaa","key":"CountyName"}]},"MapReference":{"ReferenceId":"943812249","Spot":0.0,"SideOfStreet":"right","CountryId":"20241487","StateId":"20422913","CountyId":"20422914","CityId":"20422915"}}},{"Relevance":1.0,"Distance":69.3,"MatchLevel":"street","MatchQuality":{"Country":1.0,"State":1.0,"County":1.0,"City":1.0,"District":1.0,"PostalCode":1.0},"Location":{"LocationId":"NT_KeGSUHoybyQHDuEl6dtYjA_l_554903457_L","LocationType":"point","DisplayPosition":{"Latitude":60.23467,"Longitude":25.00991},"MapView":{"TopLeft":{"Latitude":60.23472,"Longitude":25.0099},"BottomRight":{"Latitude":60.23467,"Longitude":25.00991}},"Address":{"Label":"FI-00710 Helsinki, Suomi","Country":"FIN","State":"Etelä-Suomi","County":"Uusimaa","City":"Helsinki","District":"Malmi","PostalCode":"00710","AdditionalData":[{"value":"Suomi","key":"CountryName"},{"value":"Etelä-Suomi","key":"StateName"},{"value":"Uusimaa","key":"CountyName"}]},"MapReference":{"ReferenceId":"554903457","Spot":0.0,"SideOfStreet":"left","CountryId":"20241487","StateId":"20422913","CountyId":"20422914","CityId":"20422915"}}},{"Relevance":1.0,"Distance":74.8,"MatchLevel":"street","MatchQuality":{"Country":1.0,"State":1.0,"County":1.0,"City":1.0,"District":1.0,"Street":[1.0],"PostalCode":1.0},"Location":{"LocationId":"NT_qLHiun43h7orirfw2AjqzC_l_943781445_R","LocationType":"point","DisplayPosition":{"Latitude":60.23472,"Longitude":25.0099},"MapView":{"TopLeft":{"Latitude":60.23488,"Longitude":25.0099},"BottomRight":{"Latitude":60.23472,"Longitude":25.01005}},"Address":{"Label":"Graniittitie, FI-00710 Helsinki, Suomi","Country":"FIN","State":"Etelä-Suomi","County":"Uusimaa","City":"Helsinki","District":"Malmi","Street":"Graniittitie","PostalCode":"00710","AdditionalData":[{"value":"Suomi","key":"CountryName"},{"value":"Etelä-Suomi","key":"StateName"},{"value":"Uusimaa","key":"CountyName"}]},"MapReference":{"ReferenceId":"943781445","Spot":0.0,"SideOfStreet":"right","CountryId":"20241487","StateId":"20422913","CountyId":"20422914","CityId":"20422915"}}},{"Relevance":1.0,"Distance":82.8,"MatchLevel":"street","MatchQuality":{"Country":1.0,"State":1.0,"County":1.0,"City":1.0,"District":1.0,"Street":[1.0],"PostalCode":1.0},"Location":{"LocationId":"NT_-5QFi-n.7OVfIpPPebO60C_l_943812250_R","LocationType":"point","DisplayPosition":{"Latitude":60.23478,"Longitude":25.01008},"MapView":{"TopLeft":{"Latitude":60.2349,"Longitude":25.01008},"BottomRight":{"Latitude":60.23478,"Longitude":25.01034}},"Address":{"Label":"Meripihkatie, FI-00710 Helsinki, Suomi","Country":"FIN","State":"Etelä-Suomi","County":"Uusimaa","City":"Helsinki","District":"Malmi","Street":"Meripihkatie","PostalCode":"00710","AdditionalData":[{"value":"Suomi","key":"CountryName"},{"value":"Etelä-Suomi","key":"StateName"},{"value":"Uusimaa","key":"CountyName"}]},"MapReference":{"ReferenceId":"943812250","Spot":0.0,"SideOfStreet":"right","CountryId":"20241487","StateId":"20422913","CountyId":"20422914","CityId":"20422915"}}}]}]}}