{"Response":{"MetaInfo":{"Timestamp":"2020-03-28T10:27:14.995+0000","NextPageInformation":"2"},"View":[{"_type":"SearchResultsViewType","ViewId":0,"Result":[{"Relevance":1.0,"Distance":0.0,"Direction":0.0,"MatchLevel":"district","MatchQuality":{"Country":1.0,"State":1.0,"County":1.0,"City":1.0,"District":1.0,"PostalCode":1.0},"Location":{"LocationId":"NT_i32YTgpp3WP8yt2Ss8qSmA","LocationType":"point","DisplayPosition":{"Latitude":60.3892252,"Longitude":23.1185584},"MapView":{"TopLeft":{"Latitude":60.4105,"Longitude":23.08636},"BottomRight":{"Latitude":60.36042,"Longitude":23.20073}},"Address":{"Label":"Salo, Lounais-Suomi, Suomi","Country":"FIN","State":"Lounais-Suomi","County":"Varsinais-Suomi","City":"Salo","District":"Salo","PostalCode":"24100","AdditionalData":[{"value":"Suomi","key":"CountryName"},{"value":"Lounais-Suomi","key":"StateName"},{"value":"Varsinais-Suomi","key":"CountyName"}]},"MapReference":{"ReferenceId":"843926153","SideOfStreet":"neither","CountryId":"20241487","StateId":"20428850","CountyId":"20499886","CityId":"20500010","DistrictId":"20500011"}}},{"Relevance":1.0,"Distance":22.0,"MatchLevel":"houseNumber","MatchQuality":{"Country":1.0,"State":1.0,"County":1.0,"City":1.0,"District":1.0,"Street":[1.0],"HouseNumber":1.0,"PostalCode":1.0},"MatchType":"interpolated","Location":{"LocationId":"NT_r1Xin8AqNC.c4Y.mlHyTEC_yUD","LocationType":"point","DisplayPosition":{"Latitude":60.38912,"Longitude":23.11822},"MapView":{"TopLeft":{"Latitude":60.3902442,"Longitude":23.1159449},"BottomRight":{"Latitude":60.3879958,"Longitude":23.1204951}},"Address":{"Label":"Vilhonkatu 25, FI-24240 Salo, Suomi","Country":"FIN","State":"Lounais-Suomi","County":"Varsinais-Suomi","City":"Salo","District":"Salo","Street":"Vilhonkatu","HouseNumber":"25","PostalCode":"24240","AdditionalData":[{"value":"Suomi","key":"CountryName"},{"value":"Lounais-Suomi","key":"StateName"},{"value":"Varsinais-Suomi","key":"CountyName"}]},"MapReference":{"ReferenceId":"578951354","Spot":0.68,"SideOfStreet":"left","CountryId":"20241487","StateId":"20428850","CountyId":"20499886","CityId":"20500010","DistrictId":"20500011","AddressId":"399271784","RoadLinkId":"97790680"}}},{"Relevance":1.0,"Distance":33.0,"MatchLevel":"houseNumber","MatchQuality":{"Country":1.0,"State":1.0,"County":1.0,"City":1.0,"District":1.0,"Street":[1.0],"HouseNumber":1.0,"PostalCode":1.0},"MatchType":"interpolated","Location":{"LocationId":"NT_4bKBVVEhrcLk3zfJi-CCeB_l_1222660985_R_yMD","LocationType":"point","DisplayPosition":{"Latitude":60.389,"Longitude":23.11786},"MapView":{"TopLeft":{"Latitude":60.3901242,"Longitude":23.1155849},"BottomRight":{"Latitude":60.3878759,"Longitude":23.1201351}},"Address":{"Label":"Mariankatu 23, FI-24240 Salo, Suomi","Country":"FIN","State":"Lounais-Suomi","County":"Varsinais-Suomi","City":"Salo","District":"Salo","Street":"Mariankatu","HouseNumber":"23","PostalCode":"24240","AdditionalData":[{"value":"Suomi","key":"CountryName"},{"value":"Lounais-Suomi","key":"StateName"},{"value":"Varsinais-Suomi","key":"CountyName"}]},"MapReference":{"ReferenceId":"1222660985","Spot":0.0,"SideOfStreet":"right","CountryId":"20241487","StateId":"20428850","CountyId":"20499886","CityId":"20500010","DistrictId":"20500011"}}},{"Relevance":1.0,"Distance":33.9,"MatchLevel":"houseNumber","MatchQuality":{"Country":1.0,"State":1.0,"County":1.0,"City":1.0,"District":1.0,"Street":[1.0],"HouseNumber":1.0,"PostalCode":1.0},"MatchType":"interpolated","Location":{"LocationId":"NT_4bKBVVEhrcLk3zfJi-CCeB_l_946345177_R_yED","LocationType":"point","DisplayPosition":{"Latitude":60.3889337,"Longitude":23.1179168},"MapView":{"TopLeft":{"Latitude":60.3900579,"Longitude":23.1156417},"BottomRight":{"Latitude":60.3878096,"Longitude":23.1201919}},"Address":{"Label":"Mariankatu 21, FI-24240 Salo, Suomi","Country":"FIN","State":"Lounais-Suomi","County":"Varsinais-Suomi","City":"Salo","District":"Salo","Street":"Mariankatu","HouseNumber":"21","PostalCode":"24240","AdditionalData":[{"value":"Suomi","key":"CountryName"},{"value":"Lounais-Suomi","key":"StateName"},{"value":"Varsinais-Suomi","key":"CountyName"}]},"MapReference":{"ReferenceId":"946345177","Spot":0.53,"SideOfStreet":"right","CountryId":"20241487","StateId":"20428850","CountyId":"20499886","CityId":"20500010","DistrictId":"20500011"}}},{"Relevance":1.0,"Distance":35.9,"MatchLevel":"houseNumber","MatchQuality":{"Country":1.0,"State":1.0,"County":1.0,"City":1.0,"District":1.0,"Street":[1.0],"HouseNumber":1.0,"PostalCode":1.0},"MatchType":"interpolated","Location":{"LocationId":"NT_4bKBVVEhrcLk3zfJi-CCeB_l_1224905684_R_ycD","LocationType":"point","DisplayPosition":{"Latitude":60.38912,"Longitude":23.11776},"MapView":{"TopLeft":{"Latitude":60.3902442,"Longitude":23.1154849},"BottomRight":{"Latitude":60.3879959,"Longitude":23.1200351}},"Address":{"Label":"Mariankatu 27, FI-24240 Salo, Suomi","Country":"FIN","State":"Lounais-Suomi","County":"Varsinais-Suomi","City":"Salo","District":"Salo","Street":"Mariankatu","HouseNumber":"27","PostalCode":"24240","AdditionalData":[{"value":"Suomi","key":"CountryName"},{"value":"Lounais-Suomi","key":"StateName"},{"value":"Varsinais-Suomi","key":"CountyName"}]},"MapReference":{"ReferenceId":"1224905684","Spot":0.0,"SideOfStreet":"right","CountryId":"20241487","StateId":"20428850","CountyId":"20499886","CityId":"20500010","DistrictId":"20500011"}}},{"Relevance":1.0,"Distance":45.8,"MatchLevel":"street","MatchQuality":{"Country":1.0,"State":1.0,"County":1.0,"City":1.0,"District":1.0,"Street":[1.0],"PostalCode":1.0},"Location":{"LocationId":"NT_jcR5TiSWA5w6aPcEDUhlqA_l_576131944_L","LocationType":"point","DisplayPosition":{"Latitude":60.389,"Longitude":23.11786},"MapView":{"TopLeft":{"Latitude":60.389,"Longitude":23.11652},"BottomRight":{"Latitude":60.38864,"Longitude":23.11786}},"Address":{"Label":"Joensuunkatu, FI-24240 Salo, Suomi","Country":"FIN","State":"Lounais-Suomi","County":"Varsinais-Suomi","City":"Salo","District":"Salo","Street":"Joensuunkatu","PostalCode":"24240","AdditionalData":[{"value":"Suomi","key":"CountryName"},{"value":"Lounais-Suomi","key":"StateName"},{"value":"Varsinais-Suomi","key":"CountyName"}]},"MapReference":{"ReferenceId":"576131944","Spot":1.0,"SideOfStreet":"left","CountryId":"20241487","StateId":"20428850","CountyId":"20499886","CityId":"20500010","DistrictId":"20500011"}}},{"Relevance":1.0,"Distance":49.4,"MatchLevel":"houseNumber","MatchQuality":{"Country":1.0,"State":1.0,"County":1.0,"City":1.0,"District":1.0,"Street":[1.0],"HouseNumber":1.0,"PostalCode":1.0},"MatchType":"interpolated","Location":{"LocationId":"NT_4bKBVVEhrcLk3zfJi-CCeB_l_1224905739_R_zED","LocationType":"point","DisplayPosition":{"Latitude":60.38931,"Longitude":23.11761},"MapView":{"TopLeft":{"Latitude":60.3904342,"Longitude":23.1153349},"BottomRight":{"Latitude":60.3881859,"Longitude":23.1198851}},"Address":{"Label":"Mariankatu 31, FI-24240 Salo, Suomi","Country":"FIN","State":"Lounais-Suomi","County":"Varsinais-Suomi","City":"Salo","District":"Salo","Street":"Mariankatu","HouseNumber":"31","PostalCode":"24240","AdditionalData":[{"value":"Suomi","key":"CountryName"},{"value":"Lounais-Suomi","key":"StateName"},{"value":"Varsinais-Suomi","key":"CountyName"}]},"MapReference":{"ReferenceId":"1224905739","Spot":0.0,"SideOfStreet":"right","CountryId":"20241487","StateId":"20428850","CountyId":"20499886","CityId":"20500010","DistrictId":"20500011"}}},{"Relevance":1.0,"Distance":58.5,"MatchLevel":"landmark","MatchQuality":{"Country":1.0,"State":1.0,"County":1.0,"City":1.0,"District":1.0,"PostalCode":1.0,"Name":1.0},"Location":{"LocationId":"NT_R1OL4URq96KOQMLdS5X7rA","LocationType":"industrialComplex","Name":"Merinniityn teollisuusalue","DisplayPosition":{"Latitude":60.38156,"Longitude":23.1113},"MapView":{"TopLeft":{"Latitude":60.39248,"Longitude":23.09191},"BottomRight":{"Latitude":60.37065,"Longitude":23.12662}},"Address":{"Label":"FI-24100 Salo, Suomi","Country":"FIN","State":"Lounais-Suomi","County":"Varsinais-Suomi","City":"Salo","District":"Salo","PostalCode":"24100","AdditionalData":[{"value":"Suomi","key":"CountryName"},{"value":"Lounais-Suomi","key":"StateName"},{"value":"Varsinais-Suomi","key":"CountyName"}]},"MapReference":{"CountryId":"20241487","StateId":"20428850","CountyId":"20499886","CityId":"20500010","DistrictId":"20500011","PlaceId":"554108822"}}},{"Relevance":1.0,"Distance":58.5,"MatchLevel":"street","MatchQuality":{"Country":1.0,"State":1.0,"County":1.0,"City":1.0,"District":1.0,"Street":[1.0],"PostalCode":1.0},"Location":{"LocationId":"NT_4bKBVVEhrcLk3zfJi-CCeB_l_1224905701_R","LocationType":"point","DisplayPosition":{"Latitude":60.3887534,"Longitude":23.1180866},"MapView":{"TopLeft":{"Latitude":60.38886,"Longitude":23.11798},"BottomRight":{"Latitude":60.38844,"Longitude":23.11846}},"Address":{"Label":"Mariankatu, FI-24240 Salo, Suomi","Country":"FIN","State":"Lounais-Suomi","County":"Varsinais-Suomi","City":"Salo","District":"Salo","Street":"Mariankatu","PostalCode":"24240","AdditionalData":[{"value":"Suomi","key":"CountryName"},{"value":"Lounais-Suomi","key":"StateName"},{"value":"Varsinais-Suomi","key":"CountyName"}]},"MapReference":{"ReferenceId":"1224905701","Spot":0.76,"SideOfStreet":"right","CountryId":"20241487","StateId":"20428850","CountyId":"20499886","CityId":"20500010","DistrictId":"20500011"}}},{"Relevance":1.0,"Distance":65.3,"MatchLevel":"houseNumber","MatchQuality":{"Country":1.0,"State":1.0,"County":1.0,"City":1.0,"District":1.0,"Street":[1.0],"HouseNumber":1.0,"PostalCode":1.0},"MatchType":"interpolated","Location":{"LocationId":"NT_19EgQwehsBJoLIEwBAEo8D_yYD","LocationType":"point","DisplayPosition":{"Latitude":60.38998,"Longitude":23.11957},"MapView":{"TopLeft":{"Latitude":60.3911042,"Longitude":23.1172948},"BottomRight":{"Latitude":60.3888558,"Longitude":23.1218452}},"Address":{"Label":"Turuntie 26, FI-24240 Salo, Suomi","Country":"FIN","State":"Lounais-Suomi","County":"Varsinais-Suomi","City":"Salo","District":"Salo","Street":"Turuntie","HouseNumber":"26","PostalCode":"24240","AdditionalData":[{"value":"Suomi","key":"CountryName"},{"value":"Lounais-Suomi","key":"StateName"},{"value":"Varsinais-Suomi","key":"CountyName"}]},"MapReference":{"ReferenceId":"946336310","Spot":0.69,"SideOfStreet":"left","CountryId":"20241487","StateId":"20428850","CountyId":"20499886","CityId":"20500010","DistrictId":"20500011","AddressId":"263719037","RoadLinkId":"294490180"}}}]}]}}