{"Response":{"MetaInfo":{"Timestamp":"2020-03-28T09:48:31.862+0000","NextPageInformation":"2"},"View":[{"_type":"SearchResultsViewType","ViewId":0,"Result":[{"Relevance":1.0,"Distance":0.0,"Direction":0.0,"MatchLevel":"district","MatchQuality":{"Country":1.0,"State":1.0,"County":1.0,"City":1.0,"District":1.0,"PostalCode":1.0},"Location":{"LocationId":"NT_EH1aS9Shbzf8-8KpaURaSC","LocationType":"point","DisplayPosition":{"Latitude":60.4514032,"Longitude":22.2812757},"MapView":{"TopLeft":{"Latitude":60.46106,"Longitude":22.22932},"BottomRight":{"Latitude":60.4299,"Longitude":22.29533}},"Address":{"Label":"Keskusta, Turku, Lounais-Suomi, Suomi","Country":"FIN","State":"Lounais-Suomi","County":"Varsinais-Suomi","City":"Turku","District":"Keskusta","PostalCode":"20100","AdditionalData":[{"value":"Suomi","key":"CountryName"},{"value":"Lounais-Suomi","key":"StateName"},{"value":"Varsinais-Suomi","key":"CountyName"}]},"MapReference":{"ReferenceId":"883930659","SideOfStreet":"neither","CountryId":"20241487","StateId":"20428850","CountyId":"20499886","CityId":"20500028","DistrictId":"25377101"}}},{"Relevance":1.0,"Distance":28.0,"MatchLevel":"houseNumber","MatchQuality":{"Country":1.0,"State":1.0,"County":1.0,"City":1.0,"District":1.0,"Street":[1.0],"HouseNumber":1.0,"PostalCode":1.0},"MatchType":"interpolated","Location":{"LocationId":"NT_eSDLu2D-AmZD9ZzmN8q35D_5IG","LocationType":"point","DisplayPosition":{"Latitude":60.45165,"Longitude":22.28138},"MapView":{"TopLeft":{"Latitude":60.4527742,"Longitude":22.2791005},"BottomRight":{"Latitude":60.4505258,"Longitude":22.2836595}},"Address":{"Label":"Hämeenkatu 9b, FI-20500 Turku, Suomi","Country":"FIN","State":"Lounais-Suomi","County":"Varsinais-Suomi","City":"Turku","District":"Keskusta","Street":"Hämeenkatu","HouseNumber":"9b","PostalCode":"20500","AdditionalData":[{"value":"Suomi","key":"CountryName"},{"value":"Lounais-Suomi","key":"StateName"},{"value":"Varsinais-Suomi","key":"CountyName"}]},"MapReference":{"ReferenceId":"946296337","Spot":0.4,"SideOfStreet":"left","CountryId":"20241487","StateId":"20428850","CountyId":"20499886","CityId":"20500028","DistrictId":"25377101","AddressId":"399266031","RoadLinkId":"294466559"}}},{"Relevance":1.0,"Distance":38.9,"MatchLevel":"houseNumber","MatchQuality":{"Country":1.0,"State":1.0,"County":1.0,"City":1.0,"District":1.0,"Street":[1.0],"HouseNumber":1.0,"PostalCode":1.0},"MatchType":"interpolated","Location":{"LocationId":"NT_eSDLu2D-AmZD9ZzmN8q35D_xID","LocationType":"point","DisplayPosition":{"Latitude":60.45127,"Longitude":22.2806},"MapView":{"TopLeft":{"Latitude":60.4523942,"Longitude":22.2783205},"BottomRight":{"Latitude":60.4501458,"Longitude":22.2828795}},"Address":{"Label":"Hämeenkatu 12, FI-20500 Turku, Suomi","Country":"FIN","State":"Lounais-Suomi","County":"Varsinais-Suomi","City":"Turku","District":"Keskusta","Street":"Hämeenkatu","HouseNumber":"12","PostalCode":"20500","AdditionalData":[{"value":"Suomi","key":"CountryName"},{"value":"Lounais-Suomi","key":"StateName"},{"value":"Varsinais-Suomi","key":"CountyName"}]},"MapReference":{"ReferenceId":"1224940384","Spot":0.32,"SideOfStreet":"right","CountryId":"20241487","StateId":"20428850","CountyId":"20499886","CityId":"20500028","DistrictId":"25377101","AddressId":"263774201","RoadLinkId":"543057898"}}},{"Relevance":1.0,"Distance":38.9,"MatchLevel":"houseNumber","MatchQuality":{"Country":1.0,"State":1.0,"County":1.0,"City":1.0,"District":1.0,"Street":[1.0],"HouseNumber":1.0,"PostalCode":1.0},"MatchType":"interpolated","Location":{"LocationId":"NT_KjOC3IVE4p38Aw50-RtSIB_yA","LocationType":"point","DisplayPosition":{"Latitude":60.45103,"Longitude":22.28027},"MapView":{"TopLeft":{"Latitude":60.4521542,"Longitude":22.2779905},"BottomRight":{"Latitude":60.4499058,"Longitude":22.2825495}},"Address":{"Label":"Hovioikeudenkatu 2, FI-20500 Turku, Suomi","Country":"FIN","State":"Lounais-Suomi","County":"Varsinais-Suomi","City":"Turku","District":"Keskusta","Street":"Hovioikeudenkatu","HouseNumber":"2","PostalCode":"20500","AdditionalData":[{"value":"Suomi","key":"CountryName"},{"value":"Lounais-Suomi","key":"StateName"},{"value":"Varsinais-Suomi","key":"CountyName"}]},"MapReference":{"ReferenceId":"576117728","Spot":0.9,"SideOfStreet":"right","CountryId":"20241487","StateId":"20428850","CountyId":"20499886","CityId":"20500028","DistrictId":"25377101","AddressId":"263773930","RoadLinkId":"97012638"}}},{"Relevance":1.0,"Distance":39.5,"MatchLevel":"houseNumber","MatchQuality":{"Country":1.0,"State":1.0,"County":1.0,"City":1.0,"District":1.0,"Street":[1.0],"HouseNumber":1.0,"PostalCode":1.0},"MatchType":"interpolated","Location":{"LocationId":"NT_79e1yI8IxuARiiKR-mSZyA_l_884029097_L_5A","LocationType":"point","DisplayPosition":{"Latitude":60.4513584,"Longitude":22.2805604},"MapView":{"TopLeft":{"Latitude":60.4524825,"Longitude":22.2782809},"BottomRight":{"Latitude":60.4502342,"Longitude":22.2828398}},"Address":{"Label":"Hämeenkatu 9, FI-20500 Turku, Suomi","Country":"FIN","State":"Lounais-Suomi","County":"Varsinais-Suomi","City":"Turku","District":"Keskusta","Street":"Hämeenkatu","HouseNumber":"9","PostalCode":"20500","AdditionalData":[{"value":"Suomi","key":"CountryName"},{"value":"Lounais-Suomi","key":"StateName"},{"value":"Varsinais-Suomi","key":"CountyName"}]},"MapReference":{"ReferenceId":"884029097","Spot":0.5,"SideOfStreet":"left","CountryId":"20241487","StateId":"20428850","CountyId":"20499886","CityId":"20500028","DistrictId":"25377101"}}},{"Relevance":1.0,"Distance":43.3,"MatchLevel":"houseNumber","MatchQuality":{"Country":1.0,"State":1.0,"County":1.0,"City":1.0,"District":1.0,"Street":[1.0],"HouseNumber":1.0,"PostalCode":1.0},"MatchType":"interpolated","Location":{"LocationId":"NT_BdXS4G4epWVcGyvheAKUdA_4A","LocationType":"point","DisplayPosition":{"Latitude":60.45168,"Longitude":22.28075},"MapView":{"TopLeft":{"Latitude":60.4528042,"Longitude":22.2784705},"BottomRight":{"Latitude":60.4505558,"Longitude":22.2830295}},"Address":{"Label":"Tuomiokirkonkatu 8, FI-20500 Turku, Suomi","Country":"FIN","State":"Lounais-Suomi","County":"Varsinais-Suomi","City":"Turku","District":"Keskusta","Street":"Tuomiokirkonkatu","HouseNumber":"8","PostalCode":"20500","AdditionalData":[{"value":"Suomi","key":"CountryName"},{"value":"Lounais-Suomi","key":"StateName"},{"value":"Varsinais-Suomi","key":"CountyName"}]},"MapReference":{"ReferenceId":"576117361","Spot":0.02,"SideOfStreet":"right","CountryId":"20241487","StateId":"20428850","CountyId":"20499886","CityId":"20500028","DistrictId":"25377101","AddressId":"263774468","RoadLinkId":"97186312"}}},{"Relevance":1.0,"Distance":46.0,"MatchLevel":"houseNumber","MatchQuality":{"Country":1.0,"State":1.0,"County":1.0,"City":1.0,"District":1.0,"Street":[1.0],"HouseNumber":1.0,"PostalCode":1.0},"MatchType":"interpolated","Location":{"LocationId":"NT_eSDLu2D-AmZD9ZzmN8q35D_xAD","LocationType":"point","DisplayPosition":{"Latitude":60.45169,"Longitude":22.28188},"MapView":{"TopLeft":{"Latitude":60.4528142,"Longitude":22.2796005},"BottomRight":{"Latitude":60.4505658,"Longitude":22.2841595}},"Address":{"Label":"Hämeenkatu 10, FI-20500 Turku, Suomi","Country":"FIN","State":"Lounais-Suomi","County":"Varsinais-Suomi","City":"Turku","District":"Keskusta","Street":"Hämeenkatu","HouseNumber":"10","PostalCode":"20500","AdditionalData":[{"value":"Suomi","key":"CountryName"},{"value":"Lounais-Suomi","key":"StateName"},{"value":"Varsinais-Suomi","key":"CountyName"}]},"MapReference":{"ReferenceId":"1224940385","Spot":0.64,"SideOfStreet":"right","CountryId":"20241487","StateId":"20428850","CountyId":"20499886","CityId":"20500028","DistrictId":"25377101","AddressId":"263774202","RoadLinkId":"543057899"}}},{"Relevance":1.0,"Distance":56.6,"MatchLevel":"street","MatchQuality":{"Country":1.0,"State":1.0,"County":1.0,"City":1.0,"District":1.0,"Street":[1.0],"PostalCode":1.0},"Location":{"LocationId":"NT_eSDLu2D-AmZD9ZzmN8q35D_l_946296336_R","LocationType":"point","DisplayPosition":{"Latitude":60.45174,"Longitude":22.28205},"MapView":{"TopLeft":{"Latitude":60.45183,"Longitude":22.28205},"BottomRight":{"Latitude":60.45174,"Longitude":22.28232}},"Address":{"Label":"Hämeenkatu, FI-20500 Turku, Suomi","Country":"FIN","State":"Lounais-Suomi","County":"Varsinais-Suomi","City":"Turku","District":"Keskusta","Street":"Hämeenkatu","PostalCode":"20500","AdditionalData":[{"value":"Suomi","key":"CountryName"},{"value":"Lounais-Suomi","key":"StateName"},{"value":"Varsinais-Suomi","key":"CountyName"}]},"MapReference":{"ReferenceId":"946296336","Spot":0.0,"SideOfStreet":"right","CountryId":"20241487","StateId":"20428850","CountyId":"20499886","CityId":"20500028","DistrictId":"25377101"}}},{"Relevance":1.0,"Distance":57.3,"MatchLevel":"street","MatchQuality":{"Country":1.0,"State":1.0,"County":1.0,"City":1.0,"District":1.0,"PostalCode":1.0},"Location":{"LocationId":"NT_F5FUgTXxQEjaAL0-PakFwD_l_883924326_R","LocationType":"point","DisplayPosition":{"Latitude":60.45141,"Longitude":22.28023},"MapView":{"TopLeft":{"Latitude":60.4515,"Longitude":22.28006},"BottomRight":{"Latitude":60.4513,"Longitude":22.28023}},"Address":{"Label":"FI-20500 Turku, Suomi","Country":"FIN","State":"Lounais-Suomi","County":"Varsinais-Suomi","City":"Turku","District":"Keskusta","PostalCode":"20500","AdditionalData":[{"value":"Suomi","key":"CountryName"},{"value":"Lounais-Suomi","key":"StateName"},{"value":"Varsinais-Suomi","key":"CountyName"}]},"MapReference":{"ReferenceId":"883924326","Spot":0.7,"SideOfStreet":"right","CountryId":"20241487","StateId":"20428850","CountyId":"20499886","CityId":"20500028","DistrictId":"25377101"}}},{"Relevance":1.0,"Distance":58.9,"MatchLevel":"street","MatchQuality":{"Country":1.0,"State":1.0,"County":1.0,"City":1.0,"District":1.0,"PostalCode":1.0},"Location":{"LocationId":"NT_F5FUgTXxQEjaAL0-PakFwD_l_883924328_R","LocationType":"point","DisplayPosition":{"Latitude":60.4515,"Longitude":22.28022},"MapView":{"TopLeft":{"Latitude":60.4515,"Longitude":22.27994},"BottomRight":{"Latitude":60.45143,"Longitude":22.28022}},"Address":{"Label":"FI-20500 Turku, Suomi","Country":"FIN","State":"Lounais-Suomi","County":"Varsinais-Suomi","City":"Turku","District":"Keskusta","PostalCode":"20500","AdditionalData":[{"value":"Suomi","key":"CountryName"},{"value":"Lounais-Suomi","key":"StateName"},{"value":"Varsinais-Suomi","key":"CountyName"}]},"MapReference":{"ReferenceId":"883924328","Spot":1.0,"SideOfStreet":"right","CountryId":"20241487","StateId":"20428850","CountyId":"20499886","CityId":"20500028","DistrictId":"25377101"}}}]}]}}