{"Response":{"MetaInfo":{"Timestamp":"2020-03-28T10:27:14.482+0000","NextPageInformation":"2"},"View":[{"_type":"SearchResultsViewType","ViewId":0,"Result":[{"Relevance":1.0,"Distance":0.0,"Direction":0.0,"MatchLevel":"district","MatchQuality":{"Country":1.0,"State":1.0,"County":1.0,"City":1.0,"District":1.0,"PostalCode":1.0},"Location":{"LocationId":"NT_aeU.HMSh31Y4Kgx-OKkeZA","LocationType":"point","DisplayPosition":{"Latitude":60.4062757,"Longitude":25.1097349},"MapView":{"TopLeft":{"Latitude":60.43626,"Longitude":25.07259},"BottomRight":{"Latitude":60.36606,"Longitude":25.15122}},"Address":{"Label":"Kerava, Etelä-Suomi, Suomi","Country":"FIN","State":"Etelä-Suomi","County":"Uusimaa","City":"Kerava","District":"Kerava","PostalCode":"04220","AdditionalData":[{"value":"Suomi","key":"CountryName"},{"value":"Etelä-Suomi","key":"StateName"},{"value":"Uusimaa","key":"CountyName"}]},"MapReference":{"ReferenceId":"1211366059","SideOfStreet":"neither","CountryId":"20241487","StateId":"20422913","CountyId":"20422914","CityId":"20864541","DistrictId":"20449493"}}},{"Relevance":1.0,"Distance":7.1,"MatchLevel":"street","MatchQuality":{"Country":1.0,"State":1.0,"County":1.0,"City":1.0,"District":1.0,"Street":[1.0],"PostalCode":1.0},"Location":{"LocationId":"NT_14zWbvvFaoXMXtyroThe6B_l_578389307_L","LocationType":"point","DisplayPosition":{"Latitude":60.4063396,"Longitude":25.1097476},"MapView":{"TopLeft":{"Latitude":60.40648,"Longitude":25.10904},"BottomRight":{"Latitude":60.40622,"Longitude":25.11035}},"Address":{"Label":"Pumpputehtaanpolku, FI-04200 Kerava, Suomi","Country":"FIN","State":"Etelä-Suomi","County":"Uusimaa","City":"Kerava","District":"Kerava","Street":"Pumpputehtaanpolku","PostalCode":"04200","AdditionalData":[{"value":"Suomi","key":"CountryName"},{"value":"Etelä-Suomi","key":"StateName"},{"value":"Uusimaa","key":"CountyName"}]},"MapReference":{"ReferenceId":"578389307","Spot":0.46,"SideOfStreet":"left","CountryId":"20241487","StateId":"20422913","CountyId":"20422914","CityId":"20448366","DistrictId":"20449493"}}},{"Relevance":1.0,"Distance":19.1,"MatchLevel":"houseNumber","MatchQuality":{"Country":1.0,"State":1.0,"County":1.0,"City":1.0,"District":1.0,"Street":[1.0],"HouseNumber":1.0,"PostalCode":1.0},"MatchType":"interpolated","Location":{"LocationId":"NT_NGWNZZXTEUfDYFMw3A6UqD_2A","LocationType":"point","DisplayPosition":{"Latitude":60.406,"Longitude":25.1106},"MapView":{"TopLeft":{"Latitude":60.4071242,"Longitude":25.1083237},"BottomRight":{"Latitude":60.4048758,"Longitude":25.1128763}},"Address":{"Label":"Heikkiläntie 6, FI-04200 Kerava, Suomi","Country":"FIN","State":"Etelä-Suomi","County":"Uusimaa","City":"Kerava","District":"Kerava","Street":"Heikkiläntie","HouseNumber":"6","PostalCode":"04200","AdditionalData":[{"value":"Suomi","key":"CountryName"},{"value":"Etelä-Suomi","key":"StateName"},{"value":"Uusimaa","key":"CountyName"}]},"MapReference":{"ReferenceId":"578385350","Spot":0.88,"SideOfStreet":"left","CountryId":"20241487","StateId":"20422913","CountyId":"20422914","CityId":"20448366","DistrictId":"20449493","AddressId":"622424668","RoadLinkId":"80869223"}}},{"Relevance":1.0,"Distance":34.3,"MatchLevel":"street","MatchQuality":{"Country":1.0,"State":1.0,"County":1.0,"City":1.0,"District":1.0,"Street":[1.0],"PostalCode":1.0},"Location":{"LocationId":"NT_14zWbvvFaoXMXtyroThe6B_l_578389306_L","LocationType":"point","DisplayPosition":{"Latitude":60.40622,"Longitude":25.11035},"MapView":{"TopLeft":{"Latitude":60.40622,"Longitude":25.11035},"BottomRight":{"Latitude":60.40615,"Longitude":25.11071}},"Address":{"Label":"Pumpputehtaanpolku, FI-04200 Kerava, Suomi","Country":"FIN","State":"Etelä-Suomi","County":"Uusimaa","City":"Kerava","District":"Kerava","Street":"Pumpputehtaanpolku","PostalCode":"04200","AdditionalData":[{"value":"Suomi","key":"CountryName"},{"value":"Etelä-Suomi","key":"StateName"},{"value":"Uusimaa","key":"CountyName"}]},"MapReference":{"ReferenceId":"578389306","Spot":1.0,"SideOfStreet":"left","CountryId":"20241487","StateId":"20422913","CountyId":"20422914","CityId":"20448366","DistrictId":"20449493"}}},{"Relevance":1.0,"Distance":39.4,"MatchLevel":"street","MatchQuality":{"Country":1.0,"State":1.0,"County":1.0,"City":1.0,"District":1.0,"Street":[1.0],"PostalCode":1.0},"Location":{"LocationId":"NT_d2AnSvjSLRBM0HQsIl.TrA_l_578385348_R","LocationType":"point","DisplayPosition":{"Latitude":60.4063346,"Longitude":25.1090279},"MapView":{"TopLeft":{"Latitude":60.40648,"Longitude":25.10896},"BottomRight":{"Latitude":60.40552,"Longitude":25.10904}},"Address":{"Label":"Laanipolku, FI-04200 Kerava, Suomi","Country":"FIN","State":"Etelä-Suomi","County":"Uusimaa","City":"Kerava","District":"Kerava","Street":"Laanipolku","PostalCode":"04200","AdditionalData":[{"value":"Suomi","key":"CountryName"},{"value":"Etelä-Suomi","key":"StateName"},{"value":"Uusimaa","key":"CountyName"}]},"MapReference":{"ReferenceId":"578385348","Spot":0.85,"SideOfStreet":"right","CountryId":"20241487","StateId":"20422913","CountyId":"20422914","CityId":"20448366","DistrictId":"20449493"}}},{"Relevance":1.0,"Distance":44.4,"MatchLevel":"street","MatchQuality":{"Country":1.0,"State":1.0,"County":1.0,"City":1.0,"District":1.0,"Street":[1.0],"PostalCode":1.0},"Location":{"LocationId":"NT_14zWbvvFaoXMXtyroThe6B_l_578385349_L","LocationType":"point","DisplayPosition":{"Latitude":60.40648,"Longitude":25.10904},"MapView":{"TopLeft":{"Latitude":60.40655,"Longitude":25.10836},"BottomRight":{"Latitude":60.40648,"Longitude":25.10904}},"Address":{"Label":"Pumpputehtaanpolku, FI-04200 Kerava, Suomi","Country":"FIN","State":"Etelä-Suomi","County":"Uusimaa","City":"Kerava","District":"Kerava","Street":"Pumpputehtaanpolku","PostalCode":"04200","AdditionalData":[{"value":"Suomi","key":"CountryName"},{"value":"Etelä-Suomi","key":"StateName"},{"value":"Uusimaa","key":"CountyName"}]},"MapReference":{"ReferenceId":"578385349","Spot":0.0,"SideOfStreet":"left","CountryId":"20241487","StateId":"20422913","CountyId":"20422914","CityId":"20448366","DistrictId":"20449493"}}},{"Relevance":1.0,"Distance":62.8,"MatchLevel":"houseNumber","MatchQuality":{"Country":1.0,"State":1.0,"County":1.0,"City":1.0,"District":1.0,"Street":[1.0],"HouseNumber":1.0,"PostalCode":1.0},"MatchType":"interpolated","Location":{"LocationId":"NT_NGWNZZXTEUfDYFMw3A6UqD_4A","LocationType":"point","DisplayPosition":{"Latitude":60.40653,"Longitude":25.11097},"MapView":{"TopLeft":{"Latitude":60.4076542,"Longitude":25.1086937},"BottomRight":{"Latitude":60.4054058,"Longitude":25.1132463}},"Address":{"Label":"Heikkiläntie 8, FI-04200 Kerava, Suomi","Country":"FIN","State":"Etelä-Suomi","County":"Uusimaa","City":"Kerava","District":"Kerava","Street":"Heikkiläntie","HouseNumber":"8","PostalCode":"04200","AdditionalData":[{"value":"Suomi","key":"CountryName"},{"value":"Etelä-Suomi","key":"StateName"},{"value":"Uusimaa","key":"CountyName"}]},"MapReference":{"ReferenceId":"578385351","Spot":0.4,"SideOfStreet":"left","CountryId":"20241487","StateId":"20422913","CountyId":"20422914","CityId":"20448366","DistrictId":"20449493","AddressId":"399307608","RoadLinkId":"80975028"}}},{"Relevance":1.0,"Distance":67.7,"MatchLevel":"houseNumber","MatchQuality":{"Country":1.0,"State":1.0,"County":1.0,"City":1.0,"District":1.0,"Street":[1.0],"HouseNumber":1.0,"PostalCode":1.0},"MatchType":"interpolated","Location":{"LocationId":"NT_ZZxWhTJKTelqIm.Oq1Zq1A_xA","LocationType":"point","DisplayPosition":{"Latitude":60.40696,"Longitude":25.10868},"MapView":{"TopLeft":{"Latitude":60.4080842,"Longitude":25.1064036},"BottomRight":{"Latitude":60.4058358,"Longitude":25.1109564}},"Address":{"Label":"Tapulitori 1, FI-04200 Kerava, Suomi","Country":"FIN","State":"Etelä-Suomi","County":"Uusimaa","City":"Kerava","District":"Kerava","Street":"Tapulitori","HouseNumber":"1","PostalCode":"04200","AdditionalData":[{"value":"Suomi","key":"CountryName"},{"value":"Etelä-Suomi","key":"StateName"},{"value":"Uusimaa","key":"CountyName"}]},"MapReference":{"ReferenceId":"921256540","Spot":0.56,"SideOfStreet":"right","CountryId":"20241487","StateId":"20422913","CountyId":"20422914","CityId":"20448366","DistrictId":"20449493","AddressId":"673689872","RoadLinkId":"300154258"}}},{"Relevance":1.0,"Distance":74.4,"MatchLevel":"houseNumber","MatchQuality":{"Country":1.0,"State":1.0,"County":1.0,"City":1.0,"District":1.0,"Street":[1.0],"HouseNumber":1.0,"PostalCode":1.0},"MatchType":"interpolated","Location":{"LocationId":"NT_ZZxWhTJKTelqIm.Oq1Zq1A_l_921256541_L_xA","LocationType":"point","DisplayPosition":{"Latitude":60.4069798,"Longitude":25.1090331},"MapView":{"TopLeft":{"Latitude":60.4081039,"Longitude":25.1067567},"BottomRight":{"Latitude":60.4058556,"Longitude":25.1113095}},"Address":{"Label":"Tapulitori 1, FI-04200 Kerava, Suomi","Country":"FIN","State":"Etelä-Suomi","County":"Uusimaa","City":"Kerava","District":"Kerava","Street":"Tapulitori","HouseNumber":"1","PostalCode":"04200","AdditionalData":[{"value":"Suomi","key":"CountryName"},{"value":"Etelä-Suomi","key":"StateName"},{"value":"Uusimaa","key":"CountyName"}]},"MapReference":{"ReferenceId":"921256541","Spot":0.52,"SideOfStreet":"left","CountryId":"20241487","StateId":"20422913","CountyId":"20422914","CityId":"20448366","DistrictId":"20449493"}}},{"Relevance":1.0,"Distance":83.8,"MatchLevel":"houseNumber","MatchQuality":{"Country":1.0,"State":1.0,"County":1.0,"City":1.0,"District":1.0,"Street":[1.0],"HouseNumber":1.0,"PostalCode":1.0},"MatchType":"interpolated","Location":{"LocationId":"NT_vZMJF2C1JXGTw9Qm8PzXmA_xUD","LocationType":"point","DisplayPosition":{"Latitude":60.40693,"Longitude":25.10853},"MapView":{"TopLeft":{"Latitude":60.4080542,"Longitude":25.1062536},"BottomRight":{"Latitude":60.4058058,"Longitude":25.1108064}},"Address":{"Label":"Tapulikatu 15, FI-04200 Kerava, Suomi","Country":"FIN","State":"Etelä-Suomi","County":"Uusimaa","City":"Kerava","District":"Kerava","Street":"Tapulikatu","HouseNumber":"15","PostalCode":"04200","AdditionalData":[{"value":"Suomi","key":"CountryName"},{"value":"Etelä-Suomi","key":"StateName"},{"value":"Uusimaa","key":"CountyName"}]},"MapReference":{"ReferenceId":"921256539","Spot":1.0,"SideOfStreet":"right","CountryId":"20241487","StateId":"20422913","CountyId":"20422914","CityId":"20448366","DistrictId":"20449493","AddressId":"714762992","RoadLinkId":"278255641"}}}]}]}}