{"Response":{"MetaInfo":{"Timestamp":"2020-03-28T11:06:36.855+0000","NextPageInformation":"2"},"View":[{"_type":"SearchResultsViewType","ViewId":0,"Result":[{"Relevance":1.0,"Distance":0.0,"Direction":0.0,"MatchLevel":"district","MatchQuality":{"Country":1.0,"State":1.0,"County":1.0,"City":1.0,"District":1.0,"PostalCode":1.0},"Location":{"LocationId":"NT_b8s42u57f4w-LUDcjN8zBA","LocationType":"point","DisplayPosition":{"Latitude":60.531808,"Longitude":25.1067637},"MapView":{"TopLeft":{"Latitude":60.54401,"Longitude":25.08489},"BottomRight":{"Latitude":60.51907,"Longitude":25.12532}},"Address":{"Label":"Kellokoski, Tuusula, Etelä-Suomi, Suomi","Country":"FIN","State":"Etelä-Suomi","County":"Uusimaa","City":"Tuusula","District":"Kellokoski","PostalCode":"04500","AdditionalData":[{"value":"Suomi","key":"CountryName"},{"value":"Etelä-Suomi","key":"StateName"},{"value":"Uusimaa","key":"CountyName"}]},"MapReference":{"ReferenceId":"950327588","SideOfStreet":"neither","CountryId":"20241487","StateId":"20422913","CountyId":"20422914","CityId":"20448360","DistrictId":"20452551"}}},{"Relevance":1.0,"Distance":37.6,"MatchLevel":"houseNumber","MatchQuality":{"Country":1.0,"State":1.0,"County":1.0,"City":1.0,"District":1.0,"Street":[1.0],"HouseNumber":1.0,"PostalCode":1.0},"MatchType":"interpolated","Location":{"LocationId":"NT_jDU3aI1tBShGZO8hjT-P2C_yA","LocationType":"point","DisplayPosition":{"Latitude":60.53147,"Longitude":25.10677},"MapView":{"TopLeft":{"Latitude":60.5325942,"Longitude":25.1044849},"BottomRight":{"Latitude":60.5303458,"Longitude":25.1090551}},"Address":{"Label":"Ruukinkuja 2, FI-04500 Kellokoski, Suomi","Country":"FIN","State":"Etelä-Suomi","County":"Uusimaa","City":"Tuusula","District":"Kellokoski","Street":"Ruukinkuja","HouseNumber":"2","PostalCode":"04500","AdditionalData":[{"value":"Suomi","key":"CountryName"},{"value":"Etelä-Suomi","key":"StateName"},{"value":"Uusimaa","key":"CountyName"}]},"MapReference":{"ReferenceId":"1236809904","Spot":0.49,"SideOfStreet":"left","CountryId":"20241487","StateId":"20422913","CountyId":"20422914","CityId":"20448360","DistrictId":"20452551","AddressId":"673684733","RoadLinkId":"557509094"}}},{"Relevance":1.0,"Distance":52.2,"MatchLevel":"street","MatchQuality":{"Country":1.0,"State":1.0,"County":1.0,"City":1.0,"District":1.0,"PostalCode":1.0},"Location":{"LocationId":"NT_QxBek6kigUCkSiEMBJVLaA_l_1236809905_L","LocationType":"point","DisplayPosition":{"Latitude":60.5313785,"Longitude":25.1071495},"MapView":{"TopLeft":{"Latitude":60.5319,"Longitude":25.10714},"BottomRight":{"Latitude":60.53137,"Longitude":25.10773}},"Address":{"Label":"FI-04500 Kellokoski, Suomi","Country":"FIN","State":"Etelä-Suomi","County":"Uusimaa","City":"Tuusula","District":"Kellokoski","PostalCode":"04500","AdditionalData":[{"value":"Suomi","key":"CountryName"},{"value":"Etelä-Suomi","key":"StateName"},{"value":"Uusimaa","key":"CountyName"}]},"MapReference":{"ReferenceId":"1236809905","Spot":0.02,"SideOfStreet":"left","CountryId":"20241487","StateId":"20422913","CountyId":"20422914","CityId":"20448360","DistrictId":"20452551"}}},{"Relevance":1.0,"Distance":52.9,"MatchLevel":"street","MatchQuality":{"Country":1.0,"State":1.0,"County":1.0,"City":1.0,"District":1.0,"Street":[1.0],"PostalCode":1.0},"Location":{"LocationId":"NT_jDU3aI1tBShGZO8hjT-P2C_l_1236809903_R","LocationType":"point","DisplayPosition":{"Latitude":60.53137,"Longitude":25.10714},"MapView":{"TopLeft":{"Latitude":60.53137,"Longitude":25.10714},"BottomRight":{"Latitude":60.53052,"Longitude":25.10859}},"Address":{"Label":"Ruukinkuja, FI-04500 Kellokoski, Suomi","Country":"FIN","State":"Etelä-Suomi","County":"Uusimaa","City":"Tuusula","District":"Kellokoski","Street":"Ruukinkuja","PostalCode":"04500","AdditionalData":[{"value":"Suomi","key":"CountryName"},{"value":"Etelä-Suomi","key":"StateName"},{"value":"Uusimaa","key":"CountyName"}]},"MapReference":{"ReferenceId":"1236809903","Spot":1.0,"SideOfStreet":"right","CountryId":"20241487","StateId":"20422913","CountyId":"20422914","CityId":"20448360","DistrictId":"20452551"}}},{"Relevance":1.0,"Distance":90.1,"MatchLevel":"street","MatchQuality":{"Country":1.0,"State":1.0,"County":1.0,"City":1.0,"District":1.0,"Street":[1.0],"PostalCode":1.0},"Location":{"LocationId":"NT_1tGusy2kt-J3MHUbRN9iGA_l_1237612909_R","LocationType":"point","DisplayPosition":{"Latitude":60.5314,"Longitude":25.10534},"MapView":{"TopLeft":{"Latitude":60.5314,"Longitude":25.10481},"BottomRight":{"Latitude":60.53127,"Longitude":25.10534}},"Address":{"Label":"Ruukinpolku, FI-04500 Kellokoski, Suomi","Country":"FIN","State":"Etelä-Suomi","County":"Uusimaa","City":"Tuusula","District":"Kellokoski","Street":"Ruukinpolku","PostalCode":"04500","AdditionalData":[{"value":"Suomi","key":"CountryName"},{"value":"Etelä-Suomi","key":"StateName"},{"value":"Uusimaa","key":"CountyName"}]},"MapReference":{"ReferenceId":"1237612909","Spot":1.0,"SideOfStreet":"right","CountryId":"20241487","StateId":"20422913","CountyId":"20422914","CityId":"20448360","DistrictId":"20452551"}}},{"Relevance":1.0,"Distance":123.6,"MatchLevel":"houseNumber","MatchQuality":{"Country":1.0,"State":1.0,"County":1.0,"City":1.0,"District":1.0,"Street":[1.0],"HouseNumber":1.0,"PostalCode":1.0},"MatchType":"interpolated","Location":{"LocationId":"NT_poyJ3noTSpJOS2za1W5XMC_xkDOtEjc","LocationType":"point","DisplayPosition":{"Latitude":60.53197,"Longitude":25.11011},"MapView":{"TopLeft":{"Latitude":60.5330942,"Longitude":25.1078248},"BottomRight":{"Latitude":60.5308458,"Longitude":25.1123952}},"Address":{"Label":"Vanha Valtatie 198-1r, FI-04500 Kellokoski, Suomi","Country":"FIN","State":"Etelä-Suomi","County":"Uusimaa","City":"Tuusula","District":"Kellokoski","Street":"Vanha Valtatie","HouseNumber":"198-1r","PostalCode":"04500","AdditionalData":[{"value":"Suomi","key":"CountryName"},{"value":"Etelä-Suomi","key":"StateName"},{"value":"Uusimaa","key":"CountyName"}]},"MapReference":{"ReferenceId":"949451771","Spot":0.92,"SideOfStreet":"left","CountryId":"20241487","StateId":"20422913","CountyId":"20422914","CityId":"20448360","DistrictId":"20452551","AddressId":"775067655","RoadLinkId":"296439970"}}},{"Relevance":1.0,"Distance":131.3,"MatchLevel":"street","MatchQuality":{"Country":1.0,"State":1.0,"County":1.0,"City":1.0,"District":1.0,"PostalCode":1.0},"Location":{"LocationId":"NT_QxBek6kigUCkSiEMBJVLaA_l_1237612910_R","LocationType":"point","DisplayPosition":{"Latitude":60.53066,"Longitude":25.1062},"MapView":{"TopLeft":{"Latitude":60.53127,"Longitude":25.10481},"BottomRight":{"Latitude":60.53029,"Longitude":25.1062}},"Address":{"Label":"FI-04500 Kellokoski, Suomi","Country":"FIN","State":"Etelä-Suomi","County":"Uusimaa","City":"Tuusula","District":"Kellokoski","PostalCode":"04500","AdditionalData":[{"value":"Suomi","key":"CountryName"},{"value":"Etelä-Suomi","key":"StateName"},{"value":"Uusimaa","key":"CountyName"}]},"MapReference":{"ReferenceId":"1237612910","Spot":0.0,"SideOfStreet":"right","CountryId":"20241487","StateId":"20422913","CountyId":"20422914","CityId":"20448360","DistrictId":"20452551"}}},{"Relevance":1.0,"Distance":159.1,"MatchLevel":"street","MatchQuality":{"Country":1.0,"State":1.0,"County":1.0,"City":1.0,"District":1.0,"Street":[1.0],"PostalCode":1.0},"Location":{"LocationId":"NT_c-nYVx0dJSUKsbndPM.NEB_l_949451770_L","LocationType":"point","DisplayPosition":{"Latitude":60.53149,"Longitude":25.1096},"MapView":{"TopLeft":{"Latitude":60.53162,"Longitude":25.1096},"BottomRight":{"Latitude":60.53149,"Longitude":25.10974}},"Address":{"Label":"Vanha Valtatie, FI-04500 Kellokoski, Suomi","Country":"FIN","State":"Etelä-Suomi","County":"Uusimaa","City":"Tuusula","District":"Kellokoski","Street":"Vanha Valtatie","PostalCode":"04500","AdditionalData":[{"value":"Suomi","key":"CountryName"},{"value":"Etelä-Suomi","key":"StateName"},{"value":"Uusimaa","key":"CountyName"}]},"MapReference":{"ReferenceId":"949451770","Spot":0.0,"SideOfStreet":"left","CountryId":"20241487","StateId":"20422913","CountyId":"20422914","CityId":"20448360","DistrictId":"20452551"}}},{"Relevance":1.0,"Distance":167.6,"MatchLevel":"street","MatchQuality":{"Country":1.0,"State":1.0,"County":1.0,"City":1.0,"District":1.0,"Street":[1.0],"PostalCode":1.0},"Location":{"LocationId":"NT_c-nYVx0dJSUKsbndPM.NEB_l_949451773_L","LocationType":"point","DisplayPosition":{"Latitude":60.53066,"Longitude":25.10875},"MapView":{"TopLeft":{"Latitude":60.53149,"Longitude":25.10875},"BottomRight":{"Latitude":60.53066,"Longitude":25.1096}},"Address":{"Label":"Vanha Valtatie, FI-04500 Kellokoski, Suomi","Country":"FIN","State":"Etelä-Suomi","County":"Uusimaa","City":"Tuusula","District":"Kellokoski","Street":"Vanha Valtatie","PostalCode":"04500","AdditionalData":[{"value":"Suomi","key":"CountryName"},{"value":"Etelä-Suomi","key":"StateName"},{"value":"Uusimaa","key":"CountyName"}]},"MapReference":{"ReferenceId":"949451773","Spot":0.0,"SideOfStreet":"left","CountryId":"20241487","StateId":"20422913","CountyId":"20422914","CityId":"20448360","DistrictId":"20452551"}}},{"Relevance":1.0,"Distance":174.6,"MatchLevel":"street","MatchQuality":{"Country":1.0,"State":1.0,"County":1.0,"City":1.0,"District":1.0,"Street":[1.0],"PostalCode":1.0},"Location":{"LocationId":"NT_c-nYVx0dJSUKsbndPM.NEB_l_949451772_L","LocationType":"point","DisplayPosition":{"Latitude":60.53052,"Longitude":25.10859},"MapView":{"TopLeft":{"Latitude":60.53066,"Longitude":25.10859},"BottomRight":{"Latitude":60.53052,"Longitude":25.10875}},"Address":{"Label":"Vanha Valtatie, FI-04500 Kellokoski, Suomi","Country":"FIN","State":"Etelä-Suomi","County":"Uusimaa","City":"Tuusula","District":"Kellokoski","Street":"Vanha Valtatie","PostalCode":"04500","AdditionalData":[{"value":"Suomi","key":"CountryName"},{"value":"Etelä-Suomi","key":"StateName"},{"value":"Uusimaa","key":"CountyName"}]},"MapReference":{"ReferenceId":"949451772","Spot":0.0,"SideOfStreet":"left","CountryId":"20241487","StateId":"20422913","CountyId":"20422914","CityId":"20448360","DistrictId":"20452551"}}}]}]}}