{"Response":{"MetaInfo":{"Timestamp":"2020-03-28T11:07:06.832+0000","NextPageInformation":"2"},"View":[{"_type":"SearchResultsViewType","ViewId":0,"Result":[{"Relevance":1.0,"Distance":0.0,"Direction":0.0,"MatchLevel":"district","MatchQuality":{"Country":1.0,"State":1.0,"County":1.0,"City":1.0,"District":1.0,"PostalCode":1.0},"Location":{"LocationId":"NT_k-vMYuVUBSRfrrUM1jWD2D","LocationType":"point","DisplayPosition":{"Latitude":60.6322811,"Longitude":23.4948196},"MapView":{"TopLeft":{"Latitude":60.65015,"Longitude":23.4542},"BottomRight":{"Latitude":60.60845,"Longitude":23.57205}},"Address":{"Label":"Somero, Lounais-Suomi, Suomi","Country":"FIN","State":"Lounais-Suomi","County":"Varsinais-Suomi","City":"Somero","District":"Somero","PostalCode":"31400","AdditionalData":[{"value":"Suomi","key":"CountryName"},{"value":"Lounais-Suomi","key":"StateName"},{"value":"Varsinais-Suomi","key":"CountyName"}]},"MapReference":{"ReferenceId":"1186548484","SideOfStreet":"neither","CountryId":"20241487","StateId":"20428850","CountyId":"20499886","CityId":"20500016","DistrictId":"20500017"}}},{"Relevance":1.0,"Distance":20.5,"MatchLevel":"houseNumber","MatchQuality":{"Country":1.0,"State":1.0,"County":1.0,"City":1.0,"District":1.0,"Street":[1.0],"HouseNumber":1.0,"PostalCode":1.0},"MatchType":"interpolated","Location":{"LocationId":"NT_sefWbClRpe92cDyF5JbJ1B_l_576083668_R_xEDO","LocationType":"point","DisplayPosition":{"Latitude":60.63251,"Longitude":23.4951301},"MapView":{"TopLeft":{"Latitude":60.6336342,"Longitude":23.4928379},"BottomRight":{"Latitude":60.6313859,"Longitude":23.4974224}},"Address":{"Label":"Turuntie 118, FI-31400 Somero, Suomi","Country":"FIN","State":"Lounais-Suomi","County":"Varsinais-Suomi","City":"Somero","District":"Somero","Street":"Turuntie","HouseNumber":"118","PostalCode":"31400","AdditionalData":[{"value":"Suomi","key":"CountryName"},{"value":"Lounais-Suomi","key":"StateName"},{"value":"Varsinais-Suomi","key":"CountyName"}]},"MapReference":{"ReferenceId":"576083668","Spot":0.09,"SideOfStreet":"right","CountryId":"20241487","StateId":"20428850","CountyId":"20499886","CityId":"20500016","DistrictId":"20500017"}}},{"Relevance":1.0,"Distance":30.9,"MatchLevel":"houseNumber","MatchQuality":{"Country":1.0,"State":1.0,"County":1.0,"City":1.0,"District":1.0,"Street":[1.0],"HouseNumber":1.0,"PostalCode":1.0},"MatchType":"interpolated","Location":{"LocationId":"NT_sefWbClRpe92cDyF5JbJ1B_l_1222165826_R_xIDM","LocationType":"point","DisplayPosition":{"Latitude":60.6324595,"Longitude":23.4942516},"MapView":{"TopLeft":{"Latitude":60.6335836,"Longitude":23.4919593},"BottomRight":{"Latitude":60.6313353,"Longitude":23.4965439}},"Address":{"Label":"Turuntie 120, FI-31400 Somero, Suomi","Country":"FIN","State":"Lounais-Suomi","County":"Varsinais-Suomi","City":"Somero","District":"Somero","Street":"Turuntie","HouseNumber":"120","PostalCode":"31400","AdditionalData":[{"value":"Suomi","key":"CountryName"},{"value":"Lounais-Suomi","key":"StateName"},{"value":"Varsinais-Suomi","key":"CountyName"}]},"MapReference":{"ReferenceId":"1222165826","Spot":0.72,"SideOfStreet":"right","CountryId":"20241487","StateId":"20428850","CountyId":"20499886","CityId":"20500016","DistrictId":"20500017"}}},{"Relevance":1.0,"Distance":61.8,"MatchLevel":"houseNumber","MatchQuality":{"Country":1.0,"State":1.0,"County":1.0,"City":1.0,"District":1.0,"Street":[1.0],"HouseNumber":1.0,"PostalCode":1.0},"MatchType":"interpolated","Location":{"LocationId":"NT_b8GSIiP4SFJvSsesZZ46mC_zgD","LocationType":"point","DisplayPosition":{"Latitude":60.63192,"Longitude":23.49561},"MapView":{"TopLeft":{"Latitude":60.6330442,"Longitude":23.4933178},"BottomRight":{"Latitude":60.6307958,"Longitude":23.4979022}},"Address":{"Label":"Turuntie 38, FI-31400 Somero, Suomi","Country":"FIN","State":"Lounais-Suomi","County":"Varsinais-Suomi","City":"Somero","District":"Somero","Street":"Turuntie","HouseNumber":"38","PostalCode":"31400","AdditionalData":[{"value":"Suomi","key":"CountryName"},{"value":"Lounais-Suomi","key":"StateName"},{"value":"Varsinais-Suomi","key":"CountyName"}]},"MapReference":{"ReferenceId":"576158193","Spot":0.0,"SideOfStreet":"left","CountryId":"20241487","StateId":"20428850","CountyId":"20499886","CityId":"20500016","DistrictId":"20500017","AddressId":"673632686","RoadLinkId":"97194926"}}},{"Relevance":1.0,"Distance":76.2,"MatchLevel":"houseNumber","MatchQuality":{"Country":1.0,"State":1.0,"County":1.0,"City":1.0,"District":1.0,"Street":[1.0],"HouseNumber":1.0,"PostalCode":1.0},"MatchType":"interpolated","Location":{"LocationId":"NT_yQFM6JiPDAyHV-2GGEkveC_3A","LocationType":"point","DisplayPosition":{"Latitude":60.63141,"Longitude":23.4951},"MapView":{"TopLeft":{"Latitude":60.6325342,"Longitude":23.4928078},"BottomRight":{"Latitude":60.6302858,"Longitude":23.4973922}},"Address":{"Label":"Sairaalatie 7, FI-31400 Somero, Suomi","Country":"FIN","State":"Lounais-Suomi","County":"Varsinais-Suomi","City":"Somero","District":"Somero","Street":"Sairaalatie","HouseNumber":"7","PostalCode":"31400","AdditionalData":[{"value":"Suomi","key":"CountryName"},{"value":"Lounais-Suomi","key":"StateName"},{"value":"Varsinais-Suomi","key":"CountyName"}]},"MapReference":{"ReferenceId":"576084120","Spot":1.0,"SideOfStreet":"right","CountryId":"20241487","StateId":"20428850","CountyId":"20499886","CityId":"20500016","DistrictId":"20500017","AddressId":"673633071","RoadLinkId":"97192134"}}},{"Relevance":1.0,"Distance":110.3,"MatchLevel":"houseNumber","MatchQuality":{"Country":1.0,"State":1.0,"County":1.0,"City":1.0,"District":1.0,"Street":[1.0],"HouseNumber":1.0,"PostalCode":1.0},"MatchType":"interpolated","Location":{"LocationId":"NT_b8GSIiP4SFJvSsesZZ46mC_0ED","LocationType":"point","DisplayPosition":{"Latitude":60.63327,"Longitude":23.49465},"MapView":{"TopLeft":{"Latitude":60.6343942,"Longitude":23.4923577},"BottomRight":{"Latitude":60.6321458,"Longitude":23.4969423}},"Address":{"Label":"Turuntie 41, FI-31400 Somero, Suomi","Country":"FIN","State":"Lounais-Suomi","County":"Varsinais-Suomi","City":"Somero","District":"Somero","Street":"Turuntie","HouseNumber":"41","PostalCode":"31400","AdditionalData":[{"value":"Suomi","key":"CountryName"},{"value":"Lounais-Suomi","key":"StateName"},{"value":"Varsinais-Suomi","key":"CountyName"}]},"MapReference":{"ReferenceId":"576083669","Spot":0.09,"SideOfStreet":"right","CountryId":"20241487","StateId":"20428850","CountyId":"20499886","CityId":"20500016","DistrictId":"20500017","AddressId":"677538596","RoadLinkId":"97194926"}}},{"Relevance":1.0,"Distance":127.8,"MatchLevel":"houseNumber","MatchQuality":{"Country":1.0,"State":1.0,"County":1.0,"City":1.0,"District":1.0,"Street":[1.0],"HouseNumber":1.0,"PostalCode":1.0},"MatchType":"interpolated","Location":{"LocationId":"NT_sefWbClRpe92cDyF5JbJ1B_l_1222165825_R_xMDM","LocationType":"point","DisplayPosition":{"Latitude":60.632345,"Longitude":23.49247},"MapView":{"TopLeft":{"Latitude":60.6334692,"Longitude":23.4901778},"BottomRight":{"Latitude":60.6312208,"Longitude":23.4947623}},"Address":{"Label":"Turuntie 130, FI-31400 Somero, Suomi","Country":"FIN","State":"Lounais-Suomi","County":"Varsinais-Suomi","City":"Somero","District":"Somero","Street":"Turuntie","HouseNumber":"130","PostalCode":"31400","AdditionalData":[{"value":"Suomi","key":"CountryName"},{"value":"Lounais-Suomi","key":"StateName"},{"value":"Varsinais-Suomi","key":"CountyName"}]},"MapReference":{"ReferenceId":"1222165825","Spot":0.5,"SideOfStreet":"right","CountryId":"20241487","StateId":"20428850","CountyId":"20499886","CityId":"20500016","DistrictId":"20500017"}}},{"Relevance":1.0,"Distance":134.3,"MatchLevel":"houseNumber","MatchQuality":{"Country":1.0,"State":1.0,"County":1.0,"City":1.0,"District":1.0,"Street":[1.0],"HouseNumber":1.0,"PostalCode":1.0},"MatchType":"interpolated","Location":{"LocationId":"NT_FbefJ8I7kdyOaF9sDQb9OB_xA","LocationType":"point","DisplayPosition":{"Latitude":60.63346,"Longitude":23.49246},"MapView":{"TopLeft":{"Latitude":60.6345842,"Longitude":23.4901677},"BottomRight":{"Latitude":60.6323358,"Longitude":23.4947523}},"Address":{"Label":"Tasangontie 1, FI-31400 Somero, Suomi","Country":"FIN","State":"Lounais-Suomi","County":"Varsinais-Suomi","City":"Somero","District":"Somero","Street":"Tasangontie","HouseNumber":"1","PostalCode":"31400","AdditionalData":[{"value":"Suomi","key":"CountryName"},{"value":"Lounais-Suomi","key":"StateName"},{"value":"Varsinais-Suomi","key":"CountyName"}]},"MapReference":{"ReferenceId":"576083545","Spot":0.52,"SideOfStreet":"right","CountryId":"20241487","StateId":"20428850","CountyId":"20499886","CityId":"20500016","DistrictId":"20500017","AddressId":"263704527","RoadLinkId":"97405988"}}},{"Relevance":1.0,"Distance":135.4,"MatchLevel":"houseNumber","MatchQuality":{"Country":1.0,"State":1.0,"County":1.0,"City":1.0,"District":1.0,"Street":[1.0],"HouseNumber":1.0,"PostalCode":1.0},"MatchType":"interpolated","Location":{"LocationId":"NT_LQFcQEYr4ae6lLTwuMxKqD_xA","LocationType":"point","DisplayPosition":{"Latitude":60.63289,"Longitude":23.4923},"MapView":{"TopLeft":{"Latitude":60.6340142,"Longitude":23.4900077},"BottomRight":{"Latitude":60.6317658,"Longitude":23.4945923}},"Address":{"Label":"Rankkulantie 1, FI-31400 Somero, Suomi","Country":"FIN","State":"Lounais-Suomi","County":"Varsinais-Suomi","City":"Somero","District":"Somero","Street":"Rankkulantie","HouseNumber":"1","PostalCode":"31400","AdditionalData":[{"value":"Suomi","key":"CountryName"},{"value":"Lounais-Suomi","key":"StateName"},{"value":"Varsinais-Suomi","key":"CountyName"}]},"MapReference":{"ReferenceId":"576083706","Spot":0.53,"SideOfStreet":"right","CountryId":"20241487","StateId":"20428850","CountyId":"20499886","CityId":"20500016","DistrictId":"20500017","AddressId":"263704428","RoadLinkId":"96598237"}}},{"Relevance":1.0,"Distance":135.7,"MatchLevel":"houseNumber","MatchQuality":{"Country":1.0,"State":1.0,"County":1.0,"City":1.0,"District":1.0,"Street":[1.0],"HouseNumber":1.0,"PostalCode":1.0},"MatchType":"interpolated","Location":{"LocationId":"NT_I6aCKTOPil8Kaq9KPCdtrC_l_576083725_R_yA","LocationType":"point","DisplayPosition":{"Latitude":60.6322851,"Longitude":23.4921475},"MapView":{"TopLeft":{"Latitude":60.6334092,"Longitude":23.4898552},"BottomRight":{"Latitude":60.6311609,"Longitude":23.4944397}},"Address":{"Label":"Jaatisentie 2, FI-31400 Somero, Suomi","Country":"FIN","State":"Lounais-Suomi","County":"Varsinais-Suomi","City":"Somero","District":"Somero","Street":"Jaatisentie","HouseNumber":"2","PostalCode":"31400","AdditionalData":[{"value":"Suomi","key":"CountryName"},{"value":"Lounais-Suomi","key":"StateName"},{"value":"Varsinais-Suomi","key":"CountyName"}]},"MapReference":{"ReferenceId":"576083725","Spot":0.56,"SideOfStreet":"right","CountryId":"20241487","StateId":"20428850","CountyId":"20499886","CityId":"20500016","DistrictId":"20500017"}}}]}]}}