{"Response":{"MetaInfo":{"Timestamp":"2020-03-28T10:00:53.914+0000","NextPageInformation":"2"},"View":[{"_type":"SearchResultsViewType","ViewId":0,"Result":[{"Relevance":1.0,"Distance":0.0,"Direction":0.0,"MatchLevel":"city","MatchQuality":{"Country":1.0,"State":1.0,"County":1.0,"City":1.0,"PostalCode":1.0},"Location":{"LocationId":"NT_xP-x-GZI51y9HVPbOmLjpC","LocationType":"point","DisplayPosition":{"Latitude":60.6438817,"Longitude":17.0067933},"MapView":{"TopLeft":{"Latitude":60.67805,"Longitude":16.9505},"BottomRight":{"Latitude":60.61427,"Longitude":17.08021}},"Address":{"Label":"Valbo, Gävleborgs län, Sverige","Country":"SWE","State":"Gävleborgs län","County":"Gävle","City":"Valbo","PostalCode":"818 30","AdditionalData":[{"value":"Sverige","key":"CountryName"},{"value":"Gävleborgs län","key":"StateName"},{"value":"Gävle","key":"CountyName"}]},"MapReference":{"ReferenceId":"958017054","SideOfStreet":"neither","CountryId":"20298368","StateId":"20298918","CountyId":"20298919","CityId":"20457190"}}},{"Relevance":1.0,"Distance":9.6,"MatchLevel":"houseNumber","MatchQuality":{"Country":1.0,"State":1.0,"County":1.0,"City":1.0,"Street":[1.0],"HouseNumber":1.0,"PostalCode":1.0},"MatchType":"interpolated","Location":{"LocationId":"NT_Akk9VaunWeNUxzq-YD6HRB_zA","LocationType":"point","DisplayPosition":{"Latitude":60.64396,"Longitude":17.0066},"MapView":{"TopLeft":{"Latitude":60.6450842,"Longitude":17.0043069},"BottomRight":{"Latitude":60.6428358,"Longitude":17.0088931}},"Address":{"Label":"Stiftelsevägen 3, SE-818 31 Valbo, Sverige","Country":"SWE","State":"Gävleborgs län","County":"Gävle","City":"Valbo","Street":"Stiftelsevägen","HouseNumber":"3","PostalCode":"818 31","AdditionalData":[{"value":"Sverige","key":"CountryName"},{"value":"Gävleborgs län","key":"StateName"},{"value":"Gävle","key":"CountyName"}]},"MapReference":{"ReferenceId":"83032264","Spot":0.35,"SideOfStreet":"right","CountryId":"20298368","StateId":"20298918","CountyId":"20298919","CityId":"20457190","AddressId":"215098170","RoadLinkId":"99248758"}}},{"Relevance":1.0,"Distance":40.5,"MatchLevel":"houseNumber","MatchQuality":{"Country":1.0,"State":1.0,"County":1.0,"City":1.0,"Street":[1.0],"HouseNumber":1.0,"PostalCode":1.0},"MatchType":"interpolated","Location":{"LocationId":"NT_Akk9VaunWeNUxzq-YD6HRB_1A","LocationType":"point","DisplayPosition":{"Latitude":60.64371,"Longitude":17.0061},"MapView":{"TopLeft":{"Latitude":60.6448342,"Longitude":17.0038069},"BottomRight":{"Latitude":60.6425858,"Longitude":17.0083931}},"Address":{"Label":"Stiftelsevägen 5, SE-818 31 Valbo, Sverige","Country":"SWE","State":"Gävleborgs län","County":"Gävle","City":"Valbo","Street":"Stiftelsevägen","HouseNumber":"5","PostalCode":"818 31","AdditionalData":[{"value":"Sverige","key":"CountryName"},{"value":"Gävleborgs län","key":"StateName"},{"value":"Gävle","key":"CountyName"}]},"MapReference":{"ReferenceId":"1085257703","Spot":0.96,"SideOfStreet":"right","CountryId":"20298368","StateId":"20298918","CountyId":"20298919","CityId":"20457190","AddressId":"215097788","RoadLinkId":"401438509"}}},{"Relevance":1.0,"Distance":44.9,"MatchLevel":"houseNumber","MatchQuality":{"Country":1.0,"State":1.0,"County":1.0,"City":1.0,"Street":[1.0],"HouseNumber":1.0,"PostalCode":1.0},"MatchType":"interpolated","Location":{"LocationId":"NT_DoHoydWu5TZuUqaK.bJ1iD_1A","LocationType":"point","DisplayPosition":{"Latitude":60.64423,"Longitude":17.00776},"MapView":{"TopLeft":{"Latitude":60.6453542,"Longitude":17.0054669},"BottomRight":{"Latitude":60.6431058,"Longitude":17.0100531}},"Address":{"Label":"Bäckvägen 5, SE-818 31 Valbo, Sverige","Country":"SWE","State":"Gävleborgs län","County":"Gävle","City":"Valbo","Street":"Bäckvägen","HouseNumber":"5","PostalCode":"818 31","AdditionalData":[{"value":"Sverige","key":"CountryName"},{"value":"Gävleborgs län","key":"StateName"},{"value":"Gävle","key":"CountyName"}]},"MapReference":{"ReferenceId":"1085257672","Spot":0.88,"SideOfStreet":"left","CountryId":"20298368","StateId":"20298918","CountyId":"20298919","CityId":"20457190","AddressId":"215097963","RoadLinkId":"401438478"}}},{"Relevance":1.0,"Distance":51.6,"MatchLevel":"houseNumber","MatchQuality":{"Country":1.0,"State":1.0,"County":1.0,"City":1.0,"Street":[1.0],"HouseNumber":1.0,"PostalCode":1.0},"MatchType":"interpolated","Location":{"LocationId":"NT_DoHoydWu5TZuUqaK.bJ1iD_l_1206685124_L_xMD","LocationType":"point","DisplayPosition":{"Latitude":60.6444331,"Longitude":17.0072521},"MapView":{"TopLeft":{"Latitude":60.6455573,"Longitude":17.004959},"BottomRight":{"Latitude":60.643309,"Longitude":17.0095453}},"Address":{"Label":"Bäckvägen 13, SE-818 31 Valbo, Sverige","Country":"SWE","State":"Gävleborgs län","County":"Gävle","City":"Valbo","Street":"Bäckvägen","HouseNumber":"13","PostalCode":"818 31","AdditionalData":[{"value":"Sverige","key":"CountryName"},{"value":"Gävleborgs län","key":"StateName"},{"value":"Gävle","key":"CountyName"}]},"MapReference":{"ReferenceId":"1206685124","Spot":0.53,"SideOfStreet":"left","CountryId":"20298368","StateId":"20298918","CountyId":"20298919","CityId":"20457190"}}},{"Relevance":1.0,"Distance":56.2,"MatchLevel":"houseNumber","MatchQuality":{"Country":1.0,"State":1.0,"County":1.0,"City":1.0,"Street":[1.0],"HouseNumber":1.0,"PostalCode":1.0},"MatchType":"interpolated","Location":{"LocationId":"NT_DoHoydWu5TZuUqaK.bJ1iD_3A","LocationType":"point","DisplayPosition":{"Latitude":60.64463,"Longitude":17.00675},"MapView":{"TopLeft":{"Latitude":60.6457542,"Longitude":17.0044569},"BottomRight":{"Latitude":60.6435058,"Longitude":17.0090431}},"Address":{"Label":"Bäckvägen 7, SE-818 31 Valbo, Sverige","Country":"SWE","State":"Gävleborgs län","County":"Gävle","City":"Valbo","Street":"Bäckvägen","HouseNumber":"7","PostalCode":"818 31","AdditionalData":[{"value":"Sverige","key":"CountryName"},{"value":"Gävleborgs län","key":"StateName"},{"value":"Gävle","key":"CountyName"}]},"MapReference":{"ReferenceId":"957637191","Spot":0.07,"SideOfStreet":"left","CountryId":"20298368","StateId":"20298918","CountyId":"20298919","CityId":"20457190","AddressId":"215106493","RoadLinkId":"300591813"}}},{"Relevance":1.0,"Distance":63.4,"MatchLevel":"houseNumber","MatchQuality":{"Country":1.0,"State":1.0,"County":1.0,"City":1.0,"Street":[1.0],"HouseNumber":1.0,"PostalCode":1.0},"MatchType":"interpolated","Location":{"LocationId":"NT_DoHoydWu5TZuUqaK.bJ1iD_l_1085257673_R_yA","LocationType":"point","DisplayPosition":{"Latitude":60.6443416,"Longitude":17.0074811},"MapView":{"TopLeft":{"Latitude":60.6454657,"Longitude":17.005188},"BottomRight":{"Latitude":60.6432174,"Longitude":17.0097742}},"Address":{"Label":"Bäckvägen 2, SE-818 31 Valbo, Sverige","Country":"SWE","State":"Gävleborgs län","County":"Gävle","City":"Valbo","Street":"Bäckvägen","HouseNumber":"2","PostalCode":"818 31","AdditionalData":[{"value":"Sverige","key":"CountryName"},{"value":"Gävleborgs län","key":"StateName"},{"value":"Gävle","key":"CountyName"}]},"MapReference":{"ReferenceId":"1085257673","Spot":0.53,"SideOfStreet":"right","CountryId":"20298368","StateId":"20298918","CountyId":"20298919","CityId":"20457190"}}},{"Relevance":1.0,"Distance":72.0,"MatchLevel":"street","MatchQuality":{"Country":1.0,"State":1.0,"County":1.0,"City":1.0,"Street":[1.0],"PostalCode":1.0},"Location":{"LocationId":"NT_DoHoydWu5TZuUqaK.bJ1iD_l_1206685125_L","LocationType":"point","DisplayPosition":{"Latitude":60.6445185,"Longitude":17.0070348},"MapView":{"TopLeft":{"Latitude":60.6446,"Longitude":17.00682},"BottomRight":{"Latitude":60.64449,"Longitude":17.00711}},"Address":{"Label":"Bäckvägen, SE-818 31 Valbo, Sverige","Country":"SWE","State":"Gävleborgs län","County":"Gävle","City":"Valbo","Street":"Bäckvägen","PostalCode":"818 31","AdditionalData":[{"value":"Sverige","key":"CountryName"},{"value":"Gävleborgs län","key":"StateName"},{"value":"Gävle","key":"CountyName"}]},"MapReference":{"ReferenceId":"1206685125","Spot":0.26,"SideOfStreet":"left","CountryId":"20298368","StateId":"20298918","CountyId":"20298919","CityId":"20457190"}}},{"Relevance":1.0,"Distance":78.1,"MatchLevel":"houseNumber","MatchQuality":{"Country":1.0,"State":1.0,"County":1.0,"City":1.0,"Street":[1.0],"HouseNumber":1.0,"PostalCode":1.0},"MatchType":"interpolated","Location":{"LocationId":"NT_X-e4dSsXPcl.tyxSCpzEKC_yQDNDB","LocationType":"point","DisplayPosition":{"Latitude":60.64262,"Longitude":17.00724},"MapView":{"TopLeft":{"Latitude":60.6437442,"Longitude":17.004947},"BottomRight":{"Latitude":60.6414958,"Longitude":17.009533}},"Address":{"Label":"Valbovägen 244C, SE-818 30 Valbo, Sverige","Country":"SWE","State":"Gävleborgs län","County":"Gävle","City":"Valbo","Street":"Valbovägen","HouseNumber":"244C","PostalCode":"818 30","AdditionalData":[{"value":"Sverige","key":"CountryName"},{"value":"Gävleborgs län","key":"StateName"},{"value":"Gävle","key":"CountyName"}]},"MapReference":{"ReferenceId":"83032324","Spot":0.19,"SideOfStreet":"left","CountryId":"20298368","StateId":"20298918","CountyId":"20298919","CityId":"20457190","AddressId":"215097892","RoadLinkId":"99471837"}}},{"Relevance":1.0,"Distance":93.0,"MatchLevel":"houseNumber","MatchQuality":{"Country":1.0,"State":1.0,"County":1.0,"City":1.0,"Street":[1.0],"HouseNumber":1.0,"PostalCode":1.0},"MatchType":"interpolated","Location":{"LocationId":"NT_ksu5hN-sTWGpXVG3HSbXQD_xAD","LocationType":"point","DisplayPosition":{"Latitude":60.64416,"Longitude":17.00511},"MapView":{"TopLeft":{"Latitude":60.6452842,"Longitude":17.0028169},"BottomRight":{"Latitude":60.6430358,"Longitude":17.0074031}},"Address":{"Label":"Lottavägen 10, SE-818 31 Valbo, Sverige","Country":"SWE","State":"Gävleborgs län","County":"Gävle","City":"Valbo","Street":"Lottavägen","HouseNumber":"10","PostalCode":"818 31","AdditionalData":[{"value":"Sverige","key":"CountryName"},{"value":"Gävleborgs län","key":"StateName"},{"value":"Gävle","key":"CountyName"}]},"MapReference":{"ReferenceId":"83032265","Spot":0.81,"SideOfStreet":"right","CountryId":"20298368","StateId":"20298918","CountyId":"20298919","CityId":"20457190","AddressId":"215098165","RoadLinkId":"99293838"}}}]}]}}