{"Response":{"MetaInfo":{"Timestamp":"2020-03-28T11:06:34.929+0000","NextPageInformation":"2"},"View":[{"_type":"SearchResultsViewType","ViewId":0,"Result":[{"Relevance":1.0,"Distance":-92.1,"MatchLevel":"landmark","MatchQuality":{"Country":1.0,"State":1.0,"County":1.0,"City":1.0,"District":1.0,"PostalCode":1.0,"Name":1.0},"Location":{"LocationId":"NT_ayAoNifP6aY9yv5Rxh6HVA_p_HwtmBD4ALVedVSbgSpsIFB","LocationType":"hospital","Name":"Riihimäen sairaala","DisplayPosition":{"Latitude":60.74649,"Longitude":24.74375},"MapView":{"TopLeft":{"Latitude":60.74891,"Longitude":24.73941},"BottomRight":{"Latitude":60.74549,"Longitude":24.74875}},"Address":{"Label":"FI-11120 Riihimäki, Suomi","Country":"FIN","State":"Etelä-Suomi","County":"Kanta-Häme","City":"Riihimäki","District":"Riihimäki","PostalCode":"11120","AdditionalData":[{"value":"Suomi","key":"CountryName"},{"value":"Etelä-Suomi","key":"StateName"},{"value":"Kanta-Häme","key":"CountyName"}]},"MapReference":{"CountryId":"20241487","StateId":"20422913","CountyId":"20448122","CityId":"20448161","DistrictId":"20448448","PlaceId":"553715097"}}},{"Relevance":1.0,"Distance":0.0,"Direction":0.0,"MatchLevel":"district","MatchQuality":{"Country":1.0,"State":1.0,"County":1.0,"City":1.0,"District":1.0,"PostalCode":1.0},"Location":{"LocationId":"NT_zhbvo4O2bXrCuqqfI10i3B","LocationType":"point","DisplayPosition":{"Latitude":60.7475521,"Longitude":24.7450659},"MapView":{"TopLeft":{"Latitude":60.76216,"Longitude":24.73158},"BottomRight":{"Latitude":60.71384,"Longitude":24.83943}},"Address":{"Label":"Riihimäki, Etelä-Suomi, Suomi","Country":"FIN","State":"Etelä-Suomi","County":"Kanta-Häme","City":"Riihimäki","District":"Riihimäki","PostalCode":"11100","AdditionalData":[{"value":"Suomi","key":"CountryName"},{"value":"Etelä-Suomi","key":"StateName"},{"value":"Kanta-Häme","key":"CountyName"}]},"MapReference":{"ReferenceId":"960766392","SideOfStreet":"neither","CountryId":"20241487","StateId":"20422913","CountyId":"20448122","CityId":"20448161","DistrictId":"20448448"}}},{"Relevance":1.0,"Distance":19.8,"MatchLevel":"street","MatchQuality":{"Country":1.0,"State":1.0,"County":1.0,"City":1.0,"District":1.0,"PostalCode":1.0},"Location":{"LocationId":"NT_ENFN0Ksv-evci3bmtMeKYA_l_578371734_R","LocationType":"point","DisplayPosition":{"Latitude":60.7473742,"Longitude":24.7450405},"MapView":{"TopLeft":{"Latitude":60.74738,"Longitude":24.74481},"BottomRight":{"Latitude":60.74602,"Longitude":24.74598}},"Address":{"Label":"FI-11120 Riihimäki, Suomi","Country":"FIN","State":"Etelä-Suomi","County":"Kanta-Häme","City":"Riihimäki","District":"Riihimäki","PostalCode":"11120","AdditionalData":[{"value":"Suomi","key":"CountryName"},{"value":"Etelä-Suomi","key":"StateName"},{"value":"Kanta-Häme","key":"CountyName"}]},"MapReference":{"ReferenceId":"578371734","Spot":0.88,"SideOfStreet":"right","CountryId":"20241487","StateId":"20422913","CountyId":"20448122","CityId":"20448161","DistrictId":"20448448"}}},{"Relevance":1.0,"Distance":79.7,"MatchLevel":"street","MatchQuality":{"Country":1.0,"State":1.0,"County":1.0,"City":1.0,"District":1.0,"Street":[1.0],"PostalCode":1.0},"Location":{"LocationId":"NT_JyUp2ZlskbBa6rwSF9.jdD_l_1226790219_L","LocationType":"point","DisplayPosition":{"Latitude":60.74788,"Longitude":24.74637},"MapView":{"TopLeft":{"Latitude":60.74788,"Longitude":24.74637},"BottomRight":{"Latitude":60.74763,"Longitude":24.74683}},"Address":{"Label":"Kirjauksentie, FI-11120 Riihimäki, Suomi","Country":"FIN","State":"Etelä-Suomi","County":"Kanta-Häme","City":"Riihimäki","District":"Riihimäki","Street":"Kirjauksentie","PostalCode":"11120","AdditionalData":[{"value":"Suomi","key":"CountryName"},{"value":"Etelä-Suomi","key":"StateName"},{"value":"Kanta-Häme","key":"CountyName"}]},"MapReference":{"ReferenceId":"1226790219","Spot":1.0,"SideOfStreet":"left","CountryId":"20241487","StateId":"20422913","CountyId":"20448122","CityId":"20448161","DistrictId":"20448448"}}},{"Relevance":1.0,"Distance":92.2,"MatchLevel":"street","MatchQuality":{"Country":1.0,"State":1.0,"County":1.0,"City":1.0,"District":1.0,"Street":[1.0],"PostalCode":1.0},"Location":{"LocationId":"NT_dXCJ0VwYgXsj4QYFKXcDPD_l_1226790218_L","LocationType":"point","DisplayPosition":{"Latitude":60.7483517,"Longitude":24.7455173},"MapView":{"TopLeft":{"Latitude":60.74848,"Longitude":24.74529},"BottomRight":{"Latitude":60.74788,"Longitude":24.74637}},"Address":{"Label":"Kirjauksentie, FI-11120 Riihimäki, Suomi","Country":"FIN","State":"Etelä-Suomi","County":"Kanta-Häme","City":"Riihimäki","District":"Riihimäki","Street":"Kirjauksentie","PostalCode":"11120","AdditionalData":[{"value":"Suomi","key":"CountryName"},{"value":"Etelä-Suomi","key":"StateName"},{"value":"Kanta-Häme","key":"CountyName"}]},"MapReference":{"ReferenceId":"1226790218","Spot":0.79,"SideOfStreet":"left","CountryId":"20241487","StateId":"20422913","CountyId":"20448122","CityId":"20448161","DistrictId":"20448448"}}},{"Relevance":1.0,"Distance":92.8,"MatchLevel":"street","MatchQuality":{"Country":1.0,"State":1.0,"County":1.0,"City":1.0,"District":1.0,"PostalCode":1.0},"Location":{"LocationId":"NT_ENFN0Ksv-evci3bmtMeKYA_l_578371730_L","LocationType":"point","DisplayPosition":{"Latitude":60.74679,"Longitude":24.74437},"MapView":{"TopLeft":{"Latitude":60.74679,"Longitude":24.74413},"BottomRight":{"Latitude":60.74655,"Longitude":24.74437}},"Address":{"Label":"FI-11120 Riihimäki, Suomi","Country":"FIN","State":"Etelä-Suomi","County":"Kanta-Häme","City":"Riihimäki","District":"Riihimäki","PostalCode":"11120","AdditionalData":[{"value":"Suomi","key":"CountryName"},{"value":"Etelä-Suomi","key":"StateName"},{"value":"Kanta-Häme","key":"CountyName"}]},"MapReference":{"ReferenceId":"578371730","Spot":1.0,"SideOfStreet":"left","CountryId":"20241487","StateId":"20422913","CountyId":"20448122","CityId":"20448161","DistrictId":"20448448"}}},{"Relevance":1.0,"Distance":92.8,"MatchLevel":"street","MatchQuality":{"Country":1.0,"State":1.0,"County":1.0,"City":1.0,"District":1.0,"PostalCode":1.0},"Location":{"LocationId":"NT_ENFN0Ksv-evci3bmtMeKYA_l_578371732_R","LocationType":"point","DisplayPosition":{"Latitude":60.74679,"Longitude":24.74437},"MapView":{"TopLeft":{"Latitude":60.74679,"Longitude":24.74437},"BottomRight":{"Latitude":60.74658,"Longitude":24.74451}},"Address":{"Label":"FI-11120 Riihimäki, Suomi","Country":"FIN","State":"Etelä-Suomi","County":"Kanta-Häme","City":"Riihimäki","District":"Riihimäki","PostalCode":"11120","AdditionalData":[{"value":"Suomi","key":"CountryName"},{"value":"Etelä-Suomi","key":"StateName"},{"value":"Kanta-Häme","key":"CountyName"}]},"MapReference":{"ReferenceId":"578371732","Spot":1.0,"SideOfStreet":"right","CountryId":"20241487","StateId":"20422913","CountyId":"20448122","CityId":"20448161","DistrictId":"20448448"}}},{"Relevance":1.0,"Distance":96.2,"MatchLevel":"street","MatchQuality":{"Country":1.0,"State":1.0,"County":1.0,"City":1.0,"District":1.0,"Street":[1.0],"PostalCode":1.0},"Location":{"LocationId":"NT_JyUp2ZlskbBa6rwSF9.jdD_l_1226790222_L","LocationType":"point","DisplayPosition":{"Latitude":60.74763,"Longitude":24.74683},"MapView":{"TopLeft":{"Latitude":60.74763,"Longitude":24.74683},"BottomRight":{"Latitude":60.74748,"Longitude":24.7471}},"Address":{"Label":"Kirjauksentie, FI-11120 Riihimäki, Suomi","Country":"FIN","State":"Etelä-Suomi","County":"Kanta-Häme","City":"Riihimäki","District":"Riihimäki","Street":"Kirjauksentie","PostalCode":"11120","AdditionalData":[{"value":"Suomi","key":"CountryName"},{"value":"Etelä-Suomi","key":"StateName"},{"value":"Kanta-Häme","key":"CountyName"}]},"MapReference":{"ReferenceId":"1226790222","Spot":1.0,"SideOfStreet":"left","CountryId":"20241487","StateId":"20422913","CountyId":"20448122","CityId":"20448161","DistrictId":"20448448"}}},{"Relevance":1.0,"Distance":101.7,"MatchLevel":"houseNumber","MatchQuality":{"Country":1.0,"State":1.0,"County":1.0,"City":1.0,"District":1.0,"Street":[1.0],"HouseNumber":1.0,"PostalCode":1.0},"MatchType":"interpolated","Location":{"LocationId":"NT_dXCJ0VwYgXsj4QYFKXcDPD_4A","LocationType":"point","DisplayPosition":{"Latitude":60.7486,"Longitude":24.74507},"MapView":{"TopLeft":{"Latitude":60.7497242,"Longitude":24.7427694},"BottomRight":{"Latitude":60.7474758,"Longitude":24.7473706}},"Address":{"Label":"Kirjauksentie 8, FI-11120 Riihimäki, Suomi","Country":"FIN","State":"Etelä-Suomi","County":"Kanta-Häme","City":"Riihimäki","District":"Riihimäki","Street":"Kirjauksentie","HouseNumber":"8","PostalCode":"11120","AdditionalData":[{"value":"Suomi","key":"CountryName"},{"value":"Etelä-Suomi","key":"StateName"},{"value":"Kanta-Häme","key":"CountyName"}]},"MapReference":{"ReferenceId":"1226790217","Spot":0.59,"SideOfStreet":"left","CountryId":"20241487","StateId":"20422913","CountyId":"20448122","CityId":"20448161","DistrictId":"20448448","AddressId":"713049033","RoadLinkId":"545281885"}}},{"Relevance":1.0,"Distance":112.2,"MatchLevel":"street","MatchQuality":{"Country":1.0,"State":1.0,"County":1.0,"City":1.0,"District":1.0,"PostalCode":1.0},"Location":{"LocationId":"NT_ENFN0Ksv-evci3bmtMeKYA_l_554924237_R","LocationType":"point","DisplayPosition":{"Latitude":60.74658,"Longitude":24.74451},"MapView":{"TopLeft":{"Latitude":60.74658,"Longitude":24.74451},"BottomRight":{"Latitude":60.74589,"Longitude":24.74485}},"Address":{"Label":"FI-11120 Riihimäki, Suomi","Country":"FIN","State":"Etelä-Suomi","County":"Kanta-Häme","City":"Riihimäki","District":"Riihimäki","PostalCode":"11120","AdditionalData":[{"value":"Suomi","key":"CountryName"},{"value":"Etelä-Suomi","key":"StateName"},{"value":"Kanta-Häme","key":"CountyName"}]},"MapReference":{"ReferenceId":"554924237","Spot":1.0,"SideOfStreet":"right","CountryId":"20241487","StateId":"20422913","CountyId":"20448122","CityId":"20448161","DistrictId":"20448448"}}}]}]}}