{"Response":{"MetaInfo":{"Timestamp":"2020-03-28T11:06:35.895+0000","NextPageInformation":"2"},"View":[{"_type":"SearchResultsViewType","ViewId":0,"Result":[{"Relevance":1.0,"Distance":-76.6,"MatchLevel":"landmark","MatchQuality":{"Country":1.0,"State":1.0,"County":1.0,"City":1.0,"District":1.0,"PostalCode":1.0,"Name":1.0},"Location":{"LocationId":"NT_L8O7XZSTkTWRwrdFzJLS6C","LocationType":"industrialComplex","Name":"Puhjonmäen teollisuusalue","DisplayPosition":{"Latitude":60.88004,"Longitude":26.67095},"MapView":{"TopLeft":{"Latitude":60.88258,"Longitude":26.65681},"BottomRight":{"Latitude":60.87749,"Longitude":26.67728}},"Address":{"Label":"FI-45740 Kuusankoski, Suomi","Country":"FIN","State":"Etelä-Suomi","County":"Kymenlaakso","City":"Kouvola","District":"Kuusankoski","PostalCode":"45740","AdditionalData":[{"value":"Suomi","key":"CountryName"},{"value":"Etelä-Suomi","key":"StateName"},{"value":"Kymenlaakso","key":"CountyName"}]},"MapReference":{"CountryId":"20241487","StateId":"20422913","CountyId":"20504439","CityId":"20504462","DistrictId":"20623868","PlaceId":"1426761660"}}},{"Relevance":1.0,"Distance":0.0,"Direction":0.0,"MatchLevel":"district","MatchQuality":{"Country":1.0,"State":1.0,"County":1.0,"City":1.0,"District":1.0,"PostalCode":1.0},"Location":{"LocationId":"NT_rJnO.cRs7HkTjmGbkIR5cA","LocationType":"point","DisplayPosition":{"Latitude":60.8786785,"Longitude":26.6595081},"MapView":{"TopLeft":{"Latitude":60.95874,"Longitude":26.56888},"BottomRight":{"Latitude":60.87336,"Longitude":26.68283}},"Address":{"Label":"Kuusankoski, Kouvola, Etelä-Suomi, Suomi","Country":"FIN","State":"Etelä-Suomi","County":"Kymenlaakso","City":"Kouvola","District":"Kuusankoski","PostalCode":"45740","AdditionalData":[{"value":"Suomi","key":"CountryName"},{"value":"Etelä-Suomi","key":"StateName"},{"value":"Kymenlaakso","key":"CountyName"}]},"MapReference":{"ReferenceId":"1224225450","SideOfStreet":"neither","CountryId":"20241487","StateId":"20422913","CountyId":"20504439","CityId":"20504462","DistrictId":"20623868"}}},{"Relevance":1.0,"Distance":8.6,"MatchLevel":"houseNumber","MatchQuality":{"Country":1.0,"State":1.0,"County":1.0,"City":1.0,"District":1.0,"Street":[1.0],"HouseNumber":1.0,"PostalCode":1.0},"MatchType":"interpolated","Location":{"LocationId":"NT_nhj-xHis9HHWiWHY1ii09D_xA","LocationType":"point","DisplayPosition":{"Latitude":60.87868,"Longitude":26.65935},"MapView":{"TopLeft":{"Latitude":60.8798042,"Longitude":26.6570401},"BottomRight":{"Latitude":60.8775558,"Longitude":26.6616599}},"Address":{"Label":"Katajaharjuntie 1, FI-45720 Kuusankoski, Suomi","Country":"FIN","State":"Etelä-Suomi","County":"Kymenlaakso","City":"Kouvola","District":"Kuusankoski","Street":"Katajaharjuntie","HouseNumber":"1","PostalCode":"45720","AdditionalData":[{"value":"Suomi","key":"CountryName"},{"value":"Etelä-Suomi","key":"StateName"},{"value":"Kymenlaakso","key":"CountyName"}]},"MapReference":{"ReferenceId":"579727349","Spot":0.0,"SideOfStreet":"right","CountryId":"20241487","StateId":"20422913","CountyId":"20504439","CityId":"20504462","DistrictId":"20623868","AddressId":"263869539","RoadLinkId":"81392192"}}},{"Relevance":1.0,"Distance":30.9,"MatchLevel":"street","MatchQuality":{"Country":1.0,"State":1.0,"County":1.0,"City":1.0,"District":1.0,"PostalCode":1.0},"Location":{"LocationId":"NT_s1Q5vD7NgxKT.rtL5wdT9C_l_579727340_L","LocationType":"point","DisplayPosition":{"Latitude":60.878813,"Longitude":26.6600077},"MapView":{"TopLeft":{"Latitude":60.87899,"Longitude":26.65996},"BottomRight":{"Latitude":60.87873,"Longitude":26.66003}},"Address":{"Label":"FI-45720 Kuusankoski, Suomi","Country":"FIN","State":"Etelä-Suomi","County":"Kymenlaakso","City":"Kouvola","District":"Kuusankoski","PostalCode":"45720","AdditionalData":[{"value":"Suomi","key":"CountryName"},{"value":"Etelä-Suomi","key":"StateName"},{"value":"Kymenlaakso","key":"CountyName"}]},"MapReference":{"ReferenceId":"579727340","Spot":0.32,"SideOfStreet":"left","CountryId":"20241487","StateId":"20422913","CountyId":"20504439","CityId":"20504462","DistrictId":"20623868"}}},{"Relevance":1.0,"Distance":30.9,"MatchLevel":"street","MatchQuality":{"Country":1.0,"State":1.0,"County":1.0,"City":1.0,"District":1.0,"PostalCode":1.0},"Location":{"LocationId":"NT_s1Q5vD7NgxKT.rtL5wdT9C_l_579915198_R","LocationType":"point","DisplayPosition":{"Latitude":60.8789563,"Longitude":26.6594883},"MapView":{"TopLeft":{"Latitude":60.87899,"Longitude":26.6587},"BottomRight":{"Latitude":60.8789,"Longitude":26.65996}},"Address":{"Label":"FI-45720 Kuusankoski, Suomi","Country":"FIN","State":"Etelä-Suomi","County":"Kymenlaakso","City":"Kouvola","District":"Kuusankoski","PostalCode":"45720","AdditionalData":[{"value":"Suomi","key":"CountryName"},{"value":"Etelä-Suomi","key":"StateName"},{"value":"Kymenlaakso","key":"CountyName"}]},"MapReference":{"ReferenceId":"579915198","Spot":0.63,"SideOfStreet":"right","CountryId":"20241487","StateId":"20422913","CountyId":"20504439","CityId":"20504462","DistrictId":"20623868"}}},{"Relevance":1.0,"Distance":41.7,"MatchLevel":"houseNumber","MatchQuality":{"Country":1.0,"State":1.0,"County":1.0,"City":1.0,"District":1.0,"Street":[1.0],"HouseNumber":1.0,"PostalCode":1.0},"MatchType":"interpolated","Location":{"LocationId":"NT_72lOHoqylJGHUIErKkxQlB_xcD","LocationType":"point","DisplayPosition":{"Latitude":60.87873,"Longitude":26.66018},"MapView":{"TopLeft":{"Latitude":60.8798542,"Longitude":26.6578701},"BottomRight":{"Latitude":60.8776058,"Longitude":26.6624899}},"Address":{"Label":"Puhjontie 17, FI-45720 Kuusankoski, Suomi","Country":"FIN","State":"Etelä-Suomi","County":"Kymenlaakso","City":"Kouvola","District":"Kuusankoski","Street":"Puhjontie","HouseNumber":"17","PostalCode":"45720","AdditionalData":[{"value":"Suomi","key":"CountryName"},{"value":"Etelä-Suomi","key":"StateName"},{"value":"Kymenlaakso","key":"CountyName"}]},"MapReference":{"ReferenceId":"579727341","Spot":0.13,"SideOfStreet":"right","CountryId":"20241487","StateId":"20422913","CountyId":"20504439","CityId":"20504462","DistrictId":"20623868","AddressId":"263869534","RoadLinkId":"81023085"}}},{"Relevance":1.0,"Distance":42.4,"MatchLevel":"street","MatchQuality":{"Country":1.0,"State":1.0,"County":1.0,"City":1.0,"District":1.0,"PostalCode":1.0},"Location":{"LocationId":"NT_s1Q5vD7NgxKT.rtL5wdT9C_l_579915193_L","LocationType":"point","DisplayPosition":{"Latitude":60.87899,"Longitude":26.65996},"MapView":{"TopLeft":{"Latitude":60.87923,"Longitude":26.65988},"BottomRight":{"Latitude":60.87899,"Longitude":26.65996}},"Address":{"Label":"FI-45720 Kuusankoski, Suomi","Country":"FIN","State":"Etelä-Suomi","County":"Kymenlaakso","City":"Kouvola","District":"Kuusankoski","PostalCode":"45720","AdditionalData":[{"value":"Suomi","key":"CountryName"},{"value":"Etelä-Suomi","key":"StateName"},{"value":"Kymenlaakso","key":"CountyName"}]},"MapReference":{"ReferenceId":"579915193","Spot":0.0,"SideOfStreet":"left","CountryId":"20241487","StateId":"20422913","CountyId":"20504439","CityId":"20504462","DistrictId":"20623868"}}},{"Relevance":1.0,"Distance":50.2,"MatchLevel":"street","MatchQuality":{"Country":1.0,"State":1.0,"County":1.0,"City":1.0,"District":1.0,"PostalCode":1.0},"Location":{"LocationId":"NT_s1Q5vD7NgxKT.rtL5wdT9C_l_579915196_R","LocationType":"point","DisplayPosition":{"Latitude":60.8789,"Longitude":26.6587},"MapView":{"TopLeft":{"Latitude":60.87914,"Longitude":26.65865},"BottomRight":{"Latitude":60.8789,"Longitude":26.6587}},"Address":{"Label":"FI-45720 Kuusankoski, Suomi","Country":"FIN","State":"Etelä-Suomi","County":"Kymenlaakso","City":"Kouvola","District":"Kuusankoski","PostalCode":"45720","AdditionalData":[{"value":"Suomi","key":"CountryName"},{"value":"Etelä-Suomi","key":"StateName"},{"value":"Kymenlaakso","key":"CountyName"}]},"MapReference":{"ReferenceId":"579915196","Spot":0.0,"SideOfStreet":"right","CountryId":"20241487","StateId":"20422913","CountyId":"20504439","CityId":"20504462","DistrictId":"20623868"}}},{"Relevance":1.0,"Distance":50.2,"MatchLevel":"street","MatchQuality":{"Country":1.0,"State":1.0,"County":1.0,"City":1.0,"District":1.0,"PostalCode":1.0},"Location":{"LocationId":"NT_s1Q5vD7NgxKT.rtL5wdT9C_l_579727314_R","LocationType":"point","DisplayPosition":{"Latitude":60.8789,"Longitude":26.6587},"MapView":{"TopLeft":{"Latitude":60.8789,"Longitude":26.65806},"BottomRight":{"Latitude":60.87886,"Longitude":26.6587}},"Address":{"Label":"FI-45720 Kuusankoski, Suomi","Country":"FIN","State":"Etelä-Suomi","County":"Kymenlaakso","City":"Kouvola","District":"Kuusankoski","PostalCode":"45720","AdditionalData":[{"value":"Suomi","key":"CountryName"},{"value":"Etelä-Suomi","key":"StateName"},{"value":"Kymenlaakso","key":"CountyName"}]},"MapReference":{"ReferenceId":"579727314","Spot":1.0,"SideOfStreet":"right","CountryId":"20241487","StateId":"20422913","CountyId":"20504439","CityId":"20504462","DistrictId":"20623868"}}},{"Relevance":1.0,"Distance":57.3,"MatchLevel":"houseNumber","MatchQuality":{"Country":1.0,"State":1.0,"County":1.0,"City":1.0,"District":1.0,"Street":[1.0],"HouseNumber":1.0,"PostalCode":1.0},"MatchType":"interpolated","Location":{"LocationId":"NT_nhj-xHis9HHWiWHY1ii09D_l_579727270_L_0A","LocationType":"point","DisplayPosition":{"Latitude":60.8791806,"Longitude":26.6592698},"MapView":{"TopLeft":{"Latitude":60.8803047,"Longitude":26.6569598},"BottomRight":{"Latitude":60.8780564,"Longitude":26.6615797}},"Address":{"Label":"Katajaharjuntie 4, FI-45720 Kuusankoski, Suomi","Country":"FIN","State":"Etelä-Suomi","County":"Kymenlaakso","City":"Kouvola","District":"Kuusankoski","Street":"Katajaharjuntie","HouseNumber":"4","PostalCode":"45720","AdditionalData":[{"value":"Suomi","key":"CountryName"},{"value":"Etelä-Suomi","key":"StateName"},{"value":"Kymenlaakso","key":"CountyName"}]},"MapReference":{"ReferenceId":"579727270","Spot":0.5,"SideOfStreet":"left","CountryId":"20241487","StateId":"20422913","CountyId":"20504439","CityId":"20504462","DistrictId":"20623868"}}}]}]}}