{"Response":{"MetaInfo":{"Timestamp":"2020-03-28T11:46:31.630+0000","NextPageInformation":"2"},"View":[{"_type":"SearchResultsViewType","ViewId":0,"Result":[{"Relevance":1.0,"Distance":-328.8,"MatchLevel":"landmark","MatchQuality":{"Country":1.0,"State":1.0,"County":1.0,"Name":1.0},"Location":{"LocationId":"NT_7vQ83xJ7GGCFfModer5iyB","LocationType":"lake","Name":"Saimaa","DisplayPosition":{"Latitude":61.23909,"Longitude":28.39045},"MapView":{"TopLeft":{"Latitude":61.43365,"Longitude":27.6442},"BottomRight":{"Latitude":61.04453,"Longitude":28.86534}},"Address":{"Label":"Suomi","Country":"FIN","State":"Etelä-Suomi","County":"Etelä-Karjala","AdditionalData":[{"value":"Suomi","key":"CountryName"},{"value":"Etelä-Suomi","key":"StateName"},{"value":"Etelä-Karjala","key":"CountyName"}]},"MapReference":{"CountryId":"20241487","StateId":"20422913","CountyId":"20504389","PlaceId":"554041846"}}},{"Relevance":1.0,"Distance":-193.2,"MatchLevel":"landmark","MatchQuality":{"Country":1.0,"State":1.0,"County":1.0,"City":1.0,"District":1.0,"PostalCode":1.0,"Name":1.0},"Location":{"LocationId":"NT_SqQ60KeBlBDtpWhUoiYZbD","LocationType":"island","Name":"Voisalmensaari","DisplayPosition":{"Latitude":61.08616,"Longitude":28.15393},"MapView":{"TopLeft":{"Latitude":61.10193,"Longitude":28.1307},"BottomRight":{"Latitude":61.07039,"Longitude":28.17646}},"Address":{"Label":"FI-53100 Lappeenranta, Suomi","Country":"FIN","State":"Etelä-Suomi","County":"Etelä-Karjala","City":"Lappeenranta","District":"Lappeenranta","PostalCode":"53100","AdditionalData":[{"value":"Suomi","key":"CountryName"},{"value":"Etelä-Suomi","key":"StateName"},{"value":"Etelä-Karjala","key":"CountyName"}]},"MapReference":{"CountryId":"20241487","StateId":"20422913","CountyId":"20504389","CityId":"20504396","DistrictId":"20504398","PlaceId":"554829050"}}},{"Relevance":1.0,"Distance":0.0,"Direction":0.0,"MatchLevel":"district","MatchQuality":{"Country":1.0,"State":1.0,"County":1.0,"City":1.0,"District":1.0,"PostalCode":1.0},"Location":{"LocationId":"NT_i9is-ZI3OH77lWZnUNk-oD","LocationType":"point","DisplayPosition":{"Latitude":61.0772254,"Longitude":28.151286},"MapView":{"TopLeft":{"Latitude":61.10193,"Longitude":28.03523},"BottomRight":{"Latitude":61.01217,"Longitude":28.3989}},"Address":{"Label":"Lappeenranta, Etelä-Suomi, Suomi","Country":"FIN","State":"Etelä-Suomi","County":"Etelä-Karjala","City":"Lappeenranta","District":"Lappeenranta","PostalCode":"53100","AdditionalData":[{"value":"Suomi","key":"CountryName"},{"value":"Etelä-Suomi","key":"StateName"},{"value":"Etelä-Karjala","key":"CountyName"}]},"MapReference":{"ReferenceId":"1223956549","SideOfStreet":"neither","CountryId":"20241487","StateId":"20422913","CountyId":"20504389","CityId":"20504396","DistrictId":"20504398"}}},{"Relevance":1.0,"Distance":11.4,"MatchLevel":"houseNumber","MatchQuality":{"Country":1.0,"State":1.0,"County":1.0,"City":1.0,"District":1.0,"Street":[1.0],"HouseNumber":1.0,"PostalCode":1.0},"MatchType":"interpolated","Location":{"LocationId":"NT_1GOAteE4ju.SYEqmPf.r4B_1A","LocationType":"point","DisplayPosition":{"Latitude":61.07705,"Longitude":28.15049},"MapView":{"TopLeft":{"Latitude":61.0781742,"Longitude":28.1481656},"BottomRight":{"Latitude":61.0759258,"Longitude":28.1528144}},"Address":{"Label":"Voisalmentie 5, FI-53920 Lappeenranta, Suomi","Country":"FIN","State":"Etelä-Suomi","County":"Etelä-Karjala","City":"Lappeenranta","District":"Lappeenranta","Street":"Voisalmentie","HouseNumber":"5","PostalCode":"53920","AdditionalData":[{"value":"Suomi","key":"CountryName"},{"value":"Etelä-Suomi","key":"StateName"},{"value":"Etelä-Karjala","key":"CountyName"}]},"MapReference":{"ReferenceId":"1233041417","Spot":0.8,"SideOfStreet":"right","CountryId":"20241487","StateId":"20422913","CountyId":"20504389","CityId":"20504396","DistrictId":"20504398","AddressId":"263979605","RoadLinkId":"553176143"}}},{"Relevance":1.0,"Distance":25.4,"MatchLevel":"houseNumber","MatchQuality":{"Country":1.0,"State":1.0,"County":1.0,"City":1.0,"District":1.0,"Street":[1.0],"HouseNumber":1.0,"PostalCode":1.0},"MatchType":"interpolated","Location":{"LocationId":"NT_CgJA8BV4-61NZ8SJoXpHvB_l_973133997_L_yA","LocationType":"point","DisplayPosition":{"Latitude":61.0769234,"Longitude":28.1516282},"MapView":{"TopLeft":{"Latitude":61.0780476,"Longitude":28.1493038},"BottomRight":{"Latitude":61.0757992,"Longitude":28.1539526}},"Address":{"Label":"Kivisalmenkatu 2, FI-53920 Lappeenranta, Suomi","Country":"FIN","State":"Etelä-Suomi","County":"Etelä-Karjala","City":"Lappeenranta","District":"Lappeenranta","Street":"Kivisalmenkatu","HouseNumber":"2","PostalCode":"53920","AdditionalData":[{"value":"Suomi","key":"CountryName"},{"value":"Etelä-Suomi","key":"StateName"},{"value":"Etelä-Karjala","key":"CountyName"}]},"MapReference":{"ReferenceId":"973133997","Spot":0.5,"SideOfStreet":"left","CountryId":"20241487","StateId":"20422913","CountyId":"20504389","CityId":"20504396","DistrictId":"20504398"}}},{"Relevance":1.0,"Distance":46.0,"MatchLevel":"street","MatchQuality":{"Country":1.0,"State":1.0,"County":1.0,"City":1.0,"District":1.0,"PostalCode":1.0},"Location":{"LocationId":"NT_Pg4ZMm6ewcGwjXtf2Kv.hC_l_1233041419_R","LocationType":"point","DisplayPosition":{"Latitude":61.0771,"Longitude":28.15047},"MapView":{"TopLeft":{"Latitude":61.07726,"Longitude":28.14881},"BottomRight":{"Latitude":61.07706,"Longitude":28.15047}},"Address":{"Label":"FI-53920 Lappeenranta, Suomi","Country":"FIN","State":"Etelä-Suomi","County":"Etelä-Karjala","City":"Lappeenranta","District":"Lappeenranta","PostalCode":"53920","AdditionalData":[{"value":"Suomi","key":"CountryName"},{"value":"Etelä-Suomi","key":"StateName"},{"value":"Etelä-Karjala","key":"CountyName"}]},"MapReference":{"ReferenceId":"1233041419","Spot":0.0,"SideOfStreet":"right","CountryId":"20241487","StateId":"20422913","CountyId":"20504389","CityId":"20504396","DistrictId":"20504398"}}},{"Relevance":1.0,"Distance":46.2,"MatchLevel":"houseNumber","MatchQuality":{"Country":1.0,"State":1.0,"County":1.0,"City":1.0,"District":1.0,"Street":[1.0],"HouseNumber":1.0,"PostalCode":1.0},"MatchType":"interpolated","Location":{"LocationId":"NT_1GOAteE4ju.SYEqmPf.r4B_3A","LocationType":"point","DisplayPosition":{"Latitude":61.07752,"Longitude":28.15028},"MapView":{"TopLeft":{"Latitude":61.0786442,"Longitude":28.1479556},"BottomRight":{"Latitude":61.0763958,"Longitude":28.1526044}},"Address":{"Label":"Voisalmentie 7, FI-53920 Lappeenranta, Suomi","Country":"FIN","State":"Etelä-Suomi","County":"Etelä-Karjala","City":"Lappeenranta","District":"Lappeenranta","Street":"Voisalmentie","HouseNumber":"7","PostalCode":"53920","AdditionalData":[{"value":"Suomi","key":"CountryName"},{"value":"Etelä-Suomi","key":"StateName"},{"value":"Etelä-Karjala","key":"CountyName"}]},"MapReference":{"ReferenceId":"1233041418","Spot":0.64,"SideOfStreet":"right","CountryId":"20241487","StateId":"20422913","CountyId":"20504389","CityId":"20504396","DistrictId":"20504398","AddressId":"263979602","RoadLinkId":"553176144"}}},{"Relevance":1.0,"Distance":49.2,"MatchLevel":"street","MatchQuality":{"Country":1.0,"State":1.0,"County":1.0,"City":1.0,"District":1.0,"Street":[1.0],"PostalCode":1.0},"Location":{"LocationId":"NT_CgJA8BV4-61NZ8SJoXpHvB_l_973338591_L","LocationType":"point","DisplayPosition":{"Latitude":61.07681,"Longitude":28.15097},"MapView":{"TopLeft":{"Latitude":61.07681,"Longitude":28.15063},"BottomRight":{"Latitude":61.07675,"Longitude":28.15097}},"Address":{"Label":"Kivisalmenkatu, FI-53920 Lappeenranta, Suomi","Country":"FIN","State":"Etelä-Suomi","County":"Etelä-Karjala","City":"Lappeenranta","District":"Lappeenranta","Street":"Kivisalmenkatu","PostalCode":"53920","AdditionalData":[{"value":"Suomi","key":"CountryName"},{"value":"Etelä-Suomi","key":"StateName"},{"value":"Etelä-Karjala","key":"CountyName"}]},"MapReference":{"ReferenceId":"973338591","Spot":1.0,"SideOfStreet":"left","CountryId":"20241487","StateId":"20422913","CountyId":"20504389","CityId":"20504396","DistrictId":"20504398"}}},{"Relevance":1.0,"Distance":56.4,"MatchLevel":"houseNumber","MatchQuality":{"Country":1.0,"State":1.0,"County":1.0,"City":1.0,"District":1.0,"Street":[1.0],"HouseNumber":1.0,"PostalCode":1.0},"MatchType":"interpolated","Location":{"LocationId":"NT_1GOAteE4ju.SYEqmPf.r4B_2A","LocationType":"point","DisplayPosition":{"Latitude":61.07685,"Longitude":28.15058},"MapView":{"TopLeft":{"Latitude":61.0779742,"Longitude":28.1482556},"BottomRight":{"Latitude":61.0757258,"Longitude":28.1529044}},"Address":{"Label":"Voisalmentie 6, FI-53920 Lappeenranta, Suomi","Country":"FIN","State":"Etelä-Suomi","County":"Etelä-Karjala","City":"Lappeenranta","District":"Lappeenranta","Street":"Voisalmentie","HouseNumber":"6","PostalCode":"53920","AdditionalData":[{"value":"Suomi","key":"CountryName"},{"value":"Etelä-Suomi","key":"StateName"},{"value":"Etelä-Karjala","key":"CountyName"}]},"MapReference":{"ReferenceId":"973132413","Spot":0.92,"SideOfStreet":"left","CountryId":"20241487","StateId":"20422913","CountyId":"20504389","CityId":"20504396","DistrictId":"20504398","AddressId":"263979606","RoadLinkId":"309539416"}}},{"Relevance":1.0,"Distance":57.1,"MatchLevel":"houseNumber","MatchQuality":{"Country":1.0,"State":1.0,"County":1.0,"City":1.0,"District":1.0,"Street":[1.0],"HouseNumber":1.0,"PostalCode":1.0},"MatchType":"interpolated","Location":{"LocationId":"NT_CgJA8BV4-61NZ8SJoXpHvB_yEG","LocationType":"point","DisplayPosition":{"Latitude":61.07703,"Longitude":28.15238},"MapView":{"TopLeft":{"Latitude":61.0781542,"Longitude":28.1500556},"BottomRight":{"Latitude":61.0759058,"Longitude":28.1547044}},"Address":{"Label":"Kivisalmenkatu 2a, FI-53920 Lappeenranta, Suomi","Country":"FIN","State":"Etelä-Suomi","County":"Etelä-Karjala","City":"Lappeenranta","District":"Lappeenranta","Street":"Kivisalmenkatu","HouseNumber":"2a","PostalCode":"53920","AdditionalData":[{"value":"Suomi","key":"CountryName"},{"value":"Etelä-Suomi","key":"StateName"},{"value":"Etelä-Karjala","key":"CountyName"}]},"MapReference":{"ReferenceId":"973132420","Spot":0.08,"SideOfStreet":"left","CountryId":"20241487","StateId":"20422913","CountyId":"20504389","CityId":"20504396","DistrictId":"20504398","AddressId":"263979667","RoadLinkId":"309541282"}}}]}]}}