{"Response":{"MetaInfo":{"Timestamp":"2020-03-28T11:29:15.304+0000","NextPageInformation":"2"},"View":[{"_type":"SearchResultsViewType","ViewId":0,"Result":[{"Relevance":1.0,"Distance":0.0,"Direction":0.0,"MatchLevel":"city","MatchQuality":{"Country":1.0,"State":1.0,"County":1.0,"City":1.0,"PostalCode":1.0},"Location":{"LocationId":"NT_9sekRrMxY4q06wIJSEDvYB","LocationType":"point","DisplayPosition":{"Latitude":61.1111473,"Longitude":10.4730043},"MapView":{"TopLeft":{"Latitude":61.14557,"Longitude":10.40211},"BottomRight":{"Latitude":61.08858,"Longitude":10.51579}},"Address":{"Label":"Lillehammer, Innlandet, Norge","Country":"NOR","State":"Innlandet","County":"Lillehammer","City":"Lillehammer","PostalCode":"2609","AdditionalData":[{"value":"Norge","key":"CountryName"},{"value":"Innlandet","key":"StateName"},{"value":"Lillehammer","key":"CountyName"}]},"MapReference":{"ReferenceId":"572866121","SideOfStreet":"neither","CountryId":"20418433","StateId":"20465436","CountyId":"20465688","CityId":"20465690"}}},{"Relevance":1.0,"Distance":5.6,"MatchLevel":"houseNumber","MatchQuality":{"Country":1.0,"State":1.0,"County":1.0,"City":1.0,"Street":[1.0],"HouseNumber":1.0,"PostalCode":1.0},"MatchType":"interpolated","Location":{"LocationId":"NT_mY9ekk3797fKqEBFpcb-hB_3A","LocationType":"point","DisplayPosition":{"Latitude":61.1111,"Longitude":10.47297},"MapView":{"TopLeft":{"Latitude":61.1122242,"Longitude":10.4706431},"BottomRight":{"Latitude":61.1099758,"Longitude":10.4752969}},"Address":{"Label":"Søndre gate 7, 2609 Lillehammer, Norge","Country":"NOR","State":"Innlandet","County":"Lillehammer","City":"Lillehammer","Street":"Søndre gate","HouseNumber":"7","PostalCode":"2609","AdditionalData":[{"value":"Norge","key":"CountryName"},{"value":"Innlandet","key":"StateName"},{"value":"Lillehammer","key":"CountyName"}]},"MapReference":{"ReferenceId":"572866529","Spot":0.07,"SideOfStreet":"right","CountryId":"20418433","StateId":"20465436","CountyId":"20465688","CityId":"20465690","AddressId":"302849634","RoadLinkId":"101085464"}}},{"Relevance":1.0,"Distance":11.2,"MatchLevel":"street","MatchQuality":{"Country":1.0,"State":1.0,"County":1.0,"City":1.0,"Street":[1.0],"PostalCode":1.0},"Location":{"LocationId":"NT_mY9ekk3797fKqEBFpcb-hB_l_572866545_L","LocationType":"point","DisplayPosition":{"Latitude":61.11107,"Longitude":10.47287},"MapView":{"TopLeft":{"Latitude":61.11107,"Longitude":10.47232},"BottomRight":{"Latitude":61.11093,"Longitude":10.47287}},"Address":{"Label":"Søndre gate, 2609 Lillehammer, Norge","Country":"NOR","State":"Innlandet","County":"Lillehammer","City":"Lillehammer","Street":"Søndre gate","PostalCode":"2609","AdditionalData":[{"value":"Norge","key":"CountryName"},{"value":"Innlandet","key":"StateName"},{"value":"Lillehammer","key":"CountyName"}]},"MapReference":{"ReferenceId":"572866545","Spot":1.0,"SideOfStreet":"left","CountryId":"20418433","StateId":"20465436","CountyId":"20465688","CityId":"20465690"}}},{"Relevance":1.0,"Distance":11.2,"MatchLevel":"street","MatchQuality":{"Country":1.0,"State":1.0,"County":1.0,"City":1.0,"PostalCode":1.0},"Location":{"LocationId":"NT_CEAztz.VIdIinqzxR8GC6A_l_572866530_R","LocationType":"point","DisplayPosition":{"Latitude":61.11107,"Longitude":10.47287},"MapView":{"TopLeft":{"Latitude":61.11143,"Longitude":10.47257},"BottomRight":{"Latitude":61.11107,"Longitude":10.47287}},"Address":{"Label":"2609 Lillehammer, Norge","Country":"NOR","State":"Innlandet","County":"Lillehammer","City":"Lillehammer","PostalCode":"2609","AdditionalData":[{"value":"Norge","key":"CountryName"},{"value":"Innlandet","key":"StateName"},{"value":"Lillehammer","key":"CountyName"}]},"MapReference":{"ReferenceId":"572866530","Spot":0.0,"SideOfStreet":"right","CountryId":"20418433","StateId":"20465436","CountyId":"20465688","CityId":"20465690"}}},{"Relevance":1.0,"Distance":23.4,"MatchLevel":"houseNumber","MatchQuality":{"Country":1.0,"State":1.0,"County":1.0,"City":1.0,"Street":[1.0],"HouseNumber":1.0,"PostalCode":1.0},"MatchType":"interpolated","Location":{"LocationId":"NT_-.46wbIW35BpKye6CF.j.B_xED","LocationType":"point","DisplayPosition":{"Latitude":61.11117,"Longitude":10.47213},"MapView":{"TopLeft":{"Latitude":61.1122942,"Longitude":10.4698031},"BottomRight":{"Latitude":61.1100458,"Longitude":10.4744569}},"Address":{"Label":"Anders Sandvigs gate 11, 2609 Lillehammer, Norge","Country":"NOR","State":"Innlandet","County":"Lillehammer","City":"Lillehammer","Street":"Anders Sandvigs gate","HouseNumber":"11","PostalCode":"2609","AdditionalData":[{"value":"Norge","key":"CountryName"},{"value":"Innlandet","key":"StateName"},{"value":"Lillehammer","key":"CountyName"}]},"MapReference":{"ReferenceId":"572866546","Spot":0.26,"SideOfStreet":"right","CountryId":"20418433","StateId":"20465436","CountyId":"20465688","CityId":"20465690","AddressId":"303006787","RoadLinkId":"100684798"}}},{"Relevance":1.0,"Distance":35.3,"MatchLevel":"landmark","MatchQuality":{"Country":1.0,"State":1.0,"County":1.0,"City":1.0,"PostalCode":1.0,"Name":1.0},"Location":{"LocationId":"NT_GrKW-s2-c1KuL-heltRleA_p_CGeBFOOxWO1xRI788fJlYB","LocationType":"hospital","Name":"Sykehuset Innlandet-Lillehammer","DisplayPosition":{"Latitude":61.11265,"Longitude":10.47262},"MapView":{"TopLeft":{"Latitude":61.11395,"Longitude":10.47231},"BottomRight":{"Latitude":61.11142,"Longitude":10.47488}},"Address":{"Label":"2609 Lillehammer, Norge","Country":"NOR","State":"Innlandet","County":"Lillehammer","City":"Lillehammer","PostalCode":"2609","AdditionalData":[{"value":"Norge","key":"CountryName"},{"value":"Innlandet","key":"StateName"},{"value":"Lillehammer","key":"CountyName"}]},"MapReference":{"CountryId":"20418433","StateId":"20465436","CountyId":"20465688","CityId":"20465690","PlaceId":"83431935"}}},{"Relevance":1.0,"Distance":54.8,"MatchLevel":"houseNumber","MatchQuality":{"Country":1.0,"State":1.0,"County":1.0,"City":1.0,"Street":[1.0],"HouseNumber":1.0,"PostalCode":1.0},"MatchType":"interpolated","Location":{"LocationId":"NT_-.46wbIW35BpKye6CF.j.B_xAD","LocationType":"point","DisplayPosition":{"Latitude":61.11074,"Longitude":10.47243},"MapView":{"TopLeft":{"Latitude":61.1118642,"Longitude":10.4701031},"BottomRight":{"Latitude":61.1096158,"Longitude":10.4747569}},"Address":{"Label":"Anders Sandvigs gate 10, 2609 Lillehammer, Norge","Country":"NOR","State":"Innlandet","County":"Lillehammer","City":"Lillehammer","Street":"Anders Sandvigs gate","HouseNumber":"10","PostalCode":"2609","AdditionalData":[{"value":"Norge","key":"CountryName"},{"value":"Innlandet","key":"StateName"},{"value":"Lillehammer","key":"CountyName"}]},"MapReference":{"ReferenceId":"572866636","Spot":0.82,"SideOfStreet":"left","CountryId":"20418433","StateId":"20465436","CountyId":"20465688","CityId":"20465690","AddressId":"303395276","RoadLinkId":"100760146"}}},{"Relevance":1.0,"Distance":58.2,"MatchLevel":"street","MatchQuality":{"Country":1.0,"State":1.0,"County":1.0,"City":1.0,"Street":[1.0],"PostalCode":1.0},"Location":{"LocationId":"NT_.uXtKoRqmvDgqVKnh4gKLA_l_977293341_L","LocationType":"point","DisplayPosition":{"Latitude":61.1106346,"Longitude":10.473224},"MapView":{"TopLeft":{"Latitude":61.11171,"Longitude":10.47295},"BottomRight":{"Latitude":61.10984,"Longitude":10.47626}},"Address":{"Label":"Maihaugvegen, 2609 Lillehammer, Norge","Country":"NOR","State":"Innlandet","County":"Lillehammer","City":"Lillehammer","Street":"Maihaugvegen","PostalCode":"2609","AdditionalData":[{"value":"Norge","key":"CountryName"},{"value":"Innlandet","key":"StateName"},{"value":"Lillehammer","key":"CountyName"}]},"MapReference":{"ReferenceId":"977293341","Spot":0.24,"SideOfStreet":"left","CountryId":"20418433","StateId":"20465436","CountyId":"20465688","CityId":"20465690"}}},{"Relevance":1.0,"Distance":73.2,"MatchLevel":"street","MatchQuality":{"Country":1.0,"State":1.0,"County":1.0,"City":1.0,"PostalCode":1.0},"Location":{"LocationId":"NT_CEAztz.VIdIinqzxR8GC6A_l_572866463_R","LocationType":"point","DisplayPosition":{"Latitude":61.11174,"Longitude":10.47241},"MapView":{"TopLeft":{"Latitude":61.11198,"Longitude":10.47159},"BottomRight":{"Latitude":61.11174,"Longitude":10.47241}},"Address":{"Label":"2609 Lillehammer, Norge","Country":"NOR","State":"Innlandet","County":"Lillehammer","City":"Lillehammer","PostalCode":"2609","AdditionalData":[{"value":"Norge","key":"CountryName"},{"value":"Innlandet","key":"StateName"},{"value":"Lillehammer","key":"CountyName"}]},"MapReference":{"ReferenceId":"572866463","Spot":0.0,"SideOfStreet":"right","CountryId":"20418433","StateId":"20465436","CountyId":"20465688","CityId":"20465690"}}},{"Relevance":1.0,"Distance":82.6,"MatchLevel":"street","MatchQuality":{"Country":1.0,"State":1.0,"County":1.0,"City":1.0,"Street":[1.0],"PostalCode":1.0},"Location":{"LocationId":"NT_tG-Jo5YMFw0o9TaOrDqd6B_l_572866484_L","LocationType":"point","DisplayPosition":{"Latitude":61.11146,"Longitude":10.4744},"MapView":{"TopLeft":{"Latitude":61.11155,"Longitude":10.47439},"BottomRight":{"Latitude":61.11146,"Longitude":10.4744}},"Address":{"Label":"Margrethe Grundtvigs veg, 2609 Lillehammer, Norge","Country":"NOR","State":"Innlandet","County":"Lillehammer","City":"Lillehammer","Street":"Margrethe Grundtvigs veg","PostalCode":"2609","AdditionalData":[{"value":"Norge","key":"CountryName"},{"value":"Innlandet","key":"StateName"},{"value":"Lillehammer","key":"CountyName"}]},"MapReference":{"ReferenceId":"572866484","Spot":0.0,"SideOfStreet":"left","CountryId":"20418433","StateId":"20465436","CountyId":"20465688","CityId":"20465690"}}}]}]}}