{"Response":{"MetaInfo":{"Timestamp":"2020-03-28T11:07:04.997+0000","NextPageInformation":"2"},"View":[{"_type":"SearchResultsViewType","ViewId":0,"Result":[{"Relevance":1.0,"Distance":0.0,"Direction":0.0,"MatchLevel":"district","MatchQuality":{"Country":1.0,"State":1.0,"County":1.0,"City":1.0,"District":1.0,"PostalCode":1.0},"Location":{"LocationId":"NT_cBK911uRAOTZrjAHDhN8AC","LocationType":"point","DisplayPosition":{"Latitude":61.2005814,"Longitude":27.6760267},"MapView":{"TopLeft":{"Latitude":61.2177,"Longitude":27.65283},"BottomRight":{"Latitude":61.18326,"Longitude":27.74078}},"Address":{"Label":"Savitaipale, Etelä-Suomi, Suomi","Country":"FIN","State":"Etelä-Suomi","County":"Etelä-Karjala","City":"Savitaipale","District":"Savitaipale","PostalCode":"54800","AdditionalData":[{"value":"Suomi","key":"CountryName"},{"value":"Etelä-Suomi","key":"StateName"},{"value":"Etelä-Karjala","key":"CountyName"}]},"MapReference":{"ReferenceId":"856007905","SideOfStreet":"neither","CountryId":"20241487","StateId":"20422913","CountyId":"20504389","CityId":"20504425","DistrictId":"20504426"}}},{"Relevance":1.0,"Distance":44.6,"MatchLevel":"houseNumber","MatchQuality":{"Country":1.0,"State":1.0,"County":1.0,"City":1.0,"District":1.0,"Street":[1.0],"HouseNumber":1.0,"PostalCode":1.0},"MatchType":"interpolated","Location":{"LocationId":"NT_huFPMqJY4S.SKUOdhvxuhA_3IG","LocationType":"point","DisplayPosition":{"Latitude":61.20038,"Longitude":27.67689},"MapView":{"TopLeft":{"Latitude":61.2015042,"Longitude":27.6745565},"BottomRight":{"Latitude":61.1992558,"Longitude":27.6792235}},"Address":{"Label":"Maitolantie 7b, FI-54800 Savitaipale, Suomi","Country":"FIN","State":"Etelä-Suomi","County":"Etelä-Karjala","City":"Savitaipale","District":"Savitaipale","Street":"Maitolantie","HouseNumber":"7b","PostalCode":"54800","AdditionalData":[{"value":"Suomi","key":"CountryName"},{"value":"Etelä-Suomi","key":"StateName"},{"value":"Etelä-Karjala","key":"CountyName"}]},"MapReference":{"ReferenceId":"579643603","Spot":1.0,"SideOfStreet":"right","CountryId":"20241487","StateId":"20422913","CountyId":"20504389","CityId":"20504425","DistrictId":"20504426","AddressId":"264289000","RoadLinkId":"81260862"}}},{"Relevance":1.0,"Distance":85.2,"MatchLevel":"street","MatchQuality":{"Country":1.0,"State":1.0,"County":1.0,"City":1.0,"District":1.0,"PostalCode":1.0},"Location":{"LocationId":"NT_nWyLzcH4QSAZocaYM-ZVTB_l_579912282_L","LocationType":"point","DisplayPosition":{"Latitude":61.2013344,"Longitude":27.6763155},"MapView":{"TopLeft":{"Latitude":61.20159,"Longitude":27.6723},"BottomRight":{"Latitude":61.20062,"Longitude":27.6775}},"Address":{"Label":"FI-54800 Savitaipale, Suomi","Country":"FIN","State":"Etelä-Suomi","County":"Etelä-Karjala","City":"Savitaipale","District":"Savitaipale","PostalCode":"54800","AdditionalData":[{"value":"Suomi","key":"CountryName"},{"value":"Etelä-Suomi","key":"StateName"},{"value":"Etelä-Karjala","key":"CountyName"}]},"MapReference":{"ReferenceId":"579912282","Spot":0.25,"SideOfStreet":"left","CountryId":"20241487","StateId":"20422913","CountyId":"20504389","CityId":"20504425","DistrictId":"20504426"}}},{"Relevance":1.0,"Distance":94.3,"MatchLevel":"landmark","MatchQuality":{"Country":1.0,"State":1.0,"County":1.0,"Name":1.0},"Location":{"LocationId":"NT_iw5tAjvFw7MlosQGvskfgA","LocationType":"lake","Name":"Kuolimo","DisplayPosition":{"Latitude":61.25811,"Longitude":27.49213},"MapView":{"TopLeft":{"Latitude":61.31635,"Longitude":27.42988},"BottomRight":{"Latitude":61.19987,"Longitude":27.71361}},"Address":{"Label":"Suomi","Country":"FIN","State":"Etelä-Suomi","County":"Etelä-Karjala","AdditionalData":[{"value":"Suomi","key":"CountryName"},{"value":"Etelä-Suomi","key":"StateName"},{"value":"Etelä-Karjala","key":"CountyName"}]},"MapReference":{"CountryId":"20241487","StateId":"20422913","CountyId":"20504389","PlaceId":"554041811"}}},{"Relevance":1.0,"Distance":111.2,"MatchLevel":"street","MatchQuality":{"Country":1.0,"State":1.0,"County":1.0,"City":1.0,"District":1.0,"Street":[1.0],"PostalCode":1.0},"Location":{"LocationId":"NT_huFPMqJY4S.SKUOdhvxuhA_l_579912283_R","LocationType":"point","DisplayPosition":{"Latitude":61.1995822,"Longitude":27.6759434},"MapView":{"TopLeft":{"Latitude":61.19965,"Longitude":27.67334},"BottomRight":{"Latitude":61.19958,"Longitude":27.67597}},"Address":{"Label":"Maitolantie, FI-54800 Savitaipale, Suomi","Country":"FIN","State":"Etelä-Suomi","County":"Etelä-Karjala","City":"Savitaipale","District":"Savitaipale","Street":"Maitolantie","PostalCode":"54800","AdditionalData":[{"value":"Suomi","key":"CountryName"},{"value":"Etelä-Suomi","key":"StateName"},{"value":"Etelä-Karjala","key":"CountyName"}]},"MapReference":{"ReferenceId":"579912283","Spot":0.01,"SideOfStreet":"right","CountryId":"20241487","StateId":"20422913","CountyId":"20504389","CityId":"20504425","DistrictId":"20504426"}}},{"Relevance":1.0,"Distance":120.6,"MatchLevel":"houseNumber","MatchQuality":{"Country":1.0,"State":1.0,"County":1.0,"City":1.0,"District":1.0,"Street":[1.0],"HouseNumber":1.0,"PostalCode":1.0},"MatchType":"interpolated","Location":{"LocationId":"NT_huFPMqJY4S.SKUOdhvxuhA_l_579643604_R_3A","LocationType":"point","DisplayPosition":{"Latitude":61.1994281,"Longitude":27.6767686},"MapView":{"TopLeft":{"Latitude":61.2005523,"Longitude":27.6744352},"BottomRight":{"Latitude":61.198304,"Longitude":27.6791021}},"Address":{"Label":"Maitolantie 7, FI-54800 Savitaipale, Suomi","Country":"FIN","State":"Etelä-Suomi","County":"Etelä-Karjala","City":"Savitaipale","District":"Savitaipale","Street":"Maitolantie","HouseNumber":"7","PostalCode":"54800","AdditionalData":[{"value":"Suomi","key":"CountryName"},{"value":"Etelä-Suomi","key":"StateName"},{"value":"Etelä-Karjala","key":"CountyName"}]},"MapReference":{"ReferenceId":"579643604","Spot":0.5,"SideOfStreet":"right","CountryId":"20241487","StateId":"20422913","CountyId":"20504389","CityId":"20504425","DistrictId":"20504426"}}},{"Relevance":1.0,"Distance":168.7,"MatchLevel":"street","MatchQuality":{"Country":1.0,"State":1.0,"County":1.0,"City":1.0,"District":1.0,"Street":[1.0],"PostalCode":1.0},"Location":{"LocationId":"NT_x5tj4r0sFjXJV97W.-bevB_l_579913048_R","LocationType":"point","DisplayPosition":{"Latitude":61.20001,"Longitude":27.67311},"MapView":{"TopLeft":{"Latitude":61.20108,"Longitude":27.6723},"BottomRight":{"Latitude":61.20001,"Longitude":27.67311}},"Address":{"Label":"Olkkolantie, FI-54800 Savitaipale, Suomi","Country":"FIN","State":"Etelä-Suomi","County":"Etelä-Karjala","City":"Savitaipale","District":"Savitaipale","Street":"Olkkolantie","PostalCode":"54800","AdditionalData":[{"value":"Suomi","key":"CountryName"},{"value":"Etelä-Suomi","key":"StateName"},{"value":"Etelä-Karjala","key":"CountyName"}]},"MapReference":{"ReferenceId":"579913048","Spot":0.0,"SideOfStreet":"right","CountryId":"20241487","StateId":"20422913","CountyId":"20504389","CityId":"20504425","DistrictId":"20504426"}}},{"Relevance":1.0,"Distance":178.0,"MatchLevel":"street","MatchQuality":{"Country":1.0,"State":1.0,"County":1.0,"City":1.0,"District":1.0,"Street":[1.0],"PostalCode":1.0},"Location":{"LocationId":"NT_x5tj4r0sFjXJV97W.-bevB_l_579913049_R","LocationType":"point","DisplayPosition":{"Latitude":61.19964,"Longitude":27.67334},"MapView":{"TopLeft":{"Latitude":61.20001,"Longitude":27.67311},"BottomRight":{"Latitude":61.19964,"Longitude":27.67334}},"Address":{"Label":"Olkkolantie, FI-54800 Savitaipale, Suomi","Country":"FIN","State":"Etelä-Suomi","County":"Etelä-Karjala","City":"Savitaipale","District":"Savitaipale","Street":"Olkkolantie","PostalCode":"54800","AdditionalData":[{"value":"Suomi","key":"CountryName"},{"value":"Etelä-Suomi","key":"StateName"},{"value":"Etelä-Karjala","key":"CountyName"}]},"MapReference":{"ReferenceId":"579913049","Spot":0.0,"SideOfStreet":"right","CountryId":"20241487","StateId":"20422913","CountyId":"20504389","CityId":"20504425","DistrictId":"20504426"}}},{"Relevance":1.0,"Distance":194.9,"MatchLevel":"houseNumber","MatchQuality":{"Country":1.0,"State":1.0,"County":1.0,"City":1.0,"District":1.0,"Street":[1.0],"HouseNumber":1.0,"PostalCode":1.0},"MatchType":"interpolated","Location":{"LocationId":"NT_huFPMqJY4S.SKUOdhvxuhA_5A","LocationType":"point","DisplayPosition":{"Latitude":61.19963,"Longitude":27.67276},"MapView":{"TopLeft":{"Latitude":61.2007542,"Longitude":27.6704266},"BottomRight":{"Latitude":61.1985058,"Longitude":27.6750934}},"Address":{"Label":"Maitolantie 9, FI-54800 Savitaipale, Suomi","Country":"FIN","State":"Etelä-Suomi","County":"Etelä-Karjala","City":"Savitaipale","District":"Savitaipale","Street":"Maitolantie","HouseNumber":"9","PostalCode":"54800","AdditionalData":[{"value":"Suomi","key":"CountryName"},{"value":"Etelä-Suomi","key":"StateName"},{"value":"Etelä-Karjala","key":"CountyName"}]},"MapReference":{"ReferenceId":"579643557","Spot":0.74,"SideOfStreet":"left","CountryId":"20241487","StateId":"20422913","CountyId":"20504389","CityId":"20504425","DistrictId":"20504426","AddressId":"264289014","RoadLinkId":"81586638"}}},{"Relevance":1.0,"Distance":204.0,"MatchLevel":"houseNumber","MatchQuality":{"Country":1.0,"State":1.0,"County":1.0,"City":1.0,"District":1.0,"Street":[1.0],"HouseNumber":1.0,"PostalCode":1.0},"MatchType":"interpolated","Location":{"LocationId":"NT_huFPMqJY4S.SKUOdhvxuhA_1A","LocationType":"point","DisplayPosition":{"Latitude":61.19903,"Longitude":27.67806},"MapView":{"TopLeft":{"Latitude":61.2001542,"Longitude":27.6757266},"BottomRight":{"Latitude":61.1979058,"Longitude":27.6803934}},"Address":{"Label":"Maitolantie 5, FI-54800 Savitaipale, Suomi","Country":"FIN","State":"Etelä-Suomi","County":"Etelä-Karjala","City":"Savitaipale","District":"Savitaipale","Street":"Maitolantie","HouseNumber":"5","PostalCode":"54800","AdditionalData":[{"value":"Suomi","key":"CountryName"},{"value":"Etelä-Suomi","key":"StateName"},{"value":"Etelä-Karjala","key":"CountyName"}]},"MapReference":{"ReferenceId":"579643671","Spot":0.47,"SideOfStreet":"right","CountryId":"20241487","StateId":"20422913","CountyId":"20504389","CityId":"20504425","DistrictId":"20504426","AddressId":"264289006","RoadLinkId":"81453894"}}}]}]}}