{"Response":{"MetaInfo":{"Timestamp":"2020-03-28T11:06:23.377+0000","NextPageInformation":"2"},"View":[{"_type":"SearchResultsViewType","ViewId":0,"Result":[{"Relevance":1.0,"Distance":0.0,"Direction":0.0,"MatchLevel":"district","MatchQuality":{"Country":1.0,"State":1.0,"County":1.0,"City":1.0,"District":1.0,"PostalCode":1.0},"Location":{"LocationId":"NT_a2MDMNZOCsw7LklW9lbNsB","LocationType":"point","DisplayPosition":{"Latitude":61.3033082,"Longitude":22.1462276},"MapView":{"TopLeft":{"Latitude":61.3399,"Longitude":22.09625},"BottomRight":{"Latitude":61.29295,"Longitude":22.1829}},"Address":{"Label":"Harjavalta, Lounais-Suomi, Suomi","Country":"FIN","State":"Lounais-Suomi","County":"Satakunta","City":"Harjavalta","District":"Harjavalta","PostalCode":"29200","AdditionalData":[{"value":"Suomi","key":"CountryName"},{"value":"Lounais-Suomi","key":"StateName"},{"value":"Satakunta","key":"CountyName"}]},"MapReference":{"ReferenceId":"830557098","SideOfStreet":"neither","CountryId":"20241487","StateId":"20428850","CountyId":"20501636","CityId":"20501645","DistrictId":"20501647"}}},{"Relevance":1.0,"Distance":38.4,"MatchLevel":"houseNumber","MatchQuality":{"Country":1.0,"State":1.0,"County":1.0,"City":1.0,"District":1.0,"Street":[1.0],"HouseNumber":1.0,"PostalCode":1.0},"MatchType":"interpolated","Location":{"LocationId":"NT_P3C8BDEHXDkcxXdDwlWHrB_l_577682276_R_xkD","LocationType":"point","DisplayPosition":{"Latitude":61.3035966,"Longitude":22.1458332},"MapView":{"TopLeft":{"Latitude":61.3047207,"Longitude":22.143492},"BottomRight":{"Latitude":61.3024724,"Longitude":22.1481744}},"Address":{"Label":"Sairaalantie 19, FI-29200 Harjavalta, Suomi","Country":"FIN","State":"Lounais-Suomi","County":"Satakunta","City":"Harjavalta","District":"Harjavalta","Street":"Sairaalantie","HouseNumber":"19","PostalCode":"29200","AdditionalData":[{"value":"Suomi","key":"CountryName"},{"value":"Lounais-Suomi","key":"StateName"},{"value":"Satakunta","key":"CountyName"}]},"MapReference":{"ReferenceId":"577682276","Spot":0.27,"SideOfStreet":"right","CountryId":"20241487","StateId":"20428850","CountyId":"20501636","CityId":"20501645","DistrictId":"20501647"}}},{"Relevance":1.0,"Distance":47.9,"MatchLevel":"street","MatchQuality":{"Country":1.0,"State":1.0,"County":1.0,"City":1.0,"District":1.0,"Street":[1.0],"PostalCode":1.0},"Location":{"LocationId":"NT_P3C8BDEHXDkcxXdDwlWHrB_l_577700346_R","LocationType":"point","DisplayPosition":{"Latitude":61.30289,"Longitude":22.14601},"MapView":{"TopLeft":{"Latitude":61.30332,"Longitude":22.14436},"BottomRight":{"Latitude":61.30289,"Longitude":22.14601}},"Address":{"Label":"Sairaalantie, FI-29200 Harjavalta, Suomi","Country":"FIN","State":"Lounais-Suomi","County":"Satakunta","City":"Harjavalta","District":"Harjavalta","Street":"Sairaalantie","PostalCode":"29200","AdditionalData":[{"value":"Suomi","key":"CountryName"},{"value":"Lounais-Suomi","key":"StateName"},{"value":"Satakunta","key":"CountyName"}]},"MapReference":{"ReferenceId":"577700346","Spot":0.0,"SideOfStreet":"right","CountryId":"20241487","StateId":"20428850","CountyId":"20501636","CityId":"20501645","DistrictId":"20501647"}}},{"Relevance":1.0,"Distance":47.9,"MatchLevel":"street","MatchQuality":{"Country":1.0,"State":1.0,"County":1.0,"City":1.0,"District":1.0,"Street":[1.0],"PostalCode":1.0},"Location":{"LocationId":"NT_P3C8BDEHXDkcxXdDwlWHrB_l_577440065_L","LocationType":"point","DisplayPosition":{"Latitude":61.30289,"Longitude":22.14601},"MapView":{"TopLeft":{"Latitude":61.30289,"Longitude":22.14573},"BottomRight":{"Latitude":61.3027,"Longitude":22.14601}},"Address":{"Label":"Sairaalantie, FI-29200 Harjavalta, Suomi","Country":"FIN","State":"Lounais-Suomi","County":"Satakunta","City":"Harjavalta","District":"Harjavalta","Street":"Sairaalantie","PostalCode":"29200","AdditionalData":[{"value":"Suomi","key":"CountryName"},{"value":"Lounais-Suomi","key":"StateName"},{"value":"Satakunta","key":"CountyName"}]},"MapReference":{"ReferenceId":"577440065","Spot":1.0,"SideOfStreet":"left","CountryId":"20241487","StateId":"20428850","CountyId":"20501636","CityId":"20501645","DistrictId":"20501647"}}},{"Relevance":1.0,"Distance":48.0,"MatchLevel":"street","MatchQuality":{"Country":1.0,"State":1.0,"County":1.0,"City":1.0,"District":1.0,"Street":[1.0],"PostalCode":1.0},"Location":{"LocationId":"NT_P3C8BDEHXDkcxXdDwlWHrB_l_577682275_L","LocationType":"point","DisplayPosition":{"Latitude":61.3028772,"Longitude":22.1461982},"MapView":{"TopLeft":{"Latitude":61.30309,"Longitude":22.14601},"BottomRight":{"Latitude":61.30286,"Longitude":22.14721}},"Address":{"Label":"Sairaalantie, FI-29200 Harjavalta, Suomi","Country":"FIN","State":"Lounais-Suomi","County":"Satakunta","City":"Harjavalta","District":"Harjavalta","Street":"Sairaalantie","PostalCode":"29200","AdditionalData":[{"value":"Suomi","key":"CountryName"},{"value":"Lounais-Suomi","key":"StateName"},{"value":"Satakunta","key":"CountyName"}]},"MapReference":{"ReferenceId":"577682275","Spot":0.15,"SideOfStreet":"left","CountryId":"20241487","StateId":"20428850","CountyId":"20501636","CityId":"20501645","DistrictId":"20501647"}}},{"Relevance":1.0,"Distance":72.7,"MatchLevel":"street","MatchQuality":{"Country":1.0,"State":1.0,"County":1.0,"City":1.0,"District":1.0,"Street":[1.0],"PostalCode":1.0},"Location":{"LocationId":"NT_P3C8BDEHXDkcxXdDwlWHrB_l_577440092_L","LocationType":"point","DisplayPosition":{"Latitude":61.3027,"Longitude":22.14573},"MapView":{"TopLeft":{"Latitude":61.3027,"Longitude":22.14522},"BottomRight":{"Latitude":61.30235,"Longitude":22.14573}},"Address":{"Label":"Sairaalantie, FI-29200 Harjavalta, Suomi","Country":"FIN","State":"Lounais-Suomi","County":"Satakunta","City":"Harjavalta","District":"Harjavalta","Street":"Sairaalantie","PostalCode":"29200","AdditionalData":[{"value":"Suomi","key":"CountryName"},{"value":"Lounais-Suomi","key":"StateName"},{"value":"Satakunta","key":"CountyName"}]},"MapReference":{"ReferenceId":"577440092","Spot":1.0,"SideOfStreet":"left","CountryId":"20241487","StateId":"20428850","CountyId":"20501636","CityId":"20501645","DistrictId":"20501647"}}},{"Relevance":1.0,"Distance":78.7,"MatchLevel":"street","MatchQuality":{"Country":1.0,"State":1.0,"County":1.0,"City":1.0,"District":1.0,"Street":[1.0],"PostalCode":1.0},"Location":{"LocationId":"NT_P3C8BDEHXDkcxXdDwlWHrB_l_577440135_R","LocationType":"point","DisplayPosition":{"Latitude":61.3026112,"Longitude":22.1459764},"MapView":{"TopLeft":{"Latitude":61.3027,"Longitude":22.14573},"BottomRight":{"Latitude":61.30197,"Longitude":22.14772}},"Address":{"Label":"Sairaalantie, FI-29200 Harjavalta, Suomi","Country":"FIN","State":"Lounais-Suomi","County":"Satakunta","City":"Harjavalta","District":"Harjavalta","Street":"Sairaalantie","PostalCode":"29200","AdditionalData":[{"value":"Suomi","key":"CountryName"},{"value":"Lounais-Suomi","key":"StateName"},{"value":"Satakunta","key":"CountyName"}]},"MapReference":{"ReferenceId":"577440135","Spot":0.88,"SideOfStreet":"right","CountryId":"20241487","StateId":"20428850","CountyId":"20501636","CityId":"20501645","DistrictId":"20501647"}}},{"Relevance":1.0,"Distance":103.5,"MatchLevel":"houseNumber","MatchQuality":{"Country":1.0,"State":1.0,"County":1.0,"City":1.0,"District":1.0,"Street":[1.0],"HouseNumber":1.0,"PostalCode":1.0},"MatchType":"interpolated","Location":{"LocationId":"NT_P3C8BDEHXDkcxXdDwlWHrB_l_577440086_L_xQD","LocationType":"point","DisplayPosition":{"Latitude":61.3028303,"Longitude":22.1478906},"MapView":{"TopLeft":{"Latitude":61.3039544,"Longitude":22.1455495},"BottomRight":{"Latitude":61.3017061,"Longitude":22.1502317}},"Address":{"Label":"Sairaalantie 14, FI-29200 Harjavalta, Suomi","Country":"FIN","State":"Lounais-Suomi","County":"Satakunta","City":"Harjavalta","District":"Harjavalta","Street":"Sairaalantie","HouseNumber":"14","PostalCode":"29200","AdditionalData":[{"value":"Suomi","key":"CountryName"},{"value":"Lounais-Suomi","key":"StateName"},{"value":"Satakunta","key":"CountyName"}]},"MapReference":{"ReferenceId":"577440086","Spot":0.51,"SideOfStreet":"left","CountryId":"20241487","StateId":"20428850","CountyId":"20501636","CityId":"20501645","DistrictId":"20501647"}}},{"Relevance":1.0,"Distance":119.4,"MatchLevel":"street","MatchQuality":{"Country":1.0,"State":1.0,"County":1.0,"City":1.0,"District":1.0,"Street":[1.0],"PostalCode":1.0},"Location":{"LocationId":"NT_P3C8BDEHXDkcxXdDwlWHrB_l_577440157_L","LocationType":"point","DisplayPosition":{"Latitude":61.30235,"Longitude":22.14522},"MapView":{"TopLeft":{"Latitude":61.30235,"Longitude":22.14461},"BottomRight":{"Latitude":61.30161,"Longitude":22.14522}},"Address":{"Label":"Sairaalantie, FI-29200 Harjavalta, Suomi","Country":"FIN","State":"Lounais-Suomi","County":"Satakunta","City":"Harjavalta","District":"Harjavalta","Street":"Sairaalantie","PostalCode":"29200","AdditionalData":[{"value":"Suomi","key":"CountryName"},{"value":"Lounais-Suomi","key":"StateName"},{"value":"Satakunta","key":"CountyName"}]},"MapReference":{"ReferenceId":"577440157","Spot":1.0,"SideOfStreet":"left","CountryId":"20241487","StateId":"20428850","CountyId":"20501636","CityId":"20501645","DistrictId":"20501647"}}},{"Relevance":1.0,"Distance":132.3,"MatchLevel":"street","MatchQuality":{"Country":1.0,"State":1.0,"County":1.0,"City":1.0,"District":1.0,"Street":[1.0],"PostalCode":1.0},"Location":{"LocationId":"NT_P3C8BDEHXDkcxXdDwlWHrB_l_577440125_R","LocationType":"point","DisplayPosition":{"Latitude":61.302137,"Longitude":22.1457902},"MapView":{"TopLeft":{"Latitude":61.30235,"Longitude":22.14522},"BottomRight":{"Latitude":61.30204,"Longitude":22.14605}},"Address":{"Label":"Sairaalantie, FI-29200 Harjavalta, Suomi","Country":"FIN","State":"Lounais-Suomi","County":"Satakunta","City":"Harjavalta","District":"Harjavalta","Street":"Sairaalantie","PostalCode":"29200","AdditionalData":[{"value":"Suomi","key":"CountryName"},{"value":"Lounais-Suomi","key":"StateName"},{"value":"Satakunta","key":"CountyName"}]},"MapReference":{"ReferenceId":"577440125","Spot":0.31,"SideOfStreet":"right","CountryId":"20241487","StateId":"20428850","CountyId":"20501636","CityId":"20501645","DistrictId":"20501647"}}}]}]}}