{"Response":{"MetaInfo":{"Timestamp":"2020-03-28T11:06:55.614+0000","NextPageInformation":"2"},"View":[{"_type":"SearchResultsViewType","ViewId":0,"Result":[{"Relevance":1.0,"Distance":0.0,"Direction":0.0,"MatchLevel":"city","MatchQuality":{"Country":1.0,"State":1.0,"County":1.0,"City":1.0,"PostalCode":1.0},"Location":{"LocationId":"NT_6mfrnPHHhHoaZ5ihxXdduA","LocationType":"point","DisplayPosition":{"Latitude":62.0063424,"Longitude":23.0256932},"MapView":{"TopLeft":{"Latitude":62.28889,"Longitude":22.53285},"BottomRight":{"Latitude":61.89516,"Longitude":23.36542}},"Address":{"Label":"Parkano, Länsi- ja Sisä-Suomi, Suomi","Country":"FIN","State":"Länsi- ja Sisä-Suomi","County":"Pirkanmaa","City":"Parkano","PostalCode":"39700","AdditionalData":[{"value":"Suomi","key":"CountryName"},{"value":"Länsi- ja Sisä-Suomi","key":"StateName"},{"value":"Pirkanmaa","key":"CountyName"}]},"MapReference":{"ReferenceId":"1182888974","SideOfStreet":"neither","CountryId":"20241487","StateId":"23795371","CountyId":"20428851","CityId":"20428874"}}},{"Relevance":1.0,"Distance":43.1,"MatchLevel":"houseNumber","MatchQuality":{"Country":1.0,"State":1.0,"County":1.0,"City":1.0,"District":1.0,"Street":[1.0],"HouseNumber":1.0,"PostalCode":1.0},"MatchType":"interpolated","Location":{"LocationId":"NT_-NT2QPNUTiJm-ihd3ViCYB_1AD","LocationType":"point","DisplayPosition":{"Latitude":62.0064,"Longitude":23.02486},"MapView":{"TopLeft":{"Latitude":62.0075242,"Longitude":23.022465},"BottomRight":{"Latitude":62.0052758,"Longitude":23.027255}},"Address":{"Label":"Parkanontie 50, FI-39700 Parkano, Suomi","Country":"FIN","State":"Länsi- ja Sisä-Suomi","County":"Pirkanmaa","City":"Parkano","District":"Parkano","Street":"Parkanontie","HouseNumber":"50","PostalCode":"39700","AdditionalData":[{"value":"Suomi","key":"CountryName"},{"value":"Länsi- ja Sisä-Suomi","key":"StateName"},{"value":"Pirkanmaa","key":"CountyName"}]},"MapReference":{"ReferenceId":"578977203","Spot":0.58,"SideOfStreet":"right","CountryId":"20241487","StateId":"23795371","CountyId":"20428851","CityId":"20428874","DistrictId":"20448131","AddressId":"264017664","RoadLinkId":"302525941"}}},{"Relevance":1.0,"Distance":61.3,"MatchLevel":"houseNumber","MatchQuality":{"Country":1.0,"State":1.0,"County":1.0,"City":1.0,"District":1.0,"Street":[1.0],"HouseNumber":1.0,"PostalCode":1.0},"MatchType":"interpolated","Location":{"LocationId":"NT_1YGDTGaYDTefeNX-iq-tjD_l_960487937_R_1AD","LocationType":"point","DisplayPosition":{"Latitude":62.0064122,"Longitude":23.0243184},"MapView":{"TopLeft":{"Latitude":62.0075364,"Longitude":23.0219234},"BottomRight":{"Latitude":62.0052881,"Longitude":23.0267134}},"Address":{"Label":"Parkanontie 50, FI-39700 Parkano, Suomi","Country":"FIN","State":"Länsi- ja Sisä-Suomi","County":"Pirkanmaa","City":"Parkano","District":"Parkano","Street":"Parkanontie","HouseNumber":"50","PostalCode":"39700","AdditionalData":[{"value":"Suomi","key":"CountryName"},{"value":"Länsi- ja Sisä-Suomi","key":"StateName"},{"value":"Pirkanmaa","key":"CountyName"}]},"MapReference":{"ReferenceId":"960487937","Spot":0.54,"SideOfStreet":"right","CountryId":"20241487","StateId":"23795371","CountyId":"20428851","CityId":"20428874","DistrictId":"20448131"}}},{"Relevance":1.0,"Distance":64.2,"MatchLevel":"houseNumber","MatchQuality":{"Country":1.0,"State":1.0,"County":1.0,"City":1.0,"District":1.0,"Street":[1.0],"HouseNumber":1.0,"PostalCode":1.0},"MatchType":"interpolated","Location":{"LocationId":"NT_-NT2QPNUTiJm-ihd3ViCYB_l_960487935_R_1ID","LocationType":"point","DisplayPosition":{"Latitude":62.0067862,"Longitude":23.0245226},"MapView":{"TopLeft":{"Latitude":62.0079104,"Longitude":23.0221275},"BottomRight":{"Latitude":62.0056621,"Longitude":23.0269176}},"Address":{"Label":"Parkanontie 52, FI-39700 Parkano, Suomi","Country":"FIN","State":"Länsi- ja Sisä-Suomi","County":"Pirkanmaa","City":"Parkano","District":"Parkano","Street":"Parkanontie","HouseNumber":"52","PostalCode":"39700","AdditionalData":[{"value":"Suomi","key":"CountryName"},{"value":"Länsi- ja Sisä-Suomi","key":"StateName"},{"value":"Pirkanmaa","key":"CountyName"}]},"MapReference":{"ReferenceId":"960487935","Spot":0.48,"SideOfStreet":"right","CountryId":"20241487","StateId":"23795371","CountyId":"20428851","CityId":"20428874","DistrictId":"20448131"}}},{"Relevance":1.0,"Distance":102.9,"MatchLevel":"houseNumber","MatchQuality":{"Country":1.0,"State":1.0,"County":1.0,"City":1.0,"District":1.0,"Street":[1.0],"HouseNumber":1.0,"PostalCode":1.0},"MatchType":"interpolated","Location":{"LocationId":"NT_-NT2QPNUTiJm-ihd3ViCYB_0gjY","LocationType":"point","DisplayPosition":{"Latitude":62.00574,"Longitude":23.02397},"MapView":{"TopLeft":{"Latitude":62.0068642,"Longitude":23.021575},"BottomRight":{"Latitude":62.0046158,"Longitude":23.026365}},"Address":{"Label":"Parkanontie 48b, FI-39700 Parkano, Suomi","Country":"FIN","State":"Länsi- ja Sisä-Suomi","County":"Pirkanmaa","City":"Parkano","District":"Parkano","Street":"Parkanontie","HouseNumber":"48b","PostalCode":"39700","AdditionalData":[{"value":"Suomi","key":"CountryName"},{"value":"Länsi- ja Sisä-Suomi","key":"StateName"},{"value":"Pirkanmaa","key":"CountyName"}]},"MapReference":{"ReferenceId":"960487939","Spot":0.24,"SideOfStreet":"right","CountryId":"20241487","StateId":"23795371","CountyId":"20428851","CityId":"20428874","DistrictId":"20448131","AddressId":"264017661","RoadLinkId":"302525943"}}},{"Relevance":1.0,"Distance":103.7,"MatchLevel":"houseNumber","MatchQuality":{"Country":1.0,"State":1.0,"County":1.0,"City":1.0,"District":1.0,"Street":[1.0],"HouseNumber":1.0,"PostalCode":1.0},"MatchType":"interpolated","Location":{"LocationId":"NT_RgjsdiXydi.oe36RIajauC_zA","LocationType":"point","DisplayPosition":{"Latitude":62.00517,"Longitude":23.02509},"MapView":{"TopLeft":{"Latitude":62.0062942,"Longitude":23.0226951},"BottomRight":{"Latitude":62.0040458,"Longitude":23.0274849}},"Address":{"Label":"Kanankatu 3, FI-39700 Parkano, Suomi","Country":"FIN","State":"Länsi- ja Sisä-Suomi","County":"Pirkanmaa","City":"Parkano","District":"Parkano","Street":"Kanankatu","HouseNumber":"3","PostalCode":"39700","AdditionalData":[{"value":"Suomi","key":"CountryName"},{"value":"Länsi- ja Sisä-Suomi","key":"StateName"},{"value":"Pirkanmaa","key":"CountyName"}]},"MapReference":{"ReferenceId":"568679880","Spot":0.0,"SideOfStreet":"right","CountryId":"20241487","StateId":"23795371","CountyId":"20428851","CityId":"20428874","DistrictId":"20448131","AddressId":"532599435","RoadLinkId":"97402617"}}},{"Relevance":1.0,"Distance":116.8,"MatchLevel":"houseNumber","MatchQuality":{"Country":1.0,"State":1.0,"County":1.0,"City":1.0,"District":1.0,"Street":[1.0],"HouseNumber":1.0,"PostalCode":1.0},"MatchType":"interpolated","Location":{"LocationId":"NT_-NT2QPNUTiJm-ihd3ViCYB_l_960487936_R_1QD","LocationType":"point","DisplayPosition":{"Latitude":62.0074849,"Longitude":23.025067},"MapView":{"TopLeft":{"Latitude":62.0086091,"Longitude":23.0226719},"BottomRight":{"Latitude":62.0063608,"Longitude":23.0274621}},"Address":{"Label":"Parkanontie 54, FI-39700 Parkano, Suomi","Country":"FIN","State":"Länsi- ja Sisä-Suomi","County":"Pirkanmaa","City":"Parkano","District":"Parkano","Street":"Parkanontie","HouseNumber":"54","PostalCode":"39700","AdditionalData":[{"value":"Suomi","key":"CountryName"},{"value":"Länsi- ja Sisä-Suomi","key":"StateName"},{"value":"Pirkanmaa","key":"CountyName"}]},"MapReference":{"ReferenceId":"960487936","Spot":0.5,"SideOfStreet":"right","CountryId":"20241487","StateId":"23795371","CountyId":"20428851","CityId":"20428874","DistrictId":"20448131"}}},{"Relevance":1.0,"Distance":121.5,"MatchLevel":"houseNumber","MatchQuality":{"Country":1.0,"State":1.0,"County":1.0,"City":1.0,"District":1.0,"Street":[1.0],"HouseNumber":1.0,"PostalCode":1.0},"MatchType":"interpolated","Location":{"LocationId":"NT_-NT2QPNUTiJm-ihd3ViCYB_0YD","LocationType":"point","DisplayPosition":{"Latitude":62.00557,"Longitude":23.02384},"MapView":{"TopLeft":{"Latitude":62.0066942,"Longitude":23.0214451},"BottomRight":{"Latitude":62.0044458,"Longitude":23.0262349}},"Address":{"Label":"Parkanontie 46, FI-39700 Parkano, Suomi","Country":"FIN","State":"Länsi- ja Sisä-Suomi","County":"Pirkanmaa","City":"Parkano","District":"Parkano","Street":"Parkanontie","HouseNumber":"46","PostalCode":"39700","AdditionalData":[{"value":"Suomi","key":"CountryName"},{"value":"Länsi- ja Sisä-Suomi","key":"StateName"},{"value":"Pirkanmaa","key":"CountyName"}]},"MapReference":{"ReferenceId":"960487938","Spot":0.94,"SideOfStreet":"right","CountryId":"20241487","StateId":"23795371","CountyId":"20428851","CityId":"20428874","DistrictId":"20448131","AddressId":"673688776","RoadLinkId":"302525946"}}},{"Relevance":1.0,"Distance":147.2,"MatchLevel":"street","MatchQuality":{"Country":1.0,"State":1.0,"County":1.0,"City":1.0,"District":1.0,"Street":[1.0],"PostalCode":1.0},"Location":{"LocationId":"NT_-NT2QPNUTiJm-ihd3ViCYB_l_960487941_R","LocationType":"point","DisplayPosition":{"Latitude":62.00541,"Longitude":23.02369},"MapView":{"TopLeft":{"Latitude":62.00541,"Longitude":23.02355},"BottomRight":{"Latitude":62.00529,"Longitude":23.02369}},"Address":{"Label":"Parkanontie, FI-39700 Parkano, Suomi","Country":"FIN","State":"Länsi- ja Sisä-Suomi","County":"Pirkanmaa","City":"Parkano","District":"Parkano","Street":"Parkanontie","PostalCode":"39700","AdditionalData":[{"value":"Suomi","key":"CountryName"},{"value":"Länsi- ja Sisä-Suomi","key":"StateName"},{"value":"Pirkanmaa","key":"CountyName"}]},"MapReference":{"ReferenceId":"960487941","Spot":1.0,"SideOfStreet":"right","CountryId":"20241487","StateId":"23795371","CountyId":"20428851","CityId":"20428874","DistrictId":"20448131"}}},{"Relevance":1.0,"Distance":150.7,"MatchLevel":"houseNumber","MatchQuality":{"Country":1.0,"State":1.0,"County":1.0,"City":1.0,"District":1.0,"Street":[1.0],"HouseNumber":1.0,"PostalCode":1.0},"MatchType":"interpolated","Location":{"LocationId":"NT_RgjsdiXydi.oe36RIajauC_4A","LocationType":"point","DisplayPosition":{"Latitude":62.005,"Longitude":23.02609},"MapView":{"TopLeft":{"Latitude":62.0061242,"Longitude":23.0236951},"BottomRight":{"Latitude":62.0038758,"Longitude":23.0284849}},"Address":{"Label":"Kanankatu 8, FI-39700 Parkano, Suomi","Country":"FIN","State":"Länsi- ja Sisä-Suomi","County":"Pirkanmaa","City":"Parkano","District":"Parkano","Street":"Kanankatu","HouseNumber":"8","PostalCode":"39700","AdditionalData":[{"value":"Suomi","key":"CountryName"},{"value":"Länsi- ja Sisä-Suomi","key":"StateName"},{"value":"Pirkanmaa","key":"CountyName"}]},"MapReference":{"ReferenceId":"568679938","Spot":0.62,"SideOfStreet":"left","CountryId":"20241487","StateId":"23795371","CountyId":"20428851","CityId":"20428874","DistrictId":"20448131","AddressId":"264018425","RoadLinkId":"97647318"}}}]}]}}