{"Response":{"MetaInfo":{"Timestamp":"2020-03-28T11:06:38.549+0000","NextPageInformation":"2"},"View":[{"_type":"SearchResultsViewType","ViewId":0,"Result":[{"Relevance":1.0,"Distance":0.0,"Direction":0.0,"MatchLevel":"city","MatchQuality":{"Country":1.0,"State":1.0,"County":1.0,"City":1.0,"PostalCode":1.0},"Location":{"LocationId":"NT_-RVh9z-y1ABtJhskiZIDJB","LocationType":"point","DisplayPosition":{"Latitude":62.2141316,"Longitude":23.1809736},"MapView":{"TopLeft":{"Latitude":62.33417,"Longitude":22.99417},"BottomRight":{"Latitude":62.08274,"Longitude":23.4234}},"Address":{"Label":"Kihniö, Länsi- ja Sisä-Suomi, Suomi","Country":"FIN","State":"Länsi- ja Sisä-Suomi","County":"Pirkanmaa","City":"Kihniö","PostalCode":"39820","AdditionalData":[{"value":"Suomi","key":"CountryName"},{"value":"Länsi- ja Sisä-Suomi","key":"StateName"},{"value":"Pirkanmaa","key":"CountyName"}]},"MapReference":{"ReferenceId":"578953570","SideOfStreet":"neither","CountryId":"20241487","StateId":"23795371","CountyId":"20428851","CityId":"20428873"}}},{"Relevance":1.0,"Distance":57.5,"MatchLevel":"houseNumber","MatchQuality":{"Country":1.0,"State":1.0,"County":1.0,"City":1.0,"District":1.0,"Street":[1.0],"HouseNumber":1.0,"PostalCode":1.0},"MatchType":"interpolated","Location":{"LocationId":"NT_WUnhBolhqJMlZ6qLYH-G4B_l_1198160349_L_1A","LocationType":"point","DisplayPosition":{"Latitude":62.213691,"Longitude":23.1819353},"MapView":{"TopLeft":{"Latitude":62.2148151,"Longitude":23.1795239},"BottomRight":{"Latitude":62.2125668,"Longitude":23.1843467}},"Address":{"Label":"Kivinevantie 5, FI-39820 Kihniö, Suomi","Country":"FIN","State":"Länsi- ja Sisä-Suomi","County":"Pirkanmaa","City":"Kihniö","District":"Kihniö","Street":"Kivinevantie","HouseNumber":"5","PostalCode":"39820","AdditionalData":[{"value":"Suomi","key":"CountryName"},{"value":"Länsi- ja Sisä-Suomi","key":"StateName"},{"value":"Pirkanmaa","key":"CountyName"}]},"MapReference":{"ReferenceId":"1198160349","Spot":0.55,"SideOfStreet":"left","CountryId":"20241487","StateId":"23795371","CountyId":"20428851","CityId":"20428873","DistrictId":"20448751"}}},{"Relevance":1.0,"Distance":62.4,"MatchLevel":"houseNumber","MatchQuality":{"Country":1.0,"State":1.0,"County":1.0,"City":1.0,"Street":[1.0],"HouseNumber":1.0,"PostalCode":1.0},"MatchType":"interpolated","Location":{"LocationId":"NT_iwdryQp8Al1HbYclHS6PWC_2YD","LocationType":"point","DisplayPosition":{"Latitude":62.21366,"Longitude":23.18032},"MapView":{"TopLeft":{"Latitude":62.2147842,"Longitude":23.1779086},"BottomRight":{"Latitude":62.2125358,"Longitude":23.1827314}},"Address":{"Label":"Kihniöntie 66, FI-39820 Kihniö, Suomi","Country":"FIN","State":"Länsi- ja Sisä-Suomi","County":"Pirkanmaa","City":"Kihniö","Street":"Kihniöntie","HouseNumber":"66","PostalCode":"39820","AdditionalData":[{"value":"Suomi","key":"CountryName"},{"value":"Länsi- ja Sisä-Suomi","key":"StateName"},{"value":"Pirkanmaa","key":"CountyName"}]},"MapReference":{"ReferenceId":"1198160350","Spot":0.07,"SideOfStreet":"left","CountryId":"20241487","StateId":"23795371","CountyId":"20428851","CityId":"20428873","AddressId":"263413183","RoadLinkId":"97021782"}}},{"Relevance":1.0,"Distance":81.0,"MatchLevel":"houseNumber","MatchQuality":{"Country":1.0,"State":1.0,"County":1.0,"City":1.0,"District":1.0,"Street":[1.0],"HouseNumber":1.0,"PostalCode":1.0},"MatchType":"interpolated","Location":{"LocationId":"NT_WUnhBolhqJMlZ6qLYH-G4B_5A","LocationType":"point","DisplayPosition":{"Latitude":62.21429,"Longitude":23.18286},"MapView":{"TopLeft":{"Latitude":62.2154142,"Longitude":23.1804485},"BottomRight":{"Latitude":62.2131658,"Longitude":23.1852715}},"Address":{"Label":"Kivinevantie 9, FI-39820 Kihniö, Suomi","Country":"FIN","State":"Länsi- ja Sisä-Suomi","County":"Pirkanmaa","City":"Kihniö","District":"Kihniö","Street":"Kivinevantie","HouseNumber":"9","PostalCode":"39820","AdditionalData":[{"value":"Suomi","key":"CountryName"},{"value":"Länsi- ja Sisä-Suomi","key":"StateName"},{"value":"Pirkanmaa","key":"CountyName"}]},"MapReference":{"ReferenceId":"762671924","Spot":0.61,"SideOfStreet":"left","CountryId":"20241487","StateId":"23795371","CountyId":"20428851","CityId":"20428873","DistrictId":"20448751","AddressId":"263413164","RoadLinkId":"156876633"}}},{"Relevance":1.0,"Distance":81.2,"MatchLevel":"houseNumber","MatchQuality":{"Country":1.0,"State":1.0,"County":1.0,"City":1.0,"District":1.0,"Street":[1.0],"HouseNumber":1.0,"PostalCode":1.0},"MatchType":"interpolated","Location":{"LocationId":"NT_WUnhBolhqJMlZ6qLYH-G4B_l_1198160348_L_zA","LocationType":"point","DisplayPosition":{"Latitude":62.2132771,"Longitude":23.1812516},"MapView":{"TopLeft":{"Latitude":62.2144012,"Longitude":23.1788402},"BottomRight":{"Latitude":62.2121529,"Longitude":23.183663}},"Address":{"Label":"Kivinevantie 3, FI-39820 Kihniö, Suomi","Country":"FIN","State":"Länsi- ja Sisä-Suomi","County":"Pirkanmaa","City":"Kihniö","District":"Kihniö","Street":"Kivinevantie","HouseNumber":"3","PostalCode":"39820","AdditionalData":[{"value":"Suomi","key":"CountryName"},{"value":"Länsi- ja Sisä-Suomi","key":"StateName"},{"value":"Pirkanmaa","key":"CountyName"}]},"MapReference":{"ReferenceId":"1198160348","Spot":0.5,"SideOfStreet":"left","CountryId":"20241487","StateId":"23795371","CountyId":"20428851","CityId":"20428873","DistrictId":"20448751"}}},{"Relevance":1.0,"Distance":82.6,"MatchLevel":"houseNumber","MatchQuality":{"Country":1.0,"State":1.0,"County":1.0,"City":1.0,"Street":[1.0],"HouseNumber":1.0,"PostalCode":1.0},"MatchType":"interpolated","Location":{"LocationId":"NT_iwdryQp8Al1HbYclHS6PWC_l_578976453_R_2gD","LocationType":"point","DisplayPosition":{"Latitude":62.2141133,"Longitude":23.1793468},"MapView":{"TopLeft":{"Latitude":62.2152374,"Longitude":23.1769353},"BottomRight":{"Latitude":62.2129891,"Longitude":23.1817583}},"Address":{"Label":"Kihniöntie 68, FI-39820 Kihniö, Suomi","Country":"FIN","State":"Länsi- ja Sisä-Suomi","County":"Pirkanmaa","City":"Kihniö","Street":"Kihniöntie","HouseNumber":"68","PostalCode":"39820","AdditionalData":[{"value":"Suomi","key":"CountryName"},{"value":"Länsi- ja Sisä-Suomi","key":"StateName"},{"value":"Pirkanmaa","key":"CountyName"}]},"MapReference":{"ReferenceId":"578976453","Spot":0.37,"SideOfStreet":"right","CountryId":"20241487","StateId":"23795371","CountyId":"20428851","CityId":"20428873"}}},{"Relevance":1.0,"Distance":90.9,"MatchLevel":"houseNumber","MatchQuality":{"Country":1.0,"State":1.0,"County":1.0,"City":1.0,"District":1.0,"Street":[1.0],"HouseNumber":1.0,"PostalCode":1.0},"MatchType":"interpolated","Location":{"LocationId":"NT_aNSwRTqV5JU-5pHN4yYiuB_l_961340882_R_2YD","LocationType":"point","DisplayPosition":{"Latitude":62.2138135,"Longitude":23.1791029},"MapView":{"TopLeft":{"Latitude":62.2149377,"Longitude":23.1766914},"BottomRight":{"Latitude":62.2126894,"Longitude":23.1815143}},"Address":{"Label":"Kihniöntie 66, FI-39820 Kihniö, Suomi","Country":"FIN","State":"Länsi- ja Sisä-Suomi","County":"Pirkanmaa","City":"Kihniö","District":"Kihniö","Street":"Kihniöntie","HouseNumber":"66","PostalCode":"39820","AdditionalData":[{"value":"Suomi","key":"CountryName"},{"value":"Länsi- ja Sisä-Suomi","key":"StateName"},{"value":"Pirkanmaa","key":"CountyName"}]},"MapReference":{"ReferenceId":"961340882","Spot":0.52,"SideOfStreet":"right","CountryId":"20241487","StateId":"23795371","CountyId":"20428851","CityId":"20428873","DistrictId":"20448751"}}},{"Relevance":1.0,"Distance":98.2,"MatchLevel":"houseNumber","MatchQuality":{"Country":1.0,"State":1.0,"County":1.0,"City":1.0,"Street":[1.0],"HouseNumber":1.0,"PostalCode":1.0},"MatchType":"interpolated","Location":{"LocationId":"NT_iwdryQp8Al1HbYclHS6PWC_3QD","LocationType":"point","DisplayPosition":{"Latitude":62.21459,"Longitude":23.17954},"MapView":{"TopLeft":{"Latitude":62.2157142,"Longitude":23.1771285},"BottomRight":{"Latitude":62.2134658,"Longitude":23.1819515}},"Address":{"Label":"Kihniöntie 74, FI-39820 Kihniö, Suomi","Country":"FIN","State":"Länsi- ja Sisä-Suomi","County":"Pirkanmaa","City":"Kihniö","Street":"Kihniöntie","HouseNumber":"74","PostalCode":"39820","AdditionalData":[{"value":"Suomi","key":"CountryName"},{"value":"Länsi- ja Sisä-Suomi","key":"StateName"},{"value":"Pirkanmaa","key":"CountyName"}]},"MapReference":{"ReferenceId":"578976454","Spot":0.29,"SideOfStreet":"right","CountryId":"20241487","StateId":"23795371","CountyId":"20428851","CityId":"20428873","AddressId":"263413178","RoadLinkId":"96935907"}}},{"Relevance":1.0,"Distance":99.0,"MatchLevel":"houseNumber","MatchQuality":{"Country":1.0,"State":1.0,"County":1.0,"City":1.0,"District":1.0,"Street":[1.0],"HouseNumber":1.0,"PostalCode":1.0},"MatchType":"interpolated","Location":{"LocationId":"NT_aNSwRTqV5JU-5pHN4yYiuB_2ID","LocationType":"point","DisplayPosition":{"Latitude":62.21331,"Longitude":23.17943},"MapView":{"TopLeft":{"Latitude":62.2144342,"Longitude":23.1770186},"BottomRight":{"Latitude":62.2121858,"Longitude":23.1818414}},"Address":{"Label":"Kihniöntie 62, FI-39820 Kihniö, Suomi","Country":"FIN","State":"Länsi- ja Sisä-Suomi","County":"Pirkanmaa","City":"Kihniö","District":"Kihniö","Street":"Kihniöntie","HouseNumber":"62","PostalCode":"39820","AdditionalData":[{"value":"Suomi","key":"CountryName"},{"value":"Länsi- ja Sisä-Suomi","key":"StateName"},{"value":"Pirkanmaa","key":"CountyName"}]},"MapReference":{"ReferenceId":"961340881","Spot":0.6,"SideOfStreet":"right","CountryId":"20241487","StateId":"23795371","CountyId":"20428851","CityId":"20428873","DistrictId":"20448751","AddressId":"774961898","RoadLinkId":"303183134"}}},{"Relevance":1.0,"Distance":107.0,"MatchLevel":"houseNumber","MatchQuality":{"Country":1.0,"State":1.0,"County":1.0,"City":1.0,"Street":[1.0],"HouseNumber":1.0,"PostalCode":1.0},"MatchType":"interpolated","Location":{"LocationId":"NT_iwdryQp8Al1HbYclHS6PWC_2kD","LocationType":"point","DisplayPosition":{"Latitude":62.21411,"Longitude":23.17891},"MapView":{"TopLeft":{"Latitude":62.2152342,"Longitude":23.1764985},"BottomRight":{"Latitude":62.2129858,"Longitude":23.1813215}},"Address":{"Label":"Kihniöntie 69, FI-39820 Kihniö, Suomi","Country":"FIN","State":"Länsi- ja Sisä-Suomi","County":"Pirkanmaa","City":"Kihniö","Street":"Kihniöntie","HouseNumber":"69","PostalCode":"39820","AdditionalData":[{"value":"Suomi","key":"CountryName"},{"value":"Länsi- ja Sisä-Suomi","key":"StateName"},{"value":"Pirkanmaa","key":"CountyName"}]},"MapReference":{"ReferenceId":"578976451","Spot":0.92,"SideOfStreet":"left","CountryId":"20241487","StateId":"23795371","CountyId":"20428851","CityId":"20428873","AddressId":"263413174","RoadLinkId":"96909984"}}}]}]}}