{"Response":{"MetaInfo":{"Timestamp":"2020-03-28T09:48:21.320+0000","NextPageInformation":"2"},"View":[{"_type":"SearchResultsViewType","ViewId":0,"Result":[{"Relevance":1.0,"Distance":0.0,"Direction":0.0,"MatchLevel":"district","MatchQuality":{"Country":1.0,"State":1.0,"County":1.0,"City":1.0,"District":1.0,"PostalCode":1.0},"Location":{"LocationId":"NT_HIvEp9cHuDyLosFKQoJf6A","LocationType":"point","DisplayPosition":{"Latitude":62.4095131,"Longitude":25.9495299},"MapView":{"TopLeft":{"Latitude":62.43504,"Longitude":25.90128},"BottomRight":{"Latitude":62.39276,"Longitude":25.97086}},"Address":{"Label":"Laukaa, Länsi- ja Sisä-Suomi, Suomi","Country":"FIN","State":"Länsi- ja Sisä-Suomi","County":"Keski-Suomi","City":"Laukaa","District":"Laukaa","PostalCode":"41340","AdditionalData":[{"value":"Suomi","key":"CountryName"},{"value":"Länsi- ja Sisä-Suomi","key":"StateName"},{"value":"Keski-Suomi","key":"CountyName"}]},"MapReference":{"ReferenceId":"578989156","SideOfStreet":"neither","CountryId":"20241487","StateId":"23795371","CountyId":"20504682","CityId":"20504742","DistrictId":"20624167"}}},{"Relevance":1.0,"Distance":8.5,"MatchLevel":"street","MatchQuality":{"Country":1.0,"State":1.0,"County":1.0,"City":1.0,"District":1.0,"PostalCode":1.0},"Location":{"LocationId":"NT_-zgT3WaAPGlLZIIgixcJbC_l_580004721_L","LocationType":"point","DisplayPosition":{"Latitude":62.40944,"Longitude":25.94958},"MapView":{"TopLeft":{"Latitude":62.40944,"Longitude":25.9486},"BottomRight":{"Latitude":62.40769,"Longitude":25.94958}},"Address":{"Label":"FI-41340 Laukaa, Suomi","Country":"FIN","State":"Länsi- ja Sisä-Suomi","County":"Keski-Suomi","City":"Laukaa","District":"Laukaa","PostalCode":"41340","AdditionalData":[{"value":"Suomi","key":"CountryName"},{"value":"Länsi- ja Sisä-Suomi","key":"StateName"},{"value":"Keski-Suomi","key":"CountyName"}]},"MapReference":{"ReferenceId":"580004721","Spot":1.0,"SideOfStreet":"left","CountryId":"20241487","StateId":"23795371","CountyId":"20504682","CityId":"20504742","DistrictId":"20624167"}}},{"Relevance":1.0,"Distance":17.2,"MatchLevel":"street","MatchQuality":{"Country":1.0,"State":1.0,"County":1.0,"City":1.0,"District":1.0,"PostalCode":1.0},"Location":{"LocationId":"NT_-zgT3WaAPGlLZIIgixcJbC_l_580004434_L","LocationType":"point","DisplayPosition":{"Latitude":62.4096602,"Longitude":25.9496305},"MapView":{"TopLeft":{"Latitude":62.40994,"Longitude":25.94943},"BottomRight":{"Latitude":62.40957,"Longitude":25.95175}},"Address":{"Label":"FI-41340 Laukaa, Suomi","Country":"FIN","State":"Länsi- ja Sisä-Suomi","County":"Keski-Suomi","City":"Laukaa","District":"Laukaa","PostalCode":"41340","AdditionalData":[{"value":"Suomi","key":"CountryName"},{"value":"Länsi- ja Sisä-Suomi","key":"StateName"},{"value":"Keski-Suomi","key":"CountyName"}]},"MapReference":{"ReferenceId":"580004434","Spot":0.85,"SideOfStreet":"left","CountryId":"20241487","StateId":"23795371","CountyId":"20504682","CityId":"20504742","DistrictId":"20624167"}}},{"Relevance":1.0,"Distance":47.7,"MatchLevel":"street","MatchQuality":{"Country":1.0,"State":1.0,"County":1.0,"City":1.0,"District":1.0,"PostalCode":1.0},"Location":{"LocationId":"NT_-zgT3WaAPGlLZIIgixcJbC_l_580004343_R","LocationType":"point","DisplayPosition":{"Latitude":62.40994,"Longitude":25.94943},"MapView":{"TopLeft":{"Latitude":62.41105,"Longitude":25.94932},"BottomRight":{"Latitude":62.40994,"Longitude":25.9501}},"Address":{"Label":"FI-41340 Laukaa, Suomi","Country":"FIN","State":"Länsi- ja Sisä-Suomi","County":"Keski-Suomi","City":"Laukaa","District":"Laukaa","PostalCode":"41340","AdditionalData":[{"value":"Suomi","key":"CountryName"},{"value":"Länsi- ja Sisä-Suomi","key":"StateName"},{"value":"Keski-Suomi","key":"CountyName"}]},"MapReference":{"ReferenceId":"580004343","Spot":0.0,"SideOfStreet":"right","CountryId":"20241487","StateId":"23795371","CountyId":"20504682","CityId":"20504742","DistrictId":"20624167"}}},{"Relevance":1.0,"Distance":60.2,"MatchLevel":"houseNumber","MatchQuality":{"Country":1.0,"State":1.0,"County":1.0,"City":1.0,"District":1.0,"Street":[1.0],"HouseNumber":1.0,"PostalCode":1.0},"MatchType":"interpolated","Location":{"LocationId":"NT_5tqF6R6XxpDNlIOJM9Z0DB_xAD","LocationType":"point","DisplayPosition":{"Latitude":62.41002,"Longitude":25.95055},"MapView":{"TopLeft":{"Latitude":62.4111442,"Longitude":25.9481228},"BottomRight":{"Latitude":62.4088958,"Longitude":25.9529772}},"Address":{"Label":"Kantolantie 10, FI-41340 Laukaa, Suomi","Country":"FIN","State":"Länsi- ja Sisä-Suomi","County":"Keski-Suomi","City":"Laukaa","District":"Laukaa","Street":"Kantolantie","HouseNumber":"10","PostalCode":"41340","AdditionalData":[{"value":"Suomi","key":"CountryName"},{"value":"Länsi- ja Sisä-Suomi","key":"StateName"},{"value":"Keski-Suomi","key":"CountyName"}]},"MapReference":{"ReferenceId":"580004407","Spot":1.0,"SideOfStreet":"left","CountryId":"20241487","StateId":"23795371","CountyId":"20504682","CityId":"20504742","DistrictId":"20624167","AddressId":"263944519","RoadLinkId":"97311800"}}},{"Relevance":1.0,"Distance":84.6,"MatchLevel":"houseNumber","MatchQuality":{"Country":1.0,"State":1.0,"County":1.0,"City":1.0,"District":1.0,"Street":[1.0],"HouseNumber":1.0,"PostalCode":1.0},"MatchType":"interpolated","Location":{"LocationId":"NT_5IjEh5WG7b64wAUHSBvj-A_zA","LocationType":"point","DisplayPosition":{"Latitude":62.40934,"Longitude":25.94793},"MapView":{"TopLeft":{"Latitude":62.4104642,"Longitude":25.9455028},"BottomRight":{"Latitude":62.4082158,"Longitude":25.9503572}},"Address":{"Label":"Pelloskuja 3, FI-41340 Laukaa, Suomi","Country":"FIN","State":"Länsi- ja Sisä-Suomi","County":"Keski-Suomi","City":"Laukaa","District":"Laukaa","Street":"Pelloskuja","HouseNumber":"3","PostalCode":"41340","AdditionalData":[{"value":"Suomi","key":"CountryName"},{"value":"Länsi- ja Sisä-Suomi","key":"StateName"},{"value":"Keski-Suomi","key":"CountyName"}]},"MapReference":{"ReferenceId":"580004454","Spot":0.0,"SideOfStreet":"left","CountryId":"20241487","StateId":"23795371","CountyId":"20504682","CityId":"20504742","DistrictId":"20624167","AddressId":"263944531","RoadLinkId":"97102539"}}},{"Relevance":1.0,"Distance":92.6,"MatchLevel":"houseNumber","MatchQuality":{"Country":1.0,"State":1.0,"County":1.0,"City":1.0,"District":1.0,"Street":[1.0],"HouseNumber":1.0,"PostalCode":1.0},"MatchType":"interpolated","Location":{"LocationId":"NT_5tqF6R6XxpDNlIOJM9Z0DB_xID","LocationType":"point","DisplayPosition":{"Latitude":62.4089,"Longitude":25.95133},"MapView":{"TopLeft":{"Latitude":62.4100242,"Longitude":25.9489029},"BottomRight":{"Latitude":62.4077758,"Longitude":25.9537571}},"Address":{"Label":"Kantolantie 12, FI-41340 Laukaa, Suomi","Country":"FIN","State":"Länsi- ja Sisä-Suomi","County":"Keski-Suomi","City":"Laukaa","District":"Laukaa","Street":"Kantolantie","HouseNumber":"12","PostalCode":"41340","AdditionalData":[{"value":"Suomi","key":"CountryName"},{"value":"Länsi- ja Sisä-Suomi","key":"StateName"},{"value":"Keski-Suomi","key":"CountyName"}]},"MapReference":{"ReferenceId":"580004592","Spot":0.37,"SideOfStreet":"left","CountryId":"20241487","StateId":"23795371","CountyId":"20504682","CityId":"20504742","DistrictId":"20624167","AddressId":"263944565","RoadLinkId":"347833083"}}},{"Relevance":1.0,"Distance":97.1,"MatchLevel":"street","MatchQuality":{"Country":1.0,"State":1.0,"County":1.0,"City":1.0,"District":1.0,"PostalCode":1.0},"Location":{"LocationId":"NT_-zgT3WaAPGlLZIIgixcJbC_l_580004593_R","LocationType":"point","DisplayPosition":{"Latitude":62.40864,"Longitude":25.94957},"MapView":{"TopLeft":{"Latitude":62.40864,"Longitude":25.94957},"BottomRight":{"Latitude":62.40851,"Longitude":25.95084}},"Address":{"Label":"FI-41340 Laukaa, Suomi","Country":"FIN","State":"Länsi- ja Sisä-Suomi","County":"Keski-Suomi","City":"Laukaa","District":"Laukaa","PostalCode":"41340","AdditionalData":[{"value":"Suomi","key":"CountryName"},{"value":"Länsi- ja Sisä-Suomi","key":"StateName"},{"value":"Keski-Suomi","key":"CountyName"}]},"MapReference":{"ReferenceId":"580004593","Spot":1.0,"SideOfStreet":"right","CountryId":"20241487","StateId":"23795371","CountyId":"20504682","CityId":"20504742","DistrictId":"20624167"}}},{"Relevance":1.0,"Distance":101.7,"MatchLevel":"street","MatchQuality":{"Country":1.0,"State":1.0,"County":1.0,"City":1.0,"District":1.0,"PostalCode":1.0},"Location":{"LocationId":"NT_-zgT3WaAPGlLZIIgixcJbC_l_580004300_L","LocationType":"point","DisplayPosition":{"Latitude":62.41037,"Longitude":25.95022},"MapView":{"TopLeft":{"Latitude":62.41105,"Longitude":25.9501},"BottomRight":{"Latitude":62.41037,"Longitude":25.95023}},"Address":{"Label":"FI-41340 Laukaa, Suomi","Country":"FIN","State":"Länsi- ja Sisä-Suomi","County":"Keski-Suomi","City":"Laukaa","District":"Laukaa","PostalCode":"41340","AdditionalData":[{"value":"Suomi","key":"CountryName"},{"value":"Länsi- ja Sisä-Suomi","key":"StateName"},{"value":"Keski-Suomi","key":"CountyName"}]},"MapReference":{"ReferenceId":"580004300","Spot":0.0,"SideOfStreet":"left","CountryId":"20241487","StateId":"23795371","CountyId":"20504682","CityId":"20504742","DistrictId":"20624167"}}},{"Relevance":1.0,"Distance":105.2,"MatchLevel":"houseNumber","MatchQuality":{"Country":1.0,"State":1.0,"County":1.0,"City":1.0,"District":1.0,"Street":[1.0],"HouseNumber":1.0,"PostalCode":1.0},"MatchType":"interpolated","Location":{"LocationId":"NT_LKz1yBzkrImxV3B0DPn3bC_l_1198386984_R_2ED","LocationType":"point","DisplayPosition":{"Latitude":62.4101224,"Longitude":25.9476837},"MapView":{"TopLeft":{"Latitude":62.4112466,"Longitude":25.9452564},"BottomRight":{"Latitude":62.4089983,"Longitude":25.9501109}},"Address":{"Label":"Jyväskyläntie 61, FI-41340 Laukaa, Suomi","Country":"FIN","State":"Länsi- ja Sisä-Suomi","County":"Keski-Suomi","City":"Laukaa","District":"Laukaa","Street":"Jyväskyläntie","HouseNumber":"61","PostalCode":"41340","AdditionalData":[{"value":"Suomi","key":"CountryName"},{"value":"Länsi- ja Sisä-Suomi","key":"StateName"},{"value":"Keski-Suomi","key":"CountyName"}]},"MapReference":{"ReferenceId":"1198386984","Spot":0.34,"SideOfStreet":"right","CountryId":"20241487","StateId":"23795371","CountyId":"20504682","CityId":"20504742","DistrictId":"20624167"}}}]}]}}