{"Response":{"MetaInfo":{"Timestamp":"2020-03-28T11:29:20.126+0000","NextPageInformation":"2"},"View":[{"_type":"SearchResultsViewType","ViewId":0,"Result":[{"Relevance":1.0,"Distance":0.0,"Direction":0.0,"MatchLevel":"city","MatchQuality":{"Country":1.0,"State":1.0,"County":1.0,"City":1.0,"PostalCode":1.0},"Location":{"LocationId":"NT_UrkwNYqM6j1MAqV.h-GlvD","LocationType":"point","DisplayPosition":{"Latitude":62.4640169,"Longitude":6.3113868},"MapView":{"TopLeft":{"Latitude":62.47042,"Longitude":6.27701},"BottomRight":{"Latitude":62.45822,"Longitude":6.35144}},"Address":{"Label":"Åse, Møre og Romsdal, Norge","Country":"NOR","State":"Møre og Romsdal","County":"Ålesund","City":"Åse","PostalCode":"6017","AdditionalData":[{"value":"Norge","key":"CountryName"},{"value":"Møre og Romsdal","key":"StateName"},{"value":"Ålesund","key":"CountyName"}]},"MapReference":{"ReferenceId":"574185654","SideOfStreet":"neither","CountryId":"20418433","StateId":"20484692","CountyId":"20484693","CityId":"20486354"}}},{"Relevance":1.0,"Distance":35.5,"MatchLevel":"street","MatchQuality":{"Country":1.0,"State":1.0,"County":1.0,"City":1.0,"PostalCode":1.0},"Location":{"LocationId":"NT_BguFmHrvTdplHtMFv31NQA_l_1151061696_L","LocationType":"point","DisplayPosition":{"Latitude":62.46416,"Longitude":6.31077},"MapView":{"TopLeft":{"Latitude":62.46417,"Longitude":6.31048},"BottomRight":{"Latitude":62.46416,"Longitude":6.31077}},"Address":{"Label":"6017 Åse, Norge","Country":"NOR","State":"Møre og Romsdal","County":"Ålesund","City":"Åse","PostalCode":"6017","AdditionalData":[{"value":"Norge","key":"CountryName"},{"value":"Møre og Romsdal","key":"StateName"},{"value":"Ålesund","key":"CountyName"}]},"MapReference":{"ReferenceId":"1151061696","Spot":0.0,"SideOfStreet":"left","CountryId":"20418433","StateId":"20484692","CountyId":"20484693","CityId":"20486354"}}},{"Relevance":1.0,"Distance":40.4,"MatchLevel":"street","MatchQuality":{"Country":1.0,"State":1.0,"County":1.0,"City":1.0,"PostalCode":1.0},"Location":{"LocationId":"NT_BguFmHrvTdplHtMFv31NQA_l_1151061688_L","LocationType":"point","DisplayPosition":{"Latitude":62.46376,"Longitude":6.31083},"MapView":{"TopLeft":{"Latitude":62.46376,"Longitude":6.31045},"BottomRight":{"Latitude":62.46376,"Longitude":6.31083}},"Address":{"Label":"6017 Åse, Norge","Country":"NOR","State":"Møre og Romsdal","County":"Ålesund","City":"Åse","PostalCode":"6017","AdditionalData":[{"value":"Norge","key":"CountryName"},{"value":"Møre og Romsdal","key":"StateName"},{"value":"Ålesund","key":"CountyName"}]},"MapReference":{"ReferenceId":"1151061688","Spot":1.0,"SideOfStreet":"left","CountryId":"20418433","StateId":"20484692","CountyId":"20484693","CityId":"20486354"}}},{"Relevance":1.0,"Distance":51.4,"MatchLevel":"street","MatchQuality":{"Country":1.0,"State":1.0,"County":1.0,"City":1.0,"PostalCode":1.0},"Location":{"LocationId":"NT_BguFmHrvTdplHtMFv31NQA_l_1151061693_L","LocationType":"point","DisplayPosition":{"Latitude":62.46423,"Longitude":6.3105},"MapView":{"TopLeft":{"Latitude":62.46425,"Longitude":6.31015},"BottomRight":{"Latitude":62.46423,"Longitude":6.3105}},"Address":{"Label":"6017 Åse, Norge","Country":"NOR","State":"Møre og Romsdal","County":"Ålesund","City":"Åse","PostalCode":"6017","AdditionalData":[{"value":"Norge","key":"CountryName"},{"value":"Møre og Romsdal","key":"StateName"},{"value":"Ålesund","key":"CountyName"}]},"MapReference":{"ReferenceId":"1151061693","Spot":0.0,"SideOfStreet":"left","CountryId":"20418433","StateId":"20484692","CountyId":"20484693","CityId":"20486354"}}},{"Relevance":1.0,"Distance":51.4,"MatchLevel":"street","MatchQuality":{"Country":1.0,"State":1.0,"County":1.0,"City":1.0,"PostalCode":1.0},"Location":{"LocationId":"NT_BguFmHrvTdplHtMFv31NQA_l_1151061695_R","LocationType":"point","DisplayPosition":{"Latitude":62.46423,"Longitude":6.3105},"MapView":{"TopLeft":{"Latitude":62.46423,"Longitude":6.31048},"BottomRight":{"Latitude":62.46417,"Longitude":6.3105}},"Address":{"Label":"6017 Åse, Norge","Country":"NOR","State":"Møre og Romsdal","County":"Ålesund","City":"Åse","PostalCode":"6017","AdditionalData":[{"value":"Norge","key":"CountryName"},{"value":"Møre og Romsdal","key":"StateName"},{"value":"Ålesund","key":"CountyName"}]},"MapReference":{"ReferenceId":"1151061695","Spot":1.0,"SideOfStreet":"right","CountryId":"20418433","StateId":"20484692","CountyId":"20484693","CityId":"20486354"}}},{"Relevance":1.0,"Distance":52.5,"MatchLevel":"street","MatchQuality":{"Country":1.0,"State":1.0,"County":1.0,"City":1.0,"PostalCode":1.0},"Location":{"LocationId":"NT_BguFmHrvTdplHtMFv31NQA_l_1151061691_L","LocationType":"point","DisplayPosition":{"Latitude":62.4644,"Longitude":6.31079},"MapView":{"TopLeft":{"Latitude":62.46441,"Longitude":6.31049},"BottomRight":{"Latitude":62.4644,"Longitude":6.31079}},"Address":{"Label":"6017 Åse, Norge","Country":"NOR","State":"Møre og Romsdal","County":"Ålesund","City":"Åse","PostalCode":"6017","AdditionalData":[{"value":"Norge","key":"CountryName"},{"value":"Møre og Romsdal","key":"StateName"},{"value":"Ålesund","key":"CountyName"}]},"MapReference":{"ReferenceId":"1151061691","Spot":0.0,"SideOfStreet":"left","CountryId":"20418433","StateId":"20484692","CountyId":"20484693","CityId":"20486354"}}},{"Relevance":1.0,"Distance":52.5,"MatchLevel":"street","MatchQuality":{"Country":1.0,"State":1.0,"County":1.0,"City":1.0,"PostalCode":1.0},"Location":{"LocationId":"NT_BguFmHrvTdplHtMFv31NQA_l_1151061692_R","LocationType":"point","DisplayPosition":{"Latitude":62.4644,"Longitude":6.31079},"MapView":{"TopLeft":{"Latitude":62.4644,"Longitude":6.3105},"BottomRight":{"Latitude":62.46423,"Longitude":6.31079}},"Address":{"Label":"6017 Åse, Norge","Country":"NOR","State":"Møre og Romsdal","County":"Ålesund","City":"Åse","PostalCode":"6017","AdditionalData":[{"value":"Norge","key":"CountryName"},{"value":"Møre og Romsdal","key":"StateName"},{"value":"Ålesund","key":"CountyName"}]},"MapReference":{"ReferenceId":"1151061692","Spot":1.0,"SideOfStreet":"right","CountryId":"20418433","StateId":"20484692","CountyId":"20484693","CityId":"20486354"}}},{"Relevance":1.0,"Distance":53.1,"MatchLevel":"street","MatchQuality":{"Country":1.0,"State":1.0,"County":1.0,"City":1.0,"Street":[1.0],"PostalCode":1.0},"Location":{"LocationId":"NT_EQ8EzL0xnYKek4ENCD54NC_l_1151049100_R","LocationType":"point","DisplayPosition":{"Latitude":62.46449,"Longitude":6.31153},"MapView":{"TopLeft":{"Latitude":62.46457,"Longitude":6.31153},"BottomRight":{"Latitude":62.46449,"Longitude":6.31183}},"Address":{"Label":"Åsesvingen, 6017 Åse, Norge","Country":"NOR","State":"Møre og Romsdal","County":"Ålesund","City":"Åse","Street":"Åsesvingen","PostalCode":"6017","AdditionalData":[{"value":"Norge","key":"CountryName"},{"value":"Møre og Romsdal","key":"StateName"},{"value":"Ålesund","key":"CountyName"}]},"MapReference":{"ReferenceId":"1151049100","Spot":0.0,"SideOfStreet":"right","CountryId":"20418433","StateId":"20484692","CountyId":"20484693","CityId":"20486354"}}},{"Relevance":1.0,"Distance":53.8,"MatchLevel":"street","MatchQuality":{"Country":1.0,"State":1.0,"County":1.0,"City":1.0,"Street":[1.0],"PostalCode":1.0},"Location":{"LocationId":"NT_EQ8EzL0xnYKek4ENCD54NC_l_1151061686_L","LocationType":"point","DisplayPosition":{"Latitude":62.4644981,"Longitude":6.3114937},"MapView":{"TopLeft":{"Latitude":62.4646,"Longitude":6.31133},"BottomRight":{"Latitude":62.46449,"Longitude":6.31153}},"Address":{"Label":"Åsesvingen, 6017 Åse, Norge","Country":"NOR","State":"Møre og Romsdal","County":"Ålesund","City":"Åse","Street":"Åsesvingen","PostalCode":"6017","AdditionalData":[{"value":"Norge","key":"CountryName"},{"value":"Møre og Romsdal","key":"StateName"},{"value":"Ålesund","key":"CountyName"}]},"MapReference":{"ReferenceId":"1151061686","Spot":0.16,"SideOfStreet":"left","CountryId":"20418433","StateId":"20484692","CountyId":"20484693","CityId":"20486354"}}},{"Relevance":1.0,"Distance":59.9,"MatchLevel":"street","MatchQuality":{"Country":1.0,"State":1.0,"County":1.0,"City":1.0,"PostalCode":1.0},"Location":{"LocationId":"NT_BguFmHrvTdplHtMFv31NQA_l_1151061690_R","LocationType":"point","DisplayPosition":{"Latitude":62.4645482,"Longitude":6.31119},"MapView":{"TopLeft":{"Latitude":62.4646,"Longitude":6.31079},"BottomRight":{"Latitude":62.4644,"Longitude":6.31133}},"Address":{"Label":"6017 Åse, Norge","Country":"NOR","State":"Møre og Romsdal","County":"Ålesund","City":"Åse","PostalCode":"6017","AdditionalData":[{"value":"Norge","key":"CountryName"},{"value":"Møre og Romsdal","key":"StateName"},{"value":"Ålesund","key":"CountyName"}]},"MapReference":{"ReferenceId":"1151061690","Spot":0.74,"SideOfStreet":"right","CountryId":"20418433","StateId":"20484692","CountyId":"20484693","CityId":"20486354"}}}]}]}}