{"Response":{"MetaInfo":{"Timestamp":"2020-03-28T11:06:57.199+0000","NextPageInformation":"2"},"View":[{"_type":"SearchResultsViewType","ViewId":0,"Result":[{"Relevance":1.0,"Distance":0.0,"Direction":0.0,"MatchLevel":"district","MatchQuality":{"Country":1.0,"State":1.0,"County":1.0,"City":1.0,"District":1.0,"PostalCode":1.0},"Location":{"LocationId":"NT_2l0rdn6tBGuufE1J0oKyfC","LocationType":"point","DisplayPosition":{"Latitude":62.5912666,"Longitude":29.7824768},"MapView":{"TopLeft":{"Latitude":62.63953,"Longitude":29.63861},"BottomRight":{"Latitude":62.57543,"Longitude":29.88773}},"Address":{"Label":"Joensuu, Itä-Suomi, Suomi","Country":"FIN","State":"Itä-Suomi","County":"Pohjois-Karjala","City":"Joensuu","District":"Joensuu","PostalCode":"80100","AdditionalData":[{"value":"Suomi","key":"CountryName"},{"value":"Itä-Suomi","key":"StateName"},{"value":"Pohjois-Karjala","key":"CountyName"}]},"MapReference":{"ReferenceId":"1026436069","SideOfStreet":"neither","CountryId":"20241487","StateId":"20505101","CountyId":"20505176","CityId":"20505185","DistrictId":"20645177"}}},{"Relevance":1.0,"Distance":5.3,"MatchLevel":"landmark","MatchQuality":{"Country":1.0,"State":1.0,"County":1.0,"City":1.0,"District":1.0,"PostalCode":1.0,"Name":1.0},"Location":{"LocationId":"NT_dQq3rcyJw7jUtWiV9b2pMA_p_8y.H2jbNUs92OnHXwwUuXC","LocationType":"hospital","Name":"Pohjois-Karjalan keskussairaala","DisplayPosition":{"Latitude":62.59172,"Longitude":29.77918},"MapView":{"TopLeft":{"Latitude":62.59301,"Longitude":29.7744},"BottomRight":{"Latitude":62.5886,"Longitude":29.78373}},"Address":{"Label":"FI-80200 Joensuu, Suomi","Country":"FIN","State":"Itä-Suomi","County":"Pohjois-Karjala","City":"Joensuu","District":"Joensuu","PostalCode":"80200","AdditionalData":[{"value":"Suomi","key":"CountryName"},{"value":"Itä-Suomi","key":"StateName"},{"value":"Pohjois-Karjala","key":"CountyName"}]},"MapReference":{"CountryId":"20241487","StateId":"20505101","CountyId":"20505176","CityId":"20505185","DistrictId":"20645177","PlaceId":"554697130"}}},{"Relevance":1.0,"Distance":5.3,"MatchLevel":"street","MatchQuality":{"Country":1.0,"State":1.0,"County":1.0,"City":1.0,"District":1.0,"Street":[1.0],"PostalCode":1.0},"Location":{"LocationId":"NT_ZWWspbWhURyZP2kR3KQi9B_l_1026609801_R","LocationType":"point","DisplayPosition":{"Latitude":62.59123,"Longitude":29.78241},"MapView":{"TopLeft":{"Latitude":62.59133,"Longitude":29.78233},"BottomRight":{"Latitude":62.59123,"Longitude":29.78241}},"Address":{"Label":"Tikkamäentie, FI-80200 Joensuu, Suomi","Country":"FIN","State":"Itä-Suomi","County":"Pohjois-Karjala","City":"Joensuu","District":"Joensuu","Street":"Tikkamäentie","PostalCode":"80200","AdditionalData":[{"value":"Suomi","key":"CountryName"},{"value":"Itä-Suomi","key":"StateName"},{"value":"Pohjois-Karjala","key":"CountyName"}]},"MapReference":{"ReferenceId":"1026609801","Spot":0.0,"SideOfStreet":"right","CountryId":"20241487","StateId":"20505101","CountyId":"20505176","CityId":"20505185","DistrictId":"20645177"}}},{"Relevance":1.0,"Distance":9.1,"MatchLevel":"houseNumber","MatchQuality":{"Country":1.0,"State":1.0,"County":1.0,"City":1.0,"District":1.0,"Street":[1.0],"HouseNumber":1.0,"PostalCode":1.0},"MatchType":"interpolated","Location":{"LocationId":"NT_umrBtFeU1EWBJMxqF5PTvD_l_1026609800_R_xA","LocationType":"point","DisplayPosition":{"Latitude":62.591103,"Longitude":29.782507},"MapView":{"TopLeft":{"Latitude":62.5922271,"Longitude":29.780065},"BottomRight":{"Latitude":62.5899788,"Longitude":29.784949}},"Address":{"Label":"Suvikatu 1, FI-80200 Joensuu, Suomi","Country":"FIN","State":"Itä-Suomi","County":"Pohjois-Karjala","City":"Joensuu","District":"Joensuu","Street":"Suvikatu","HouseNumber":"1","PostalCode":"80200","AdditionalData":[{"value":"Suomi","key":"CountryName"},{"value":"Itä-Suomi","key":"StateName"},{"value":"Pohjois-Karjala","key":"CountyName"}]},"MapReference":{"ReferenceId":"1026609800","Spot":0.54,"SideOfStreet":"right","CountryId":"20241487","StateId":"20505101","CountyId":"20505176","CityId":"20505185","DistrictId":"20645177"}}},{"Relevance":1.0,"Distance":10.3,"MatchLevel":"street","MatchQuality":{"Country":1.0,"State":1.0,"County":1.0,"City":1.0,"District":1.0,"Street":[1.0],"PostalCode":1.0},"Location":{"LocationId":"NT_ZWWspbWhURyZP2kR3KQi9B_l_1176347102_R","LocationType":"point","DisplayPosition":{"Latitude":62.59133,"Longitude":29.78233},"MapView":{"TopLeft":{"Latitude":62.59146,"Longitude":29.78223},"BottomRight":{"Latitude":62.59133,"Longitude":29.78233}},"Address":{"Label":"Tikkamäentie, FI-80200 Joensuu, Suomi","Country":"FIN","State":"Itä-Suomi","County":"Pohjois-Karjala","City":"Joensuu","District":"Joensuu","Street":"Tikkamäentie","PostalCode":"80200","AdditionalData":[{"value":"Suomi","key":"CountryName"},{"value":"Itä-Suomi","key":"StateName"},{"value":"Pohjois-Karjala","key":"CountyName"}]},"MapReference":{"ReferenceId":"1176347102","Spot":0.0,"SideOfStreet":"right","CountryId":"20241487","StateId":"20505101","CountyId":"20505176","CityId":"20505185","DistrictId":"20645177"}}},{"Relevance":1.0,"Distance":26.8,"MatchLevel":"houseNumber","MatchQuality":{"Country":1.0,"State":1.0,"County":1.0,"City":1.0,"District":1.0,"Street":[1.0],"HouseNumber":1.0,"PostalCode":1.0},"MatchType":"interpolated","Location":{"LocationId":"NT_ZWWspbWhURyZP2kR3KQi9B_xYD","LocationType":"point","DisplayPosition":{"Latitude":62.59109,"Longitude":29.78212},"MapView":{"TopLeft":{"Latitude":62.5922142,"Longitude":29.779678},"BottomRight":{"Latitude":62.5899658,"Longitude":29.784562}},"Address":{"Label":"Tikkamäentie 16, FI-80200 Joensuu, Suomi","Country":"FIN","State":"Itä-Suomi","County":"Pohjois-Karjala","City":"Joensuu","District":"Joensuu","Street":"Tikkamäentie","HouseNumber":"16","PostalCode":"80200","AdditionalData":[{"value":"Suomi","key":"CountryName"},{"value":"Itä-Suomi","key":"StateName"},{"value":"Pohjois-Karjala","key":"CountyName"}]},"MapReference":{"ReferenceId":"581483782","Spot":0.69,"SideOfStreet":"left","CountryId":"20241487","StateId":"20505101","CountyId":"20505176","CityId":"20505185","DistrictId":"20645177","AddressId":"263016349","RoadLinkId":"483956669"}}},{"Relevance":1.0,"Distance":43.4,"MatchLevel":"houseNumber","MatchQuality":{"Country":1.0,"State":1.0,"County":1.0,"City":1.0,"District":1.0,"Street":[1.0],"HouseNumber":1.0,"PostalCode":1.0},"MatchType":"interpolated","Location":{"LocationId":"NT_umrBtFeU1EWBJMxqF5PTvD_yA","LocationType":"point","DisplayPosition":{"Latitude":62.5909,"Longitude":29.78277},"MapView":{"TopLeft":{"Latitude":62.5920242,"Longitude":29.780328},"BottomRight":{"Latitude":62.5897758,"Longitude":29.785212}},"Address":{"Label":"Suvikatu 2, FI-80200 Joensuu, Suomi","Country":"FIN","State":"Itä-Suomi","County":"Pohjois-Karjala","City":"Joensuu","District":"Joensuu","Street":"Suvikatu","HouseNumber":"2","PostalCode":"80200","AdditionalData":[{"value":"Suomi","key":"CountryName"},{"value":"Itä-Suomi","key":"StateName"},{"value":"Pohjois-Karjala","key":"CountyName"}]},"MapReference":{"ReferenceId":"1026609799","Spot":0.09,"SideOfStreet":"left","CountryId":"20241487","StateId":"20505101","CountyId":"20505176","CityId":"20505185","DistrictId":"20645177","AddressId":"263022876","RoadLinkId":"349572440"}}},{"Relevance":1.0,"Distance":47.7,"MatchLevel":"houseNumber","MatchQuality":{"Country":1.0,"State":1.0,"County":1.0,"City":1.0,"District":1.0,"Street":[1.0],"HouseNumber":1.0,"PostalCode":1.0},"MatchType":"interpolated","Location":{"LocationId":"NT_aOKk-UGcZriUQdJdwRTQcB_5A","LocationType":"point","DisplayPosition":{"Latitude":62.59116,"Longitude":29.78338},"MapView":{"TopLeft":{"Latitude":62.5922842,"Longitude":29.780938},"BottomRight":{"Latitude":62.5900358,"Longitude":29.785822}},"Address":{"Label":"Mustolankatu 9, FI-80200 Joensuu, Suomi","Country":"FIN","State":"Itä-Suomi","County":"Pohjois-Karjala","City":"Joensuu","District":"Joensuu","Street":"Mustolankatu","HouseNumber":"9","PostalCode":"80200","AdditionalData":[{"value":"Suomi","key":"CountryName"},{"value":"Itä-Suomi","key":"StateName"},{"value":"Pohjois-Karjala","key":"CountyName"}]},"MapReference":{"ReferenceId":"582815424","Spot":0.57,"SideOfStreet":"right","CountryId":"20241487","StateId":"20505101","CountyId":"20505176","CityId":"20505185","DistrictId":"20645177","AddressId":"263016348","RoadLinkId":"80373115"}}},{"Relevance":1.0,"Distance":69.1,"MatchLevel":"houseNumber","MatchQuality":{"Country":1.0,"State":1.0,"County":1.0,"City":1.0,"District":1.0,"Street":[1.0],"HouseNumber":1.0,"PostalCode":1.0},"MatchType":"interpolated","Location":{"LocationId":"NT_umrBtFeU1EWBJMxqF5PTvD_zA","LocationType":"point","DisplayPosition":{"Latitude":62.59072,"Longitude":29.78312},"MapView":{"TopLeft":{"Latitude":62.5918442,"Longitude":29.780678},"BottomRight":{"Latitude":62.5895958,"Longitude":29.785562}},"Address":{"Label":"Suvikatu 3, FI-80200 Joensuu, Suomi","Country":"FIN","State":"Itä-Suomi","County":"Pohjois-Karjala","City":"Joensuu","District":"Joensuu","Street":"Suvikatu","HouseNumber":"3","PostalCode":"80200","AdditionalData":[{"value":"Suomi","key":"CountryName"},{"value":"Itä-Suomi","key":"StateName"},{"value":"Pohjois-Karjala","key":"CountyName"}]},"MapReference":{"ReferenceId":"1026605372","Spot":0.8,"SideOfStreet":"right","CountryId":"20241487","StateId":"20505101","CountyId":"20505176","CityId":"20505185","DistrictId":"20645177","AddressId":"263016285","RoadLinkId":"349569946"}}},{"Relevance":1.0,"Distance":95.3,"MatchLevel":"houseNumber","MatchQuality":{"Country":1.0,"State":1.0,"County":1.0,"City":1.0,"District":1.0,"Street":[1.0],"HouseNumber":1.0,"PostalCode":1.0},"MatchType":"interpolated","Location":{"LocationId":"NT_9MKuzylAyTfMOVVuMHUkuC_xAD","LocationType":"point","DisplayPosition":{"Latitude":62.59196,"Longitude":29.78357},"MapView":{"TopLeft":{"Latitude":62.5930842,"Longitude":29.7811279},"BottomRight":{"Latitude":62.5908358,"Longitude":29.7860121}},"Address":{"Label":"Rinnekatu 10, FI-80200 Joensuu, Suomi","Country":"FIN","State":"Itä-Suomi","County":"Pohjois-Karjala","City":"Joensuu","District":"Joensuu","Street":"Rinnekatu","HouseNumber":"10","PostalCode":"80200","AdditionalData":[{"value":"Suomi","key":"CountryName"},{"value":"Itä-Suomi","key":"StateName"},{"value":"Pohjois-Karjala","key":"CountyName"}]},"MapReference":{"ReferenceId":"581483627","Spot":0.37,"SideOfStreet":"left","CountryId":"20241487","StateId":"20505101","CountyId":"20505176","CityId":"20505185","DistrictId":"20645177","AddressId":"263022729","RoadLinkId":"80442927"}}}]}]}}