{"Response":{"MetaInfo":{"Timestamp":"2020-03-28T11:06:42.360+0000","NextPageInformation":"2"},"View":[{"_type":"SearchResultsViewType","ViewId":0,"Result":[{"Relevance":1.0,"Distance":0.0,"Direction":0.0,"MatchLevel":"district","MatchQuality":{"Country":1.0,"State":1.0,"County":1.0,"City":1.0,"District":1.0,"PostalCode":1.0},"Location":{"LocationId":"NT_a3P2089SfIHG2i6kdYlxiA","LocationType":"point","DisplayPosition":{"Latitude":62.807277,"Longitude":23.5052931},"MapView":{"TopLeft":{"Latitude":62.81516,"Longitude":23.49294},"BottomRight":{"Latitude":62.79842,"Longitude":23.52848}},"Address":{"Label":"Kuortane, Länsi- ja Sisä-Suomi, Suomi","Country":"FIN","State":"Länsi- ja Sisä-Suomi","County":"Etelä-Pohjanmaa","City":"Kuortane","District":"Kuortane","PostalCode":"63100","AdditionalData":[{"value":"Suomi","key":"CountryName"},{"value":"Länsi- ja Sisä-Suomi","key":"StateName"},{"value":"Etelä-Pohjanmaa","key":"CountyName"}]},"MapReference":{"ReferenceId":"841410354","SideOfStreet":"neither","CountryId":"20241487","StateId":"23795371","CountyId":"20504532","CityId":"20504586","DistrictId":"20631084"}}},{"Relevance":1.0,"Distance":21.7,"MatchLevel":"houseNumber","MatchQuality":{"Country":1.0,"State":1.0,"County":1.0,"City":1.0,"District":1.0,"Street":[1.0],"HouseNumber":1.0,"PostalCode":1.0},"MatchType":"interpolated","Location":{"LocationId":"NT_BZjLkUC2YtC3SbY762PPpC_1cD","LocationType":"point","DisplayPosition":{"Latitude":62.80723,"Longitude":23.5057},"MapView":{"TopLeft":{"Latitude":62.8083542,"Longitude":23.5032401},"BottomRight":{"Latitude":62.8061058,"Longitude":23.5081599}},"Address":{"Label":"Keskustie 57, FI-63100 Kuortane, Suomi","Country":"FIN","State":"Länsi- ja Sisä-Suomi","County":"Etelä-Pohjanmaa","City":"Kuortane","District":"Kuortane","Street":"Keskustie","HouseNumber":"57","PostalCode":"63100","AdditionalData":[{"value":"Suomi","key":"CountryName"},{"value":"Länsi- ja Sisä-Suomi","key":"StateName"},{"value":"Etelä-Pohjanmaa","key":"CountyName"}]},"MapReference":{"ReferenceId":"580146042","Spot":0.02,"SideOfStreet":"left","CountryId":"20241487","StateId":"23795371","CountyId":"20504532","CityId":"20504586","DistrictId":"20631084","AddressId":"622443803","RoadLinkId":"97362895"}}},{"Relevance":1.0,"Distance":34.3,"MatchLevel":"houseNumber","MatchQuality":{"Country":1.0,"State":1.0,"County":1.0,"City":1.0,"District":1.0,"Street":[1.0],"HouseNumber":1.0,"PostalCode":1.0},"MatchType":"interpolated","Location":{"LocationId":"NT_blmCCCQ49yyhKvXYTSlgJA_l_580146077_L_0A","LocationType":"point","DisplayPosition":{"Latitude":62.80688,"Longitude":23.50494},"MapView":{"TopLeft":{"Latitude":62.8080042,"Longitude":23.5024801},"BottomRight":{"Latitude":62.8057558,"Longitude":23.5073999}},"Address":{"Label":"Laksontie 4, FI-63100 Kuortane, Suomi","Country":"FIN","State":"Länsi- ja Sisä-Suomi","County":"Etelä-Pohjanmaa","City":"Kuortane","District":"Kuortane","Street":"Laksontie","HouseNumber":"4","PostalCode":"63100","AdditionalData":[{"value":"Suomi","key":"CountryName"},{"value":"Länsi- ja Sisä-Suomi","key":"StateName"},{"value":"Etelä-Pohjanmaa","key":"CountyName"}]},"MapReference":{"ReferenceId":"580146077","Spot":0.13,"SideOfStreet":"left","CountryId":"20241487","StateId":"23795371","CountyId":"20504532","CityId":"20504586","DistrictId":"20631084"}}},{"Relevance":1.0,"Distance":35.3,"MatchLevel":"houseNumber","MatchQuality":{"Country":1.0,"State":1.0,"County":1.0,"City":1.0,"District":1.0,"Street":[1.0],"HouseNumber":1.0,"PostalCode":1.0},"MatchType":"interpolated","Location":{"LocationId":"NT_blmCCCQ49yyhKvXYTSlgJA_2A","LocationType":"point","DisplayPosition":{"Latitude":62.80726,"Longitude":23.5046},"MapView":{"TopLeft":{"Latitude":62.8083842,"Longitude":23.5021401},"BottomRight":{"Latitude":62.8061358,"Longitude":23.5070599}},"Address":{"Label":"Laksontie 6, FI-63100 Kuortane, Suomi","Country":"FIN","State":"Länsi- ja Sisä-Suomi","County":"Etelä-Pohjanmaa","City":"Kuortane","District":"Kuortane","Street":"Laksontie","HouseNumber":"6","PostalCode":"63100","AdditionalData":[{"value":"Suomi","key":"CountryName"},{"value":"Länsi- ja Sisä-Suomi","key":"StateName"},{"value":"Etelä-Pohjanmaa","key":"CountyName"}]},"MapReference":{"ReferenceId":"580146078","Spot":1.0,"SideOfStreet":"left","CountryId":"20241487","StateId":"23795371","CountyId":"20504532","CityId":"20504586","DistrictId":"20631084","AddressId":"263922341","RoadLinkId":"96975195"}}},{"Relevance":1.0,"Distance":46.5,"MatchLevel":"houseNumber","MatchQuality":{"Country":1.0,"State":1.0,"County":1.0,"City":1.0,"District":1.0,"Street":[1.0],"HouseNumber":1.0,"PostalCode":1.0},"MatchType":"interpolated","Location":{"LocationId":"NT_BZjLkUC2YtC3SbY762PPpC_1kD","LocationType":"point","DisplayPosition":{"Latitude":62.80768,"Longitude":23.50648},"MapView":{"TopLeft":{"Latitude":62.8088042,"Longitude":23.50402},"BottomRight":{"Latitude":62.8065558,"Longitude":23.50894}},"Address":{"Label":"Keskustie 59, FI-63100 Kuortane, Suomi","Country":"FIN","State":"Länsi- ja Sisä-Suomi","County":"Etelä-Pohjanmaa","City":"Kuortane","District":"Kuortane","Street":"Keskustie","HouseNumber":"59","PostalCode":"63100","AdditionalData":[{"value":"Suomi","key":"CountryName"},{"value":"Länsi- ja Sisä-Suomi","key":"StateName"},{"value":"Etelä-Pohjanmaa","key":"CountyName"}]},"MapReference":{"ReferenceId":"1022829110","Spot":1.0,"SideOfStreet":"left","CountryId":"20241487","StateId":"23795371","CountyId":"20504532","CityId":"20504586","DistrictId":"20631084","AddressId":"532603505","RoadLinkId":"347459015"}}},{"Relevance":1.0,"Distance":65.7,"MatchLevel":"houseNumber","MatchQuality":{"Country":1.0,"State":1.0,"County":1.0,"City":1.0,"District":1.0,"Street":[1.0],"HouseNumber":1.0,"PostalCode":1.0},"MatchType":"interpolated","Location":{"LocationId":"NT_blmCCCQ49yyhKvXYTSlgJA_l_580146080_L_2A","LocationType":"point","DisplayPosition":{"Latitude":62.8068653,"Longitude":23.5041535},"MapView":{"TopLeft":{"Latitude":62.8079895,"Longitude":23.5016936},"BottomRight":{"Latitude":62.8057412,"Longitude":23.5066134}},"Address":{"Label":"Laksontie 6, FI-63100 Kuortane, Suomi","Country":"FIN","State":"Länsi- ja Sisä-Suomi","County":"Etelä-Pohjanmaa","City":"Kuortane","District":"Kuortane","Street":"Laksontie","HouseNumber":"6","PostalCode":"63100","AdditionalData":[{"value":"Suomi","key":"CountryName"},{"value":"Länsi- ja Sisä-Suomi","key":"StateName"},{"value":"Etelä-Pohjanmaa","key":"CountyName"}]},"MapReference":{"ReferenceId":"580146080","Spot":0.51,"SideOfStreet":"left","CountryId":"20241487","StateId":"23795371","CountyId":"20504532","CityId":"20504586","DistrictId":"20631084"}}},{"Relevance":1.0,"Distance":68.3,"MatchLevel":"houseNumber","MatchQuality":{"Country":1.0,"State":1.0,"County":1.0,"City":1.0,"District":1.0,"Street":[1.0],"HouseNumber":1.0,"PostalCode":1.0},"MatchType":"interpolated","Location":{"LocationId":"NT_ZBqaDv8yARh1.mEjvykZXA_zA","LocationType":"point","DisplayPosition":{"Latitude":62.8078,"Longitude":23.50398},"MapView":{"TopLeft":{"Latitude":62.8089242,"Longitude":23.50152},"BottomRight":{"Latitude":62.8066758,"Longitude":23.50644}},"Address":{"Label":"Elsilänkuja 3, FI-63100 Kuortane, Suomi","Country":"FIN","State":"Länsi- ja Sisä-Suomi","County":"Etelä-Pohjanmaa","City":"Kuortane","District":"Kuortane","Street":"Elsilänkuja","HouseNumber":"3","PostalCode":"63100","AdditionalData":[{"value":"Suomi","key":"CountryName"},{"value":"Länsi- ja Sisä-Suomi","key":"StateName"},{"value":"Etelä-Pohjanmaa","key":"CountyName"}]},"MapReference":{"ReferenceId":"580145975","Spot":0.72,"SideOfStreet":"left","CountryId":"20241487","StateId":"23795371","CountyId":"20504532","CityId":"20504586","DistrictId":"20631084","AddressId":"263922340","RoadLinkId":"96579083"}}},{"Relevance":1.0,"Distance":77.0,"MatchLevel":"street","MatchQuality":{"Country":1.0,"State":1.0,"County":1.0,"City":1.0,"District":1.0,"Street":[1.0],"PostalCode":1.0},"Location":{"LocationId":"NT_CrwHhmLK9ZI.MPahaGeAHA_l_1022829109_L","LocationType":"point","DisplayPosition":{"Latitude":62.80775,"Longitude":23.5064},"MapView":{"TopLeft":{"Latitude":62.80775,"Longitude":23.5064},"BottomRight":{"Latitude":62.80768,"Longitude":23.50648}},"Address":{"Label":"Keskustie, FI-63100 Kuortane, Suomi","Country":"FIN","State":"Länsi- ja Sisä-Suomi","County":"Etelä-Pohjanmaa","City":"Kuortane","District":"Kuortane","Street":"Keskustie","PostalCode":"63100","AdditionalData":[{"value":"Suomi","key":"CountryName"},{"value":"Länsi- ja Sisä-Suomi","key":"StateName"},{"value":"Etelä-Pohjanmaa","key":"CountyName"}]},"MapReference":{"ReferenceId":"1022829109","Spot":1.0,"SideOfStreet":"left","CountryId":"20241487","StateId":"23795371","CountyId":"20504532","CityId":"20504586","DistrictId":"20631084"}}},{"Relevance":1.0,"Distance":80.0,"MatchLevel":"street","MatchQuality":{"Country":1.0,"State":1.0,"County":1.0,"City":1.0,"District":1.0,"Street":[1.0],"PostalCode":1.0},"Location":{"LocationId":"NT_CrwHhmLK9ZI.MPahaGeAHA_l_1022829107_L","LocationType":"point","DisplayPosition":{"Latitude":62.80783,"Longitude":23.5063},"MapView":{"TopLeft":{"Latitude":62.80783,"Longitude":23.5063},"BottomRight":{"Latitude":62.80775,"Longitude":23.5064}},"Address":{"Label":"Keskustie, FI-63100 Kuortane, Suomi","Country":"FIN","State":"Länsi- ja Sisä-Suomi","County":"Etelä-Pohjanmaa","City":"Kuortane","District":"Kuortane","Street":"Keskustie","PostalCode":"63100","AdditionalData":[{"value":"Suomi","key":"CountryName"},{"value":"Länsi- ja Sisä-Suomi","key":"StateName"},{"value":"Etelä-Pohjanmaa","key":"CountyName"}]},"MapReference":{"ReferenceId":"1022829107","Spot":1.0,"SideOfStreet":"left","CountryId":"20241487","StateId":"23795371","CountyId":"20504532","CityId":"20504586","DistrictId":"20631084"}}},{"Relevance":1.0,"Distance":83.1,"MatchLevel":"street","MatchQuality":{"Country":1.0,"State":1.0,"County":1.0,"City":1.0,"District":1.0,"Street":[1.0],"PostalCode":1.0},"Location":{"LocationId":"NT_CrwHhmLK9ZI.MPahaGeAHA_l_1022829108_L","LocationType":"point","DisplayPosition":{"Latitude":62.80789,"Longitude":23.50623},"MapView":{"TopLeft":{"Latitude":62.80789,"Longitude":23.50623},"BottomRight":{"Latitude":62.80783,"Longitude":23.5063}},"Address":{"Label":"Keskustie, FI-63100 Kuortane, Suomi","Country":"FIN","State":"Länsi- ja Sisä-Suomi","County":"Etelä-Pohjanmaa","City":"Kuortane","District":"Kuortane","Street":"Keskustie","PostalCode":"63100","AdditionalData":[{"value":"Suomi","key":"CountryName"},{"value":"Länsi- ja Sisä-Suomi","key":"StateName"},{"value":"Etelä-Pohjanmaa","key":"CountyName"}]},"MapReference":{"ReferenceId":"1022829108","Spot":1.0,"SideOfStreet":"left","CountryId":"20241487","StateId":"23795371","CountyId":"20504532","CityId":"20504586","DistrictId":"20631084"}}}]}]}}