{"Response":{"MetaInfo":{"Timestamp":"2020-03-28T11:06:21.097+0000","NextPageInformation":"2"},"View":[{"_type":"SearchResultsViewType","ViewId":0,"Result":[{"Relevance":1.0,"Distance":0.0,"Direction":0.0,"MatchLevel":"district","MatchQuality":{"Country":1.0,"State":1.0,"County":1.0,"City":1.0,"District":1.0,"PostalCode":1.0},"Location":{"LocationId":"NT_K.YN3VSWFDVG.sHW1KcitB","LocationType":"point","DisplayPosition":{"Latitude":63.3668362,"Longitude":23.4709993},"MapView":{"TopLeft":{"Latitude":63.37988,"Longitude":23.44007},"BottomRight":{"Latitude":63.35925,"Longitude":23.48639}},"Address":{"Label":"Evijärvi, Länsi- ja Sisä-Suomi, Suomi","Country":"FIN","State":"Länsi- ja Sisä-Suomi","County":"Etelä-Pohjanmaa","City":"Evijärvi","District":"Evijärvi","PostalCode":"62510","AdditionalData":[{"value":"Suomi","key":"CountryName"},{"value":"Länsi- ja Sisä-Suomi","key":"StateName"},{"value":"Etelä-Pohjanmaa","key":"CountyName"}]},"MapReference":{"ReferenceId":"580250021","SideOfStreet":"neither","CountryId":"20241487","StateId":"23795371","CountyId":"20504532","CityId":"20504547","DistrictId":"20624232"}}},{"Relevance":1.0,"Distance":9.8,"MatchLevel":"houseNumber","MatchQuality":{"Country":1.0,"State":1.0,"County":1.0,"City":1.0,"District":1.0,"Street":[1.0],"HouseNumber":1.0,"PostalCode":1.0},"MatchType":"interpolated","Location":{"LocationId":"NT_bg8kFapJ8yT26JjKAjJcxD_0A","LocationType":"point","DisplayPosition":{"Latitude":63.36707,"Longitude":23.47176},"MapView":{"TopLeft":{"Latitude":63.3681942,"Longitude":23.4692523},"BottomRight":{"Latitude":63.3659458,"Longitude":23.4742677}},"Address":{"Label":"Antinniemi 4, FI-62500 Evijärvi, Suomi","Country":"FIN","State":"Länsi- ja Sisä-Suomi","County":"Etelä-Pohjanmaa","City":"Evijärvi","District":"Evijärvi","Street":"Antinniemi","HouseNumber":"4","PostalCode":"62500","AdditionalData":[{"value":"Suomi","key":"CountryName"},{"value":"Länsi- ja Sisä-Suomi","key":"StateName"},{"value":"Etelä-Pohjanmaa","key":"CountyName"}]},"MapReference":{"ReferenceId":"580096982","Spot":0.73,"SideOfStreet":"left","CountryId":"20241487","StateId":"23795371","CountyId":"20504532","CityId":"20504547","DistrictId":"20624232","AddressId":"263070047","RoadLinkId":"97166900"}}},{"Relevance":1.0,"Distance":51.2,"MatchLevel":"houseNumber","MatchQuality":{"Country":1.0,"State":1.0,"County":1.0,"City":1.0,"District":1.0,"Street":[1.0],"HouseNumber":1.0,"PostalCode":1.0},"MatchType":"interpolated","Location":{"LocationId":"NT_NR7SDkvK3wifs.F-cgUlfC_xkD","LocationType":"point","DisplayPosition":{"Latitude":63.36612,"Longitude":23.4711},"MapView":{"TopLeft":{"Latitude":63.3672442,"Longitude":23.4685923},"BottomRight":{"Latitude":63.3649958,"Longitude":23.4736077}},"Address":{"Label":"Kauppatie 19, FI-62500 Evijärvi, Suomi","Country":"FIN","State":"Länsi- ja Sisä-Suomi","County":"Etelä-Pohjanmaa","City":"Evijärvi","District":"Evijärvi","Street":"Kauppatie","HouseNumber":"19","PostalCode":"62500","AdditionalData":[{"value":"Suomi","key":"CountryName"},{"value":"Länsi- ja Sisä-Suomi","key":"StateName"},{"value":"Etelä-Pohjanmaa","key":"CountyName"}]},"MapReference":{"ReferenceId":"1157367980","Spot":0.63,"SideOfStreet":"left","CountryId":"20241487","StateId":"23795371","CountyId":"20504532","CityId":"20504547","DistrictId":"20624232","AddressId":"263067965","RoadLinkId":"463705516"}}},{"Relevance":1.0,"Distance":65.9,"MatchLevel":"landmark","MatchQuality":{"Country":1.0,"State":1.0,"County":1.0,"City":1.0,"PostalCode":1.0,"Name":1.0},"Location":{"LocationId":"NT_.0-Ei8icyCi86GFTYJz-EC","LocationType":"lake","Name":"Evijärvi","DisplayPosition":{"Latitude":63.41109,"Longitude":23.48318},"MapView":{"TopLeft":{"Latitude":63.45944,"Longitude":23.37874},"BottomRight":{"Latitude":63.36273,"Longitude":23.55463}},"Address":{"Label":"FI-62510 Evijärvi, Suomi","Country":"FIN","State":"Länsi- ja Sisä-Suomi","County":"Etelä-Pohjanmaa","City":"Evijärvi","PostalCode":"62510","AdditionalData":[{"value":"Suomi","key":"CountryName"},{"value":"Länsi- ja Sisä-Suomi","key":"StateName"},{"value":"Etelä-Pohjanmaa","key":"CountyName"}]},"MapReference":{"CountryId":"20241487","StateId":"23795371","CountyId":"20504532","CityId":"20504547","PlaceId":"554894162"}}},{"Relevance":1.0,"Distance":73.7,"MatchLevel":"houseNumber","MatchQuality":{"Country":1.0,"State":1.0,"County":1.0,"City":1.0,"District":1.0,"Street":[1.0],"HouseNumber":1.0,"PostalCode":1.0},"MatchType":"interpolated","Location":{"LocationId":"NT_NR7SDkvK3wifs.F-cgUlfC_xUD","LocationType":"point","DisplayPosition":{"Latitude":63.36639,"Longitude":23.47257},"MapView":{"TopLeft":{"Latitude":63.3675142,"Longitude":23.4700623},"BottomRight":{"Latitude":63.3652658,"Longitude":23.4750777}},"Address":{"Label":"Kauppatie 15, FI-62500 Evijärvi, Suomi","Country":"FIN","State":"Länsi- ja Sisä-Suomi","County":"Etelä-Pohjanmaa","City":"Evijärvi","District":"Evijärvi","Street":"Kauppatie","HouseNumber":"15","PostalCode":"62500","AdditionalData":[{"value":"Suomi","key":"CountryName"},{"value":"Länsi- ja Sisä-Suomi","key":"StateName"},{"value":"Etelä-Pohjanmaa","key":"CountyName"}]},"MapReference":{"ReferenceId":"1157367981","Spot":0.47,"SideOfStreet":"left","CountryId":"20241487","StateId":"23795371","CountyId":"20504532","CityId":"20504547","DistrictId":"20624232","AddressId":"622439908","RoadLinkId":"463705517"}}},{"Relevance":1.0,"Distance":82.5,"MatchLevel":"street","MatchQuality":{"Country":1.0,"State":1.0,"County":1.0,"City":1.0,"District":1.0,"Street":[1.0],"PostalCode":1.0},"Location":{"LocationId":"NT_u5SmbvFp8UPq544LHVT.JD_l_1157367982_L","LocationType":"point","DisplayPosition":{"Latitude":63.36633,"Longitude":23.47221},"MapView":{"TopLeft":{"Latitude":63.36633,"Longitude":23.47221},"BottomRight":{"Latitude":63.36575,"Longitude":23.47258}},"Address":{"Label":"Mäensyrjä, FI-62500 Evijärvi, Suomi","Country":"FIN","State":"Länsi- ja Sisä-Suomi","County":"Etelä-Pohjanmaa","City":"Evijärvi","District":"Evijärvi","Street":"Mäensyrjä","PostalCode":"62500","AdditionalData":[{"value":"Suomi","key":"CountryName"},{"value":"Länsi- ja Sisä-Suomi","key":"StateName"},{"value":"Etelä-Pohjanmaa","key":"CountyName"}]},"MapReference":{"ReferenceId":"1157367982","Spot":1.0,"SideOfStreet":"left","CountryId":"20241487","StateId":"23795371","CountyId":"20504532","CityId":"20504547","DistrictId":"20624232"}}},{"Relevance":1.0,"Distance":83.1,"MatchLevel":"houseNumber","MatchQuality":{"Country":1.0,"State":1.0,"County":1.0,"City":1.0,"District":1.0,"Street":[1.0],"HouseNumber":1.0,"PostalCode":1.0},"MatchType":"interpolated","Location":{"LocationId":"NT_bg8kFapJ8yT26JjKAjJcxD_4A","LocationType":"point","DisplayPosition":{"Latitude":63.36766,"Longitude":23.4713},"MapView":{"TopLeft":{"Latitude":63.3687842,"Longitude":23.4687922},"BottomRight":{"Latitude":63.3665358,"Longitude":23.4738078}},"Address":{"Label":"Antinniemi 8, FI-62500 Evijärvi, Suomi","Country":"FIN","State":"Länsi- ja Sisä-Suomi","County":"Etelä-Pohjanmaa","City":"Evijärvi","District":"Evijärvi","Street":"Antinniemi","HouseNumber":"8","PostalCode":"62500","AdditionalData":[{"value":"Suomi","key":"CountryName"},{"value":"Länsi- ja Sisä-Suomi","key":"StateName"},{"value":"Etelä-Pohjanmaa","key":"CountyName"}]},"MapReference":{"ReferenceId":"580096957","Spot":0.21,"SideOfStreet":"left","CountryId":"20241487","StateId":"23795371","CountyId":"20504532","CityId":"20504547","DistrictId":"20624232","AddressId":"263043836","RoadLinkId":"97328573"}}},{"Relevance":1.0,"Distance":89.4,"MatchLevel":"houseNumber","MatchQuality":{"Country":1.0,"State":1.0,"County":1.0,"City":1.0,"District":1.0,"Street":[1.0],"HouseNumber":1.0,"PostalCode":1.0},"MatchType":"interpolated","Location":{"LocationId":"NT_NR7SDkvK3wifs.F-cgUlfC_xMD","LocationType":"point","DisplayPosition":{"Latitude":63.36647,"Longitude":23.47298},"MapView":{"TopLeft":{"Latitude":63.3675942,"Longitude":23.4704723},"BottomRight":{"Latitude":63.3653458,"Longitude":23.4754877}},"Address":{"Label":"Kauppatie 13, FI-62500 Evijärvi, Suomi","Country":"FIN","State":"Länsi- ja Sisä-Suomi","County":"Etelä-Pohjanmaa","City":"Evijärvi","District":"Evijärvi","Street":"Kauppatie","HouseNumber":"13","PostalCode":"62500","AdditionalData":[{"value":"Suomi","key":"CountryName"},{"value":"Länsi- ja Sisä-Suomi","key":"StateName"},{"value":"Etelä-Pohjanmaa","key":"CountyName"}]},"MapReference":{"ReferenceId":"580096981","Spot":0.0,"SideOfStreet":"left","CountryId":"20241487","StateId":"23795371","CountyId":"20504532","CityId":"20504547","DistrictId":"20624232","AddressId":"263067961","RoadLinkId":"463705517"}}},{"Relevance":1.0,"Distance":119.8,"MatchLevel":"houseNumber","MatchQuality":{"Country":1.0,"State":1.0,"County":1.0,"City":1.0,"District":1.0,"Street":[1.0],"HouseNumber":1.0,"PostalCode":1.0},"MatchType":"interpolated","Location":{"LocationId":"NT_xp4z1dSXQIY57R28CGJjwB_yA","LocationType":"point","DisplayPosition":{"Latitude":63.36711,"Longitude":23.4746},"MapView":{"TopLeft":{"Latitude":63.3682342,"Longitude":23.4720923},"BottomRight":{"Latitude":63.3659858,"Longitude":23.4771077}},"Address":{"Label":"Laituritie 2, FI-62500 Evijärvi, Suomi","Country":"FIN","State":"Länsi- ja Sisä-Suomi","County":"Etelä-Pohjanmaa","City":"Evijärvi","District":"Evijärvi","Street":"Laituritie","HouseNumber":"2","PostalCode":"62500","AdditionalData":[{"value":"Suomi","key":"CountryName"},{"value":"Länsi- ja Sisä-Suomi","key":"StateName"},{"value":"Etelä-Pohjanmaa","key":"CountyName"}]},"MapReference":{"ReferenceId":"1038845599","Spot":0.33,"SideOfStreet":"left","CountryId":"20241487","StateId":"23795371","CountyId":"20504532","CityId":"20504547","DistrictId":"20624232","AddressId":"263043884","RoadLinkId":"360674103"}}},{"Relevance":1.0,"Distance":136.0,"MatchLevel":"houseNumber","MatchQuality":{"Country":1.0,"State":1.0,"County":1.0,"City":1.0,"District":1.0,"Street":[1.0],"HouseNumber":1.0,"PostalCode":1.0},"MatchType":"interpolated","Location":{"LocationId":"NT_1.tvX9BZd3cGWdXOe-Xl6D_zA","LocationType":"point","DisplayPosition":{"Latitude":63.3678,"Longitude":23.47268},"MapView":{"TopLeft":{"Latitude":63.3689242,"Longitude":23.4701722},"BottomRight":{"Latitude":63.3666758,"Longitude":23.4751878}},"Address":{"Label":"Puistopolku 3, FI-62500 Evijärvi, Suomi","Country":"FIN","State":"Länsi- ja Sisä-Suomi","County":"Etelä-Pohjanmaa","City":"Evijärvi","District":"Evijärvi","Street":"Puistopolku","HouseNumber":"3","PostalCode":"62500","AdditionalData":[{"value":"Suomi","key":"CountryName"},{"value":"Länsi- ja Sisä-Suomi","key":"StateName"},{"value":"Etelä-Pohjanmaa","key":"CountyName"}]},"MapReference":{"ReferenceId":"580096956","Spot":0.72,"SideOfStreet":"right","CountryId":"20241487","StateId":"23795371","CountyId":"20504532","CityId":"20504547","DistrictId":"20624232","AddressId":"263070068","RoadLinkId":"97654697"}}}]}]}}