{"Response":{"MetaInfo":{"Timestamp":"2020-03-28T09:48:16.313+0000","NextPageInformation":"2"},"View":[{"_type":"SearchResultsViewType","ViewId":0,"Result":[{"Relevance":1.0,"Distance":0.0,"Direction":0.0,"MatchLevel":"district","MatchQuality":{"Country":1.0,"State":1.0,"County":1.0,"City":1.0,"District":1.0,"PostalCode":1.0},"Location":{"LocationId":"NT_2cdZsqb-5refqox.GKQTJA","LocationType":"point","DisplayPosition":{"Latitude":63.4624454,"Longitude":24.1749101},"MapView":{"TopLeft":{"Latitude":63.46939,"Longitude":24.15969},"BottomRight":{"Latitude":63.45085,"Longitude":24.18474}},"Address":{"Label":"Halsua, Länsi- ja Sisä-Suomi, Suomi","Country":"FIN","State":"Länsi- ja Sisä-Suomi","County":"Keski-Pohjanmaa","City":"Halsua","District":"Halsua","PostalCode":"69510","AdditionalData":[{"value":"Suomi","key":"CountryName"},{"value":"Länsi- ja Sisä-Suomi","key":"StateName"},{"value":"Keski-Pohjanmaa","key":"CountyName"}]},"MapReference":{"ReferenceId":"583651010","SideOfStreet":"neither","CountryId":"20241487","StateId":"23795371","CountyId":"20504637","CityId":"20504638","DistrictId":"20641274"}}},{"Relevance":1.0,"Distance":32.7,"MatchLevel":"houseNumber","MatchQuality":{"Country":1.0,"State":1.0,"County":1.0,"City":1.0,"District":1.0,"Street":[1.0],"HouseNumber":1.0,"PostalCode":1.0},"MatchType":"interpolated","Location":{"LocationId":"NT_htE.Ig3PeSntjjC7GOvEBA_4A","LocationType":"point","DisplayPosition":{"Latitude":63.46292,"Longitude":24.17399},"MapView":{"TopLeft":{"Latitude":63.4640442,"Longitude":24.1714739},"BottomRight":{"Latitude":63.4617958,"Longitude":24.1765061}},"Address":{"Label":"Kauppisentie 8, FI-69510 Halsua, Suomi","Country":"FIN","State":"Länsi- ja Sisä-Suomi","County":"Keski-Pohjanmaa","City":"Halsua","District":"Halsua","Street":"Kauppisentie","HouseNumber":"8","PostalCode":"69510","AdditionalData":[{"value":"Suomi","key":"CountryName"},{"value":"Länsi- ja Sisä-Suomi","key":"StateName"},{"value":"Keski-Pohjanmaa","key":"CountyName"}]},"MapReference":{"ReferenceId":"583651269","Spot":0.64,"SideOfStreet":"right","CountryId":"20241487","StateId":"23795371","CountyId":"20504637","CityId":"20504638","DistrictId":"20641274","AddressId":"775022093","RoadLinkId":"97086388"}}},{"Relevance":1.0,"Distance":44.1,"MatchLevel":"houseNumber","MatchQuality":{"Country":1.0,"State":1.0,"County":1.0,"City":1.0,"District":1.0,"Street":[1.0],"HouseNumber":1.0,"PostalCode":1.0},"MatchType":"interpolated","Location":{"LocationId":"NT_htE.Ig3PeSntjjC7GOvEBA_xAD","LocationType":"point","DisplayPosition":{"Latitude":63.46307,"Longitude":24.17522},"MapView":{"TopLeft":{"Latitude":63.4641942,"Longitude":24.1727038},"BottomRight":{"Latitude":63.4619458,"Longitude":24.1777362}},"Address":{"Label":"Kauppisentie 10, FI-69510 Halsua, Suomi","Country":"FIN","State":"Länsi- ja Sisä-Suomi","County":"Keski-Pohjanmaa","City":"Halsua","District":"Halsua","Street":"Kauppisentie","HouseNumber":"10","PostalCode":"69510","AdditionalData":[{"value":"Suomi","key":"CountryName"},{"value":"Länsi- ja Sisä-Suomi","key":"StateName"},{"value":"Keski-Pohjanmaa","key":"CountyName"}]},"MapReference":{"ReferenceId":"1199248423","Spot":0.42,"SideOfStreet":"right","CountryId":"20241487","StateId":"23795371","CountyId":"20504637","CityId":"20504638","DistrictId":"20641274","AddressId":"802575106","RoadLinkId":"511039583"}}},{"Relevance":1.0,"Distance":65.5,"MatchLevel":"street","MatchQuality":{"Country":1.0,"State":1.0,"County":1.0,"City":1.0,"District":1.0,"Street":[1.0],"PostalCode":1.0},"Location":{"LocationId":"NT_htE.Ig3PeSntjjC7GOvEBA_l_583651247_R","LocationType":"point","DisplayPosition":{"Latitude":63.46299,"Longitude":24.17441},"MapView":{"TopLeft":{"Latitude":63.46337,"Longitude":24.17427},"BottomRight":{"Latitude":63.46296,"Longitude":24.17441}},"Address":{"Label":"Kauppisentie, FI-69510 Halsua, Suomi","Country":"FIN","State":"Länsi- ja Sisä-Suomi","County":"Keski-Pohjanmaa","City":"Halsua","District":"Halsua","Street":"Kauppisentie","PostalCode":"69510","AdditionalData":[{"value":"Suomi","key":"CountryName"},{"value":"Länsi- ja Sisä-Suomi","key":"StateName"},{"value":"Keski-Pohjanmaa","key":"CountyName"}]},"MapReference":{"ReferenceId":"583651247","Spot":0.11,"SideOfStreet":"right","CountryId":"20241487","StateId":"23795371","CountyId":"20504637","CityId":"20504638","DistrictId":"20641274"}}},{"Relevance":1.0,"Distance":69.2,"MatchLevel":"houseNumber","MatchQuality":{"Country":1.0,"State":1.0,"County":1.0,"City":1.0,"District":1.0,"Street":[1.0],"HouseNumber":1.0,"PostalCode":1.0},"MatchType":"interpolated","Location":{"LocationId":"NT_7GKJzSOJuH76pn4GiMtJiB_xA","LocationType":"point","DisplayPosition":{"Latitude":63.46178,"Longitude":24.17415},"MapView":{"TopLeft":{"Latitude":63.4629042,"Longitude":24.171634},"BottomRight":{"Latitude":63.4606558,"Longitude":24.176666}},"Address":{"Label":"Jokitie 1, FI-69510 Halsua, Suomi","Country":"FIN","State":"Länsi- ja Sisä-Suomi","County":"Keski-Pohjanmaa","City":"Halsua","District":"Halsua","Street":"Jokitie","HouseNumber":"1","PostalCode":"69510","AdditionalData":[{"value":"Suomi","key":"CountryName"},{"value":"Länsi- ja Sisä-Suomi","key":"StateName"},{"value":"Keski-Pohjanmaa","key":"CountyName"}]},"MapReference":{"ReferenceId":"1035906157","Spot":0.43,"SideOfStreet":"right","CountryId":"20241487","StateId":"23795371","CountyId":"20504637","CityId":"20504638","DistrictId":"20641274","AddressId":"622493290","RoadLinkId":"357819600"}}},{"Relevance":1.0,"Distance":87.1,"MatchLevel":"houseNumber","MatchQuality":{"Country":1.0,"State":1.0,"County":1.0,"City":1.0,"District":1.0,"Street":[1.0],"HouseNumber":1.0,"PostalCode":1.0},"MatchType":"interpolated","Location":{"LocationId":"NT_htE.Ig3PeSntjjC7GOvEBA_l_1035906160_R_2A","LocationType":"point","DisplayPosition":{"Latitude":63.4628035,"Longitude":24.1732021},"MapView":{"TopLeft":{"Latitude":63.4639277,"Longitude":24.170686},"BottomRight":{"Latitude":63.4616794,"Longitude":24.1757183}},"Address":{"Label":"Kauppisentie 6, FI-69510 Halsua, Suomi","Country":"FIN","State":"Länsi- ja Sisä-Suomi","County":"Keski-Pohjanmaa","City":"Halsua","District":"Halsua","Street":"Kauppisentie","HouseNumber":"6","PostalCode":"69510","AdditionalData":[{"value":"Suomi","key":"CountryName"},{"value":"Länsi- ja Sisä-Suomi","key":"StateName"},{"value":"Keski-Pohjanmaa","key":"CountyName"}]},"MapReference":{"ReferenceId":"1035906160","Spot":0.56,"SideOfStreet":"right","CountryId":"20241487","StateId":"23795371","CountyId":"20504637","CityId":"20504638","DistrictId":"20641274"}}},{"Relevance":1.0,"Distance":92.7,"MatchLevel":"houseNumber","MatchQuality":{"Country":1.0,"State":1.0,"County":1.0,"City":1.0,"District":1.0,"Street":[1.0],"HouseNumber":1.0,"PostalCode":1.0},"MatchType":"interpolated","Location":{"LocationId":"NT_7GKJzSOJuH76pn4GiMtJiB_1A","LocationType":"point","DisplayPosition":{"Latitude":63.46218,"Longitude":24.17668},"MapView":{"TopLeft":{"Latitude":63.4633042,"Longitude":24.1741639},"BottomRight":{"Latitude":63.4610558,"Longitude":24.1791961}},"Address":{"Label":"Jokitie 5, FI-69510 Halsua, Suomi","Country":"FIN","State":"Länsi- ja Sisä-Suomi","County":"Keski-Pohjanmaa","City":"Halsua","District":"Halsua","Street":"Jokitie","HouseNumber":"5","PostalCode":"69510","AdditionalData":[{"value":"Suomi","key":"CountryName"},{"value":"Länsi- ja Sisä-Suomi","key":"StateName"},{"value":"Keski-Pohjanmaa","key":"CountyName"}]},"MapReference":{"ReferenceId":"1035906158","Spot":1.0,"SideOfStreet":"left","CountryId":"20241487","StateId":"23795371","CountyId":"20504637","CityId":"20504638","DistrictId":"20641274","AddressId":"673690977","RoadLinkId":"357819601"}}},{"Relevance":1.0,"Distance":92.7,"MatchLevel":"street","MatchQuality":{"Country":1.0,"State":1.0,"County":1.0,"City":1.0,"District":1.0,"PostalCode":1.0},"Location":{"LocationId":"NT_1ae6cPTNVJL0oFnwL4jgAD_l_1199248392_L","LocationType":"point","DisplayPosition":{"Latitude":63.46218,"Longitude":24.17668},"MapView":{"TopLeft":{"Latitude":63.46268,"Longitude":24.17668},"BottomRight":{"Latitude":63.46218,"Longitude":24.17807}},"Address":{"Label":"FI-69510 Halsua, Suomi","Country":"FIN","State":"Länsi- ja Sisä-Suomi","County":"Keski-Pohjanmaa","City":"Halsua","District":"Halsua","PostalCode":"69510","AdditionalData":[{"value":"Suomi","key":"CountryName"},{"value":"Länsi- ja Sisä-Suomi","key":"StateName"},{"value":"Keski-Pohjanmaa","key":"CountyName"}]},"MapReference":{"ReferenceId":"1199248392","Spot":0.0,"SideOfStreet":"left","CountryId":"20241487","StateId":"23795371","CountyId":"20504637","CityId":"20504638","DistrictId":"20641274"}}},{"Relevance":1.0,"Distance":94.0,"MatchLevel":"houseNumber","MatchQuality":{"Country":1.0,"State":1.0,"County":1.0,"City":1.0,"District":1.0,"Street":[1.0],"HouseNumber":1.0,"PostalCode":1.0},"MatchType":"interpolated","Location":{"LocationId":"NT_htE.Ig3PeSntjjC7GOvEBA_xAjY","LocationType":"point","DisplayPosition":{"Latitude":63.46282,"Longitude":24.17679},"MapView":{"TopLeft":{"Latitude":63.4639442,"Longitude":24.1742739},"BottomRight":{"Latitude":63.4616958,"Longitude":24.1793061}},"Address":{"Label":"Kauppisentie 10b, FI-69510 Halsua, Suomi","Country":"FIN","State":"Länsi- ja Sisä-Suomi","County":"Keski-Pohjanmaa","City":"Halsua","District":"Halsua","Street":"Kauppisentie","HouseNumber":"10b","PostalCode":"69510","AdditionalData":[{"value":"Suomi","key":"CountryName"},{"value":"Länsi- ja Sisä-Suomi","key":"StateName"},{"value":"Keski-Pohjanmaa","key":"CountyName"}]},"MapReference":{"ReferenceId":"1199248425","Spot":0.7,"SideOfStreet":"left","CountryId":"20241487","StateId":"23795371","CountyId":"20504637","CityId":"20504638","DistrictId":"20641274","AddressId":"774971212","RoadLinkId":"511039583"}}},{"Relevance":1.0,"Distance":107.6,"MatchLevel":"street","MatchQuality":{"Country":1.0,"State":1.0,"County":1.0,"City":1.0,"District":1.0,"Street":[1.0],"PostalCode":1.0},"Location":{"LocationId":"NT_htE.Ig3PeSntjjC7GOvEBA_l_583651195_R","LocationType":"point","DisplayPosition":{"Latitude":63.46337,"Longitude":24.17427},"MapView":{"TopLeft":{"Latitude":63.46353,"Longitude":24.17417},"BottomRight":{"Latitude":63.46337,"Longitude":24.17427}},"Address":{"Label":"Kauppisentie, FI-69510 Halsua, Suomi","Country":"FIN","State":"Länsi- ja Sisä-Suomi","County":"Keski-Pohjanmaa","City":"Halsua","District":"Halsua","Street":"Kauppisentie","PostalCode":"69510","AdditionalData":[{"value":"Suomi","key":"CountryName"},{"value":"Länsi- ja Sisä-Suomi","key":"StateName"},{"value":"Keski-Pohjanmaa","key":"CountyName"}]},"MapReference":{"ReferenceId":"583651195","Spot":0.0,"SideOfStreet":"right","CountryId":"20241487","StateId":"23795371","CountyId":"20504637","CityId":"20504638","DistrictId":"20641274"}}}]}]}}