{"Response":{"MetaInfo":{"Timestamp":"2020-03-28T11:07:01.662+0000","NextPageInformation":"2"},"View":[{"_type":"SearchResultsViewType","ViewId":0,"Result":[{"Relevance":1.0,"Distance":0.0,"Direction":0.0,"MatchLevel":"district","MatchQuality":{"Country":1.0,"State":1.0,"County":1.0,"City":1.0,"District":1.0,"PostalCode":1.0},"Location":{"LocationId":"NT_AOiRE9oyZWaHSRZ3c7DvWC","LocationType":"point","DisplayPosition":{"Latitude":64.5111185,"Longitude":25.648462},"MapView":{"TopLeft":{"Latitude":64.52255,"Longitude":25.62294},"BottomRight":{"Latitude":64.49308,"Longitude":25.6787}},"Address":{"Label":"Rantsila, Siikalatva, Pohjois-Suomi, Suomi","Country":"FIN","State":"Pohjois-Suomi","County":"Pohjois-Pohjanmaa","City":"Siikalatva","District":"Rantsila","PostalCode":"92500","AdditionalData":[{"value":"Suomi","key":"CountryName"},{"value":"Pohjois-Suomi","key":"StateName"},{"value":"Pohjois-Pohjanmaa","key":"CountyName"}]},"MapReference":{"ReferenceId":"1143501336","SideOfStreet":"neither","CountryId":"20241487","StateId":"20505430","CountyId":"20505470","CityId":"20505502","DistrictId":"20644569"}}},{"Relevance":1.0,"Distance":14.4,"MatchLevel":"street","MatchQuality":{"Country":1.0,"State":1.0,"County":1.0,"City":1.0,"District":1.0,"Street":[1.0],"PostalCode":1.0},"Location":{"LocationId":"NT_AWSaxVyNg98mc8t0TsWwHB_l_581091023_R","LocationType":"point","DisplayPosition":{"Latitude":64.5109961,"Longitude":25.6483643},"MapView":{"TopLeft":{"Latitude":64.51211,"Longitude":25.64719},"BottomRight":{"Latitude":64.50945,"Longitude":25.65029}},"Address":{"Label":"Ojapolku, FI-92500 Rantsila, Suomi","Country":"FIN","State":"Pohjois-Suomi","County":"Pohjois-Pohjanmaa","City":"Siikalatva","District":"Rantsila","Street":"Ojapolku","PostalCode":"92500","AdditionalData":[{"value":"Suomi","key":"CountryName"},{"value":"Pohjois-Suomi","key":"StateName"},{"value":"Pohjois-Pohjanmaa","key":"CountyName"}]},"MapReference":{"ReferenceId":"581091023","Spot":0.6,"SideOfStreet":"right","CountryId":"20241487","StateId":"20505430","CountyId":"20505470","CityId":"20505502","DistrictId":"20644569"}}},{"Relevance":1.0,"Distance":19.5,"MatchLevel":"houseNumber","MatchQuality":{"Country":1.0,"State":1.0,"County":1.0,"City":1.0,"District":1.0,"Street":[1.0],"HouseNumber":1.0,"PostalCode":1.0},"MatchType":"interpolated","Location":{"LocationId":"NT_VGgdjeLSjx44rOvhHt58uB_l_581091019_R_0A","LocationType":"point","DisplayPosition":{"Latitude":64.51127,"Longitude":25.64883},"MapView":{"TopLeft":{"Latitude":64.5123942,"Longitude":25.6462178},"BottomRight":{"Latitude":64.5101459,"Longitude":25.6514423}},"Address":{"Label":"Iltaruskontie 4, FI-92500 Rantsila, Suomi","Country":"FIN","State":"Pohjois-Suomi","County":"Pohjois-Pohjanmaa","City":"Siikalatva","District":"Rantsila","Street":"Iltaruskontie","HouseNumber":"4","PostalCode":"92500","AdditionalData":[{"value":"Suomi","key":"CountryName"},{"value":"Pohjois-Suomi","key":"StateName"},{"value":"Pohjois-Pohjanmaa","key":"CountyName"}]},"MapReference":{"ReferenceId":"581091019","Spot":0.08,"SideOfStreet":"right","CountryId":"20241487","StateId":"20505430","CountyId":"20505470","CityId":"20505502","DistrictId":"20644569"}}},{"Relevance":1.0,"Distance":47.8,"MatchLevel":"houseNumber","MatchQuality":{"Country":1.0,"State":1.0,"County":1.0,"City":1.0,"District":1.0,"Street":[1.0],"HouseNumber":1.0,"PostalCode":1.0},"MatchType":"interpolated","Location":{"LocationId":"NT_-DqPpzk6Vsp6wlf4oAMrbD_5A","LocationType":"point","DisplayPosition":{"Latitude":64.51182,"Longitude":25.64631},"MapView":{"TopLeft":{"Latitude":64.5129442,"Longitude":25.6436977},"BottomRight":{"Latitude":64.5106958,"Longitude":25.6489223}},"Address":{"Label":"Kappelitie 9, FI-92500 Rantsila, Suomi","Country":"FIN","State":"Pohjois-Suomi","County":"Pohjois-Pohjanmaa","City":"Siikalatva","District":"Rantsila","Street":"Kappelitie","HouseNumber":"9","PostalCode":"92500","AdditionalData":[{"value":"Suomi","key":"CountryName"},{"value":"Pohjois-Suomi","key":"StateName"},{"value":"Pohjois-Pohjanmaa","key":"CountyName"}]},"MapReference":{"ReferenceId":"581793030","Spot":0.46,"SideOfStreet":"right","CountryId":"20241487","StateId":"20505430","CountyId":"20505470","CityId":"20505502","DistrictId":"20644569","AddressId":"263158711","RoadLinkId":"98039311"}}},{"Relevance":1.0,"Distance":68.8,"MatchLevel":"street","MatchQuality":{"Country":1.0,"State":1.0,"County":1.0,"City":1.0,"District":1.0,"PostalCode":1.0},"Location":{"LocationId":"NT_La.fYDMxc1pst1NnaXrbWA_l_581793050_R","LocationType":"point","DisplayPosition":{"Latitude":64.51154,"Longitude":25.64741},"MapView":{"TopLeft":{"Latitude":64.51203,"Longitude":25.64693},"BottomRight":{"Latitude":64.51154,"Longitude":25.64741}},"Address":{"Label":"FI-92500 Rantsila, Suomi","Country":"FIN","State":"Pohjois-Suomi","County":"Pohjois-Pohjanmaa","City":"Siikalatva","District":"Rantsila","PostalCode":"92500","AdditionalData":[{"value":"Suomi","key":"CountryName"},{"value":"Pohjois-Suomi","key":"StateName"},{"value":"Pohjois-Pohjanmaa","key":"CountyName"}]},"MapReference":{"ReferenceId":"581793050","Spot":0.0,"SideOfStreet":"right","CountryId":"20241487","StateId":"20505430","CountyId":"20505470","CityId":"20505502","DistrictId":"20644569"}}},{"Relevance":1.0,"Distance":92.1,"MatchLevel":"street","MatchQuality":{"Country":1.0,"State":1.0,"County":1.0,"City":1.0,"District":1.0,"PostalCode":1.0},"Location":{"LocationId":"NT_La.fYDMxc1pst1NnaXrbWA_l_581793156_R","LocationType":"point","DisplayPosition":{"Latitude":64.51066,"Longitude":25.64686},"MapView":{"TopLeft":{"Latitude":64.51112,"Longitude":25.64627},"BottomRight":{"Latitude":64.51066,"Longitude":25.64686}},"Address":{"Label":"FI-92500 Rantsila, Suomi","Country":"FIN","State":"Pohjois-Suomi","County":"Pohjois-Pohjanmaa","City":"Siikalatva","District":"Rantsila","PostalCode":"92500","AdditionalData":[{"value":"Suomi","key":"CountryName"},{"value":"Pohjois-Suomi","key":"StateName"},{"value":"Pohjois-Pohjanmaa","key":"CountyName"}]},"MapReference":{"ReferenceId":"581793156","Spot":0.0,"SideOfStreet":"right","CountryId":"20241487","StateId":"20505430","CountyId":"20505470","CityId":"20505502","DistrictId":"20644569"}}},{"Relevance":1.0,"Distance":96.6,"MatchLevel":"houseNumber","MatchQuality":{"Country":1.0,"State":1.0,"County":1.0,"City":1.0,"District":1.0,"Street":[1.0],"HouseNumber":1.0,"PostalCode":1.0},"MatchType":"interpolated","Location":{"LocationId":"NT_-DqPpzk6Vsp6wlf4oAMrbD_xED","LocationType":"point","DisplayPosition":{"Latitude":64.5122,"Longitude":25.6474},"MapView":{"TopLeft":{"Latitude":64.5133242,"Longitude":25.6447876},"BottomRight":{"Latitude":64.5110758,"Longitude":25.6500124}},"Address":{"Label":"Kappelitie 11, FI-92500 Rantsila, Suomi","Country":"FIN","State":"Pohjois-Suomi","County":"Pohjois-Pohjanmaa","City":"Siikalatva","District":"Rantsila","Street":"Kappelitie","HouseNumber":"11","PostalCode":"92500","AdditionalData":[{"value":"Suomi","key":"CountryName"},{"value":"Pohjois-Suomi","key":"StateName"},{"value":"Pohjois-Pohjanmaa","key":"CountyName"}]},"MapReference":{"ReferenceId":"581792999","Spot":0.4,"SideOfStreet":"right","CountryId":"20241487","StateId":"20505430","CountyId":"20505470","CityId":"20505502","DistrictId":"20644569","AddressId":"263158698","RoadLinkId":"98382665"}}},{"Relevance":1.0,"Distance":104.9,"MatchLevel":"street","MatchQuality":{"Country":1.0,"State":1.0,"County":1.0,"City":1.0,"District":1.0,"PostalCode":1.0},"Location":{"LocationId":"NT_La.fYDMxc1pst1NnaXrbWA_l_581793101_R","LocationType":"point","DisplayPosition":{"Latitude":64.51112,"Longitude":25.64627},"MapView":{"TopLeft":{"Latitude":64.5116,"Longitude":25.64565},"BottomRight":{"Latitude":64.51112,"Longitude":25.64627}},"Address":{"Label":"FI-92500 Rantsila, Suomi","Country":"FIN","State":"Pohjois-Suomi","County":"Pohjois-Pohjanmaa","City":"Siikalatva","District":"Rantsila","PostalCode":"92500","AdditionalData":[{"value":"Suomi","key":"CountryName"},{"value":"Pohjois-Suomi","key":"StateName"},{"value":"Pohjois-Pohjanmaa","key":"CountyName"}]},"MapReference":{"ReferenceId":"581793101","Spot":0.0,"SideOfStreet":"right","CountryId":"20241487","StateId":"20505430","CountyId":"20505470","CityId":"20505502","DistrictId":"20644569"}}},{"Relevance":1.0,"Distance":104.9,"MatchLevel":"street","MatchQuality":{"Country":1.0,"State":1.0,"County":1.0,"City":1.0,"District":1.0,"PostalCode":1.0},"Location":{"LocationId":"NT_La.fYDMxc1pst1NnaXrbWA_l_581793119_R","LocationType":"point","DisplayPosition":{"Latitude":64.51112,"Longitude":25.64627},"MapView":{"TopLeft":{"Latitude":64.51112,"Longitude":25.64525},"BottomRight":{"Latitude":64.51087,"Longitude":25.64627}},"Address":{"Label":"FI-92500 Rantsila, Suomi","Country":"FIN","State":"Pohjois-Suomi","County":"Pohjois-Pohjanmaa","City":"Siikalatva","District":"Rantsila","PostalCode":"92500","AdditionalData":[{"value":"Suomi","key":"CountryName"},{"value":"Pohjois-Suomi","key":"StateName"},{"value":"Pohjois-Pohjanmaa","key":"CountyName"}]},"MapReference":{"ReferenceId":"581793119","Spot":1.0,"SideOfStreet":"right","CountryId":"20241487","StateId":"20505430","CountyId":"20505470","CityId":"20505502","DistrictId":"20644569"}}},{"Relevance":1.0,"Distance":125.9,"MatchLevel":"street","MatchQuality":{"Country":1.0,"State":1.0,"County":1.0,"City":1.0,"District":1.0,"Street":[1.0],"PostalCode":1.0},"Location":{"LocationId":"NT_-DqPpzk6Vsp6wlf4oAMrbD_l_581793005_R","LocationType":"point","DisplayPosition":{"Latitude":64.51211,"Longitude":25.64719},"MapView":{"TopLeft":{"Latitude":64.51211,"Longitude":25.64693},"BottomRight":{"Latitude":64.51203,"Longitude":25.64719}},"Address":{"Label":"Kappelitie, FI-92500 Rantsila, Suomi","Country":"FIN","State":"Pohjois-Suomi","County":"Pohjois-Pohjanmaa","City":"Siikalatva","District":"Rantsila","Street":"Kappelitie","PostalCode":"92500","AdditionalData":[{"value":"Suomi","key":"CountryName"},{"value":"Pohjois-Suomi","key":"StateName"},{"value":"Pohjois-Pohjanmaa","key":"CountyName"}]},"MapReference":{"ReferenceId":"581793005","Spot":1.0,"SideOfStreet":"right","CountryId":"20241487","StateId":"20505430","CountyId":"20505470","CityId":"20505502","DistrictId":"20644569"}}}]}]}}