{"Response":{"MetaInfo":{"Timestamp":"2020-03-28T11:36:29.415+0000","NextPageInformation":"2"},"View":[{"_type":"SearchResultsViewType","ViewId":0,"Result":[{"Relevance":1.0,"Distance":-1.7,"MatchLevel":"landmark","MatchQuality":{"Country":1.0,"State":1.0,"County":1.0,"City":1.0,"Street":[1.0],"PostalCode":1.0,"Name":1.0},"Location":{"LocationId":"NT_GaJt.GR1S-SX6wU9ZUA-uA_p_e497TpxByylCo7V.u5hDbD","LocationType":"hospital","Name":"Sunderby sjukhus","DisplayPosition":{"Latitude":65.67128,"Longitude":21.93202},"MapView":{"TopLeft":{"Latitude":65.6752,"Longitude":21.92141},"BottomRight":{"Latitude":65.66897,"Longitude":21.93867}},"Address":{"Label":"Sjukhusvägen, SE-954 42 Södra Sunderbyn, Sverige","Country":"SWE","State":"Norrbottens län","County":"Luleå","City":"Södra Sunderbyn","Street":"Sjukhusvägen","PostalCode":"954 42","AdditionalData":[{"value":"Sverige","key":"CountryName"},{"value":"Norrbottens län","key":"StateName"},{"value":"Luleå","key":"CountyName"}]},"MapReference":{"CountryId":"20298368","StateId":"20412818","CountyId":"20412856","CityId":"20861669","PlaceId":"551093440"}}},{"Relevance":1.0,"Distance":0.0,"Direction":0.0,"MatchLevel":"postalCode","MatchQuality":{"Country":1.0,"State":1.0,"County":1.0,"PostalCode":1.0},"Location":{"LocationId":"NT_I3dBLkUExbJYVZjvhd-ONA","LocationType":"point","DisplayPosition":{"Latitude":65.6720577,"Longitude":21.9215732},"MapView":{"TopLeft":{"Latitude":66.28303,"Longitude":21.33627},"BottomRight":{"Latitude":65.31118,"Longitude":22.81635}},"Address":{"Label":"972 31, Norrbottens län, Sverige","Country":"SWE","State":"Norrbottens län","County":"Luleå","PostalCode":"972 31","AdditionalData":[{"value":"Sverige","key":"CountryName"},{"value":"Norrbottens län","key":"StateName"},{"value":"Luleå","key":"CountyName"}]},"MapReference":{"ReferenceId":"552396727","SideOfStreet":"neither","CountryId":"20298368","StateId":"20412818","CountyId":"20412856"}}},{"Relevance":1.0,"Distance":1.8,"MatchLevel":"street","MatchQuality":{"Country":1.0,"State":1.0,"County":1.0,"City":1.0,"Street":[1.0],"PostalCode":1.0},"Location":{"LocationId":"NT_cGpC.8Uupe.Mh1KbJsZ4ZD_l_552511016_L","LocationType":"point","DisplayPosition":{"Latitude":65.6720732,"Longitude":21.9215638},"MapView":{"TopLeft":{"Latitude":65.67463,"Longitude":21.92141},"BottomRight":{"Latitude":65.67198,"Longitude":21.92578}},"Address":{"Label":"Kretsloppet, SE-954 42 Södra Sunderbyn, Sverige","Country":"SWE","State":"Norrbottens län","County":"Luleå","City":"Södra Sunderbyn","Street":"Kretsloppet","PostalCode":"954 42","AdditionalData":[{"value":"Sverige","key":"CountryName"},{"value":"Norrbottens län","key":"StateName"},{"value":"Luleå","key":"CountyName"}]},"MapReference":{"ReferenceId":"552511016","Spot":0.04,"SideOfStreet":"neither","CountryId":"20298368","StateId":"20412818","CountyId":"20412856","CityId":"20861669"}}},{"Relevance":1.0,"Distance":11.4,"MatchLevel":"street","MatchQuality":{"Country":1.0,"State":1.0,"County":1.0,"City":1.0,"Street":[1.0],"PostalCode":1.0},"Location":{"LocationId":"NT_TL.HCIU9JsqxUak4rtu6PC_l_573847596_R","LocationType":"point","DisplayPosition":{"Latitude":65.67198,"Longitude":21.92141},"MapView":{"TopLeft":{"Latitude":65.67313,"Longitude":21.9157},"BottomRight":{"Latitude":65.67198,"Longitude":21.92141}},"Address":{"Label":"Sjukhusvägen, SE-954 42 Södra Sunderbyn, Sverige","Country":"SWE","State":"Norrbottens län","County":"Luleå","City":"Södra Sunderbyn","Street":"Sjukhusvägen","PostalCode":"954 42","AdditionalData":[{"value":"Sverige","key":"CountryName"},{"value":"Norrbottens län","key":"StateName"},{"value":"Luleå","key":"CountyName"}]},"MapReference":{"ReferenceId":"573847596","Spot":0.0,"SideOfStreet":"right","CountryId":"20298368","StateId":"20412818","CountyId":"20412856","CityId":"20861669"}}},{"Relevance":1.0,"Distance":12.1,"MatchLevel":"street","MatchQuality":{"Country":1.0,"State":1.0,"County":1.0,"City":1.0,"Street":[1.0],"PostalCode":1.0},"Location":{"LocationId":"NT_TL.HCIU9JsqxUak4rtu6PC_l_1139754642_R","LocationType":"point","DisplayPosition":{"Latitude":65.6719491,"Longitude":21.9215491},"MapView":{"TopLeft":{"Latitude":65.67198,"Longitude":21.92141},"BottomRight":{"Latitude":65.67021,"Longitude":21.92939}},"Address":{"Label":"Sjukhusvägen, SE-954 42 Södra Sunderbyn, Sverige","Country":"SWE","State":"Norrbottens län","County":"Luleå","City":"Södra Sunderbyn","Street":"Sjukhusvägen","PostalCode":"954 42","AdditionalData":[{"value":"Sverige","key":"CountryName"},{"value":"Norrbottens län","key":"StateName"},{"value":"Luleå","key":"CountyName"}]},"MapReference":{"ReferenceId":"1139754642","Spot":0.98,"SideOfStreet":"right","CountryId":"20298368","StateId":"20412818","CountyId":"20412856","CityId":"20861669"}}},{"Relevance":1.0,"Distance":81.5,"MatchLevel":"street","MatchQuality":{"Country":1.0,"State":1.0,"County":1.0,"City":1.0,"Street":[1.0],"PostalCode":1.0},"Location":{"LocationId":"NT_-4Tza8P0v48WoRl.f55HfC_l_733703060_R","LocationType":"point","DisplayPosition":{"Latitude":65.6713277,"Longitude":21.9214148},"MapView":{"TopLeft":{"Latitude":65.67348,"Longitude":21.91035},"BottomRight":{"Latitude":65.66884,"Longitude":21.93226}},"Address":{"Label":"97, SE-954 42 Södra Sunderbyn, Sverige","Country":"SWE","State":"Norrbottens län","County":"Luleå","City":"Södra Sunderbyn","Street":"97","PostalCode":"954 42","AdditionalData":[{"value":"Sverige","key":"CountryName"},{"value":"Norrbottens län","key":"StateName"},{"value":"Luleå","key":"CountyName"}]},"MapReference":{"ReferenceId":"733703060","Spot":0.5,"SideOfStreet":"right","CountryId":"20298368","StateId":"20412818","CountyId":"20412856","CityId":"20861669"}}},{"Relevance":1.0,"Distance":246.2,"MatchLevel":"houseNumber","MatchQuality":{"Country":1.0,"State":1.0,"County":1.0,"City":1.0,"Street":[1.0],"HouseNumber":1.0,"PostalCode":1.0},"MatchType":"interpolated","Location":{"LocationId":"NT_q-DD.8ceApn.YnuDU1AXgD_xIDM","LocationType":"point","DisplayPosition":{"Latitude":65.66989,"Longitude":21.92048},"MapView":{"TopLeft":{"Latitude":65.6710142,"Longitude":21.9177514},"BottomRight":{"Latitude":65.6687658,"Longitude":21.9232086}},"Address":{"Label":"Sunderbyvägen 120, SE-954 42 Södra Sunderbyn, Sverige","Country":"SWE","State":"Norrbottens län","County":"Luleå","City":"Södra Sunderbyn","Street":"Sunderbyvägen","HouseNumber":"120","PostalCode":"954 42","AdditionalData":[{"value":"Sverige","key":"CountryName"},{"value":"Norrbottens län","key":"StateName"},{"value":"Luleå","key":"CountyName"}]},"MapReference":{"ReferenceId":"552392912","Spot":0.97,"SideOfStreet":"left","CountryId":"20298368","StateId":"20412818","CountyId":"20412856","CityId":"20861669","AddressId":"215333720","RoadLinkId":"99624382"}}},{"Relevance":1.0,"Distance":294.3,"MatchLevel":"street","MatchQuality":{"Country":1.0,"State":1.0,"County":1.0,"City":1.0,"Street":[1.0],"PostalCode":1.0},"Location":{"LocationId":"NT_TL.HCIU9JsqxUak4rtu6PC_l_573847597_R","LocationType":"point","DisplayPosition":{"Latitude":65.67313,"Longitude":21.9157},"MapView":{"TopLeft":{"Latitude":65.67328,"Longitude":21.91497},"BottomRight":{"Latitude":65.67313,"Longitude":21.9157}},"Address":{"Label":"Sjukhusvägen, SE-954 42 Södra Sunderbyn, Sverige","Country":"SWE","State":"Norrbottens län","County":"Luleå","City":"Södra Sunderbyn","Street":"Sjukhusvägen","PostalCode":"954 42","AdditionalData":[{"value":"Sverige","key":"CountryName"},{"value":"Norrbottens län","key":"StateName"},{"value":"Luleå","key":"CountyName"}]},"MapReference":{"ReferenceId":"573847597","Spot":0.0,"SideOfStreet":"right","CountryId":"20298368","StateId":"20412818","CountyId":"20412856","CityId":"20861669"}}},{"Relevance":1.0,"Distance":305.1,"MatchLevel":"houseNumber","MatchQuality":{"Country":1.0,"State":1.0,"County":1.0,"City":1.0,"Street":[1.0],"HouseNumber":1.0,"PostalCode":1.0},"MatchType":"interpolated","Location":{"LocationId":"NT_wvfU1zn619-GKMoWH7crsD_yQE","LocationType":"point","DisplayPosition":{"Latitude":65.66944,"Longitude":21.91726},"MapView":{"TopLeft":{"Latitude":65.6705642,"Longitude":21.9145315},"BottomRight":{"Latitude":65.6683158,"Longitude":21.9199885}},"Address":{"Label":"Träskbergsvägen 2D, SE-954 42 Södra Sunderbyn, Sverige","Country":"SWE","State":"Norrbottens län","County":"Luleå","City":"Södra Sunderbyn","Street":"Träskbergsvägen","HouseNumber":"2D","PostalCode":"954 42","AdditionalData":[{"value":"Sverige","key":"CountryName"},{"value":"Norrbottens län","key":"StateName"},{"value":"Luleå","key":"CountyName"}]},"MapReference":{"ReferenceId":"81387649","Spot":1.0,"SideOfStreet":"right","CountryId":"20298368","StateId":"20412818","CountyId":"20412856","CityId":"20861669","AddressId":"215331461","RoadLinkId":"99493502"}}},{"Relevance":1.0,"Distance":321.8,"MatchLevel":"houseNumber","MatchQuality":{"Country":1.0,"State":1.0,"County":1.0,"City":1.0,"Street":[1.0],"HouseNumber":1.0,"PostalCode":1.0},"MatchType":"interpolated","Location":{"LocationId":"NT_wvfU1zn619-GKMoWH7crsD_2IE","LocationType":"point","DisplayPosition":{"Latitude":65.66968,"Longitude":21.91757},"MapView":{"TopLeft":{"Latitude":65.6708042,"Longitude":21.9148415},"BottomRight":{"Latitude":65.6685558,"Longitude":21.9202985}},"Address":{"Label":"Träskbergsvägen 6B, SE-954 42 Södra Sunderbyn, Sverige","Country":"SWE","State":"Norrbottens län","County":"Luleå","City":"Södra Sunderbyn","Street":"Träskbergsvägen","HouseNumber":"6B","PostalCode":"954 42","AdditionalData":[{"value":"Sverige","key":"CountryName"},{"value":"Norrbottens län","key":"StateName"},{"value":"Luleå","key":"CountyName"}]},"MapReference":{"ReferenceId":"81387652","Spot":0.41,"SideOfStreet":"left","CountryId":"20298368","StateId":"20412818","CountyId":"20412856","CityId":"20861669","AddressId":"215331473","RoadLinkId":"99311542"}}}]}]}}