{"Response":{"MetaInfo":{"Timestamp":"2020-03-28T11:29:06.286+0000","NextPageInformation":"2"},"View":[{"_type":"SearchResultsViewType","ViewId":0,"Result":[{"Relevance":1.0,"Distance":0.0,"Direction":0.0,"MatchLevel":"city","MatchQuality":{"Country":1.0,"State":1.0,"County":1.0,"City":1.0,"PostalCode":1.0},"Location":{"LocationId":"NT_qThCq0Tq3QNSDsE9DrzXlB","LocationType":"point","DisplayPosition":{"Latitude":66.3251659,"Longitude":14.1878007},"MapView":{"TopLeft":{"Latitude":66.33841,"Longitude":14.16435},"BottomRight":{"Latitude":66.3233,"Longitude":14.20435}},"Address":{"Label":"Selfors, Nordland, Norge","Country":"NOR","State":"Nordland","County":"Rana","City":"Selfors","PostalCode":"8613","AdditionalData":[{"value":"Norge","key":"CountryName"},{"value":"Nordland","key":"StateName"},{"value":"Rana","key":"CountyName"}]},"MapReference":{"ReferenceId":"574059641","SideOfStreet":"neither","CountryId":"20418433","StateId":"20485017","CountyId":"20485121","CityId":"22890833"}}},{"Relevance":1.0,"Distance":22.6,"MatchLevel":"houseNumber","MatchQuality":{"Country":1.0,"State":1.0,"County":1.0,"City":1.0,"Street":[1.0],"HouseNumber":1.0,"PostalCode":1.0},"MatchType":"interpolated","Location":{"LocationId":"NT_X7gawZXTvC1EUNRTFJWB4D_yED","LocationType":"point","DisplayPosition":{"Latitude":66.32513,"Longitude":14.18808},"MapView":{"TopLeft":{"Latitude":66.3262542,"Longitude":14.1852804},"BottomRight":{"Latitude":66.3240058,"Longitude":14.1908796}},"Address":{"Label":"Sportsalleen 21, 8613 Mo i Rana, Norge","Country":"NOR","State":"Nordland","County":"Rana","City":"Mo i Rana","Street":"Sportsalleen","HouseNumber":"21","PostalCode":"8613","AdditionalData":[{"value":"Norge","key":"CountryName"},{"value":"Nordland","key":"StateName"},{"value":"Rana","key":"CountyName"}]},"MapReference":{"ReferenceId":"574059691","Spot":0.42,"SideOfStreet":"left","CountryId":"20418433","StateId":"20485017","CountyId":"20485121","CityId":"22897885","AddressId":"304070589","RoadLinkId":"101578236"}}},{"Relevance":1.0,"Distance":49.0,"MatchLevel":"houseNumber","MatchQuality":{"Country":1.0,"State":1.0,"County":1.0,"City":1.0,"Street":[1.0],"HouseNumber":1.0,"PostalCode":1.0},"MatchType":"interpolated","Location":{"LocationId":"NT_X7gawZXTvC1EUNRTFJWB4D_xkD","LocationType":"point","DisplayPosition":{"Latitude":66.32559,"Longitude":14.1875},"MapView":{"TopLeft":{"Latitude":66.3267142,"Longitude":14.1847004},"BottomRight":{"Latitude":66.3244658,"Longitude":14.1902996}},"Address":{"Label":"Sportsalleen 19, 8613 Mo i Rana, Norge","Country":"NOR","State":"Nordland","County":"Rana","City":"Mo i Rana","Street":"Sportsalleen","HouseNumber":"19","PostalCode":"8613","AdditionalData":[{"value":"Norge","key":"CountryName"},{"value":"Nordland","key":"StateName"},{"value":"Rana","key":"CountyName"}]},"MapReference":{"ReferenceId":"574059689","Spot":0.42,"SideOfStreet":"left","CountryId":"20418433","StateId":"20485017","CountyId":"20485121","CityId":"22897885","AddressId":"304482383","RoadLinkId":"100615736"}}},{"Relevance":1.0,"Distance":54.3,"MatchLevel":"houseNumber","MatchQuality":{"Country":1.0,"State":1.0,"County":1.0,"City":1.0,"Street":[1.0],"HouseNumber":1.0,"PostalCode":1.0},"MatchType":"interpolated","Location":{"LocationId":"NT_X7gawZXTvC1EUNRTFJWB4D_xUD","LocationType":"point","DisplayPosition":{"Latitude":66.32512,"Longitude":14.18659},"MapView":{"TopLeft":{"Latitude":66.3262442,"Longitude":14.1837904},"BottomRight":{"Latitude":66.3239958,"Longitude":14.1893896}},"Address":{"Label":"Sportsalleen 15, 8613 Mo i Rana, Norge","Country":"NOR","State":"Nordland","County":"Rana","City":"Mo i Rana","Street":"Sportsalleen","HouseNumber":"15","PostalCode":"8613","AdditionalData":[{"value":"Norge","key":"CountryName"},{"value":"Nordland","key":"StateName"},{"value":"Rana","key":"CountyName"}]},"MapReference":{"ReferenceId":"574059690","Spot":0.78,"SideOfStreet":"left","CountryId":"20418433","StateId":"20485017","CountyId":"20485121","CityId":"22897885","AddressId":"773885247","RoadLinkId":"101035668"}}},{"Relevance":1.0,"Distance":65.8,"MatchLevel":"street","MatchQuality":{"Country":1.0,"State":1.0,"County":1.0,"City":1.0,"PostalCode":1.0},"Location":{"LocationId":"NT_lvewCiDtP917tMGFEJna3D_l_554679436_R","LocationType":"point","DisplayPosition":{"Latitude":66.3246,"Longitude":14.18737},"MapView":{"TopLeft":{"Latitude":66.3246,"Longitude":14.18737},"BottomRight":{"Latitude":66.3243,"Longitude":14.18769}},"Address":{"Label":"8613 Mo i Rana, Norge","Country":"NOR","State":"Nordland","County":"Rana","City":"Mo i Rana","PostalCode":"8613","AdditionalData":[{"value":"Norge","key":"CountryName"},{"value":"Nordland","key":"StateName"},{"value":"Rana","key":"CountyName"}]},"MapReference":{"ReferenceId":"554679436","Spot":1.0,"SideOfStreet":"right","CountryId":"20418433","StateId":"20485017","CountyId":"20485121","CityId":"22897885"}}},{"Relevance":1.0,"Distance":67.4,"MatchLevel":"street","MatchQuality":{"Country":1.0,"State":1.0,"County":1.0,"City":1.0,"Street":[1.0],"PostalCode":1.0},"Location":{"LocationId":"NT_4-qU.7-YbkcHPksKBC0zsB_l_574059682_L","LocationType":"point","DisplayPosition":{"Latitude":66.32546,"Longitude":14.18912},"MapView":{"TopLeft":{"Latitude":66.32546,"Longitude":14.18912},"BottomRight":{"Latitude":66.32524,"Longitude":14.18926}},"Address":{"Label":"Sykehusgata, 8613 Mo i Rana, Norge","Country":"NOR","State":"Nordland","County":"Rana","City":"Mo i Rana","Street":"Sykehusgata","PostalCode":"8613","AdditionalData":[{"value":"Norge","key":"CountryName"},{"value":"Nordland","key":"StateName"},{"value":"Rana","key":"CountyName"}]},"MapReference":{"ReferenceId":"574059682","Spot":1.0,"SideOfStreet":"left","CountryId":"20418433","StateId":"20485017","CountyId":"20485121","CityId":"22897885"}}},{"Relevance":1.0,"Distance":68.2,"MatchLevel":"houseNumber","MatchQuality":{"Country":1.0,"State":1.0,"County":1.0,"City":1.0,"Street":[1.0],"HouseNumber":1.0,"PostalCode":1.0},"MatchType":"interpolated","Location":{"LocationId":"NT_VGq20Qqzz1CafLG1al6mbA_xQjS","LocationType":"point","DisplayPosition":{"Latitude":66.32485,"Longitude":14.18911},"MapView":{"TopLeft":{"Latitude":66.3259742,"Longitude":14.1863105},"BottomRight":{"Latitude":66.3237258,"Longitude":14.1919095}},"Address":{"Label":"Saltfjellveien 14J, 8613 Mo i Rana, Norge","Country":"NOR","State":"Nordland","County":"Rana","City":"Mo i Rana","Street":"Saltfjellveien","HouseNumber":"14J","PostalCode":"8613","AdditionalData":[{"value":"Norge","key":"CountryName"},{"value":"Nordland","key":"StateName"},{"value":"Rana","key":"CountyName"}]},"MapReference":{"ReferenceId":"832779810","Spot":0.91,"SideOfStreet":"right","CountryId":"20418433","StateId":"20485017","CountyId":"20485121","CityId":"22897885","AddressId":"303665741","RoadLinkId":"215962479"}}},{"Relevance":1.0,"Distance":68.7,"MatchLevel":"houseNumber","MatchQuality":{"Country":1.0,"State":1.0,"County":1.0,"City":1.0,"Street":[1.0],"HouseNumber":1.0,"PostalCode":1.0},"MatchType":"interpolated","Location":{"LocationId":"NT_4-qU.7-YbkcHPksKBC0zsB_xA","LocationType":"point","DisplayPosition":{"Latitude":66.32577,"Longitude":14.18884},"MapView":{"TopLeft":{"Latitude":66.3268942,"Longitude":14.1860404},"BottomRight":{"Latitude":66.3246458,"Longitude":14.1916396}},"Address":{"Label":"Sykehusgata 1, 8613 Mo i Rana, Norge","Country":"NOR","State":"Nordland","County":"Rana","City":"Mo i Rana","Street":"Sykehusgata","HouseNumber":"1","PostalCode":"8613","AdditionalData":[{"value":"Norge","key":"CountryName"},{"value":"Nordland","key":"StateName"},{"value":"Rana","key":"CountyName"}]},"MapReference":{"ReferenceId":"574059666","Spot":0.76,"SideOfStreet":"left","CountryId":"20418433","StateId":"20485017","CountyId":"20485121","CityId":"22897885","AddressId":"303897299","RoadLinkId":"100975138"}}},{"Relevance":1.0,"Distance":84.2,"MatchLevel":"street","MatchQuality":{"Country":1.0,"State":1.0,"County":1.0,"City":1.0,"PostalCode":1.0},"Location":{"LocationId":"NT_lvewCiDtP917tMGFEJna3D_l_574059639_L","LocationType":"point","DisplayPosition":{"Latitude":66.32592,"Longitude":14.18798},"MapView":{"TopLeft":{"Latitude":66.32592,"Longitude":14.18798},"BottomRight":{"Latitude":66.32587,"Longitude":14.18875}},"Address":{"Label":"8613 Mo i Rana, Norge","Country":"NOR","State":"Nordland","County":"Rana","City":"Mo i Rana","PostalCode":"8613","AdditionalData":[{"value":"Norge","key":"CountryName"},{"value":"Nordland","key":"StateName"},{"value":"Rana","key":"CountyName"}]},"MapReference":{"ReferenceId":"574059639","Spot":1.0,"SideOfStreet":"left","CountryId":"20418433","StateId":"20485017","CountyId":"20485121","CityId":"22897885"}}},{"Relevance":1.0,"Distance":84.2,"MatchLevel":"street","MatchQuality":{"Country":1.0,"State":1.0,"County":1.0,"City":1.0,"PostalCode":1.0},"Location":{"LocationId":"NT_lvewCiDtP917tMGFEJna3D_l_574059635_L","LocationType":"point","DisplayPosition":{"Latitude":66.32592,"Longitude":14.18798},"MapView":{"TopLeft":{"Latitude":66.3265,"Longitude":14.18688},"BottomRight":{"Latitude":66.32592,"Longitude":14.18798}},"Address":{"Label":"8613 Mo i Rana, Norge","Country":"NOR","State":"Nordland","County":"Rana","City":"Mo i Rana","PostalCode":"8613","AdditionalData":[{"value":"Norge","key":"CountryName"},{"value":"Nordland","key":"StateName"},{"value":"Rana","key":"CountyName"}]},"MapReference":{"ReferenceId":"574059635","Spot":0.0,"SideOfStreet":"left","CountryId":"20418433","StateId":"20485017","CountyId":"20485121","CityId":"22897885"}}}]}]}}