{"Response":{"MetaInfo":{"Timestamp":"2020-03-28T12:04:55.826+0000","NextPageInformation":"2"},"View":[{"_type":"SearchResultsViewType","ViewId":0,"Result":[{"Relevance":1.0,"Distance":-53.4,"MatchLevel":"landmark","MatchQuality":{"Country":1.0,"State":1.0,"County":1.0,"PostalCode":1.0,"Name":1.0},"Location":{"LocationId":"NT_aplgU75CPmGacenhcnkn-B","LocationType":"island","Name":"Tromsøya","DisplayPosition":{"Latitude":69.67101,"Longitude":18.94171},"MapView":{"TopLeft":{"Latitude":69.71499,"Longitude":18.89319},"BottomRight":{"Latitude":69.62703,"Longitude":19.02404}},"Address":{"Label":"9008, Norge","Country":"NOR","State":"Troms og Finnmark","County":"Tromsø","PostalCode":"9008","AdditionalData":[{"value":"Norge","key":"CountryName"},{"value":"Troms og Finnmark","key":"StateName"},{"value":"Tromsø","key":"CountyName"}]},"MapReference":{"CountryId":"20418433","StateId":"20485263","CountyId":"20485259","PlaceId":"83239160"}}},{"Relevance":1.0,"Distance":0.0,"Direction":0.0,"MatchLevel":"city","MatchQuality":{"Country":1.0,"State":1.0,"County":1.0,"City":1.0,"PostalCode":1.0},"Location":{"LocationId":"NT_1ihdNiqlu5kxrl4yB3Zz9A","LocationType":"point","DisplayPosition":{"Latitude":69.646722,"Longitude":18.9551372},"MapView":{"TopLeft":{"Latitude":69.71002,"Longitude":18.75951},"BottomRight":{"Latitude":69.60476,"Longitude":19.0907}},"Address":{"Label":"Tromsø, Troms og Finnmark, Norge","Country":"NOR","State":"Troms og Finnmark","County":"Tromsø","City":"Tromsø","PostalCode":"9008","AdditionalData":[{"value":"Norge","key":"CountryName"},{"value":"Troms og Finnmark","key":"StateName"},{"value":"Tromsø","key":"CountyName"}]},"MapReference":{"ReferenceId":"1257369679","SideOfStreet":"neither","CountryId":"20418433","StateId":"20485263","CountyId":"20485259","CityId":"20485261"}}},{"Relevance":1.0,"Distance":15.1,"MatchLevel":"street","MatchQuality":{"Country":1.0,"State":1.0,"County":1.0,"City":1.0,"Street":[1.0],"PostalCode":1.0},"Location":{"LocationId":"NT_6Z5zy9zuSq2rno9Ra8QgVC_l_554691238_L","LocationType":"point","DisplayPosition":{"Latitude":69.6468556,"Longitude":18.9552011},"MapView":{"TopLeft":{"Latitude":69.64721,"Longitude":18.95446},"BottomRight":{"Latitude":69.6461,"Longitude":18.95561}},"Address":{"Label":"Strandgata, 9008 Tromsø, Norge","Country":"NOR","State":"Troms og Finnmark","County":"Tromsø","City":"Tromsø","Street":"Strandgata","PostalCode":"9008","AdditionalData":[{"value":"Norge","key":"CountryName"},{"value":"Troms og Finnmark","key":"StateName"},{"value":"Tromsø","key":"CountyName"}]},"MapReference":{"ReferenceId":"554691238","Spot":0.67,"SideOfStreet":"left","CountryId":"20418433","StateId":"20485263","CountyId":"20485259","CityId":"20485261"}}},{"Relevance":1.0,"Distance":33.0,"MatchLevel":"houseNumber","MatchQuality":{"Country":1.0,"State":1.0,"County":1.0,"City":1.0,"Street":[1.0],"HouseNumber":1.0,"PostalCode":1.0},"MatchType":"interpolated","Location":{"LocationId":"NT_Zf-hOvsojxRCsExL7eMiaA_xUD","LocationType":"point","DisplayPosition":{"Latitude":69.64644,"Longitude":18.95364},"MapView":{"TopLeft":{"Latitude":69.6475642,"Longitude":18.9504079},"BottomRight":{"Latitude":69.6453158,"Longitude":18.9568721}},"Address":{"Label":"Nerstranda 15, 9008 Tromsø, Norge","Country":"NOR","State":"Troms og Finnmark","County":"Tromsø","City":"Tromsø","Street":"Nerstranda","HouseNumber":"15","PostalCode":"9008","AdditionalData":[{"value":"Norge","key":"CountryName"},{"value":"Troms og Finnmark","key":"StateName"},{"value":"Tromsø","key":"CountyName"}]},"MapReference":{"ReferenceId":"913533488","Spot":1.0,"SideOfStreet":"right","CountryId":"20418433","StateId":"20485263","CountyId":"20485259","CityId":"20485261","AddressId":"695045719","RoadLinkId":"271345161"}}},{"Relevance":1.0,"Distance":41.2,"MatchLevel":"street","MatchQuality":{"Country":1.0,"State":1.0,"County":1.0,"City":1.0,"Street":[1.0],"PostalCode":1.0},"Location":{"LocationId":"NT_6Z5zy9zuSq2rno9Ra8QgVC_l_810399667_R","LocationType":"point","DisplayPosition":{"Latitude":69.64679,"Longitude":18.95409},"MapView":{"TopLeft":{"Latitude":69.64679,"Longitude":18.95364},"BottomRight":{"Latitude":69.64644,"Longitude":18.95409}},"Address":{"Label":"Strandgata, 9008 Tromsø, Norge","Country":"NOR","State":"Troms og Finnmark","County":"Tromsø","City":"Tromsø","Street":"Strandgata","PostalCode":"9008","AdditionalData":[{"value":"Norge","key":"CountryName"},{"value":"Troms og Finnmark","key":"StateName"},{"value":"Tromsø","key":"CountyName"}]},"MapReference":{"ReferenceId":"810399667","Spot":1.0,"SideOfStreet":"right","CountryId":"20418433","StateId":"20485263","CountyId":"20485259","CityId":"20485261"}}},{"Relevance":1.0,"Distance":47.5,"MatchLevel":"houseNumber","MatchQuality":{"Country":1.0,"State":1.0,"County":1.0,"City":1.0,"Street":[1.0],"HouseNumber":1.0,"PostalCode":1.0},"MatchType":"interpolated","Location":{"LocationId":"NT_Zf-hOvsojxRCsExL7eMiaA_1A","LocationType":"point","DisplayPosition":{"Latitude":69.64632,"Longitude":18.95394},"MapView":{"TopLeft":{"Latitude":69.6474442,"Longitude":18.950708},"BottomRight":{"Latitude":69.6451958,"Longitude":18.957172}},"Address":{"Label":"Nerstranda 5, 9008 Tromsø, Norge","Country":"NOR","State":"Troms og Finnmark","County":"Tromsø","City":"Tromsø","Street":"Nerstranda","HouseNumber":"5","PostalCode":"9008","AdditionalData":[{"value":"Norge","key":"CountryName"},{"value":"Troms og Finnmark","key":"StateName"},{"value":"Tromsø","key":"CountyName"}]},"MapReference":{"ReferenceId":"913533487","Spot":0.86,"SideOfStreet":"right","CountryId":"20418433","StateId":"20485263","CountyId":"20485259","CityId":"20485261","AddressId":"354067773","RoadLinkId":"271345160"}}},{"Relevance":1.0,"Distance":57.6,"MatchLevel":"street","MatchQuality":{"Country":1.0,"State":1.0,"County":1.0,"City":1.0,"Street":[1.0],"PostalCode":1.0},"Location":{"LocationId":"NT_a-SRR-Lbcya5.c.hFW6nBB_l_554691236_L","LocationType":"point","DisplayPosition":{"Latitude":69.64682,"Longitude":18.9566},"MapView":{"TopLeft":{"Latitude":69.64705,"Longitude":18.9566},"BottomRight":{"Latitude":69.64682,"Longitude":18.95726}},"Address":{"Label":"Kaigata, 9008 Tromsø, Norge","Country":"NOR","State":"Troms og Finnmark","County":"Tromsø","City":"Tromsø","Street":"Kaigata","PostalCode":"9008","AdditionalData":[{"value":"Norge","key":"CountryName"},{"value":"Troms og Finnmark","key":"StateName"},{"value":"Tromsø","key":"CountyName"}]},"MapReference":{"ReferenceId":"554691236","Spot":0.0,"SideOfStreet":"left","CountryId":"20418433","StateId":"20485263","CountyId":"20485259","CityId":"20485261"}}},{"Relevance":1.0,"Distance":59.7,"MatchLevel":"houseNumber","MatchQuality":{"Country":1.0,"State":1.0,"County":1.0,"City":1.0,"Street":[1.0],"HouseNumber":1.0,"PostalCode":1.0},"MatchType":"interpolated","Location":{"LocationId":"NT_xo5yIEh7iyrI91CC0zOx4D_zA","LocationType":"point","DisplayPosition":{"Latitude":69.64724,"Longitude":18.95554},"MapView":{"TopLeft":{"Latitude":69.6483642,"Longitude":18.9523078},"BottomRight":{"Latitude":69.6461158,"Longitude":18.9587722}},"Address":{"Label":"Strandtorget 3, 9008 Tromsø, Norge","Country":"NOR","State":"Troms og Finnmark","County":"Tromsø","City":"Tromsø","Street":"Strandtorget","HouseNumber":"3","PostalCode":"9008","AdditionalData":[{"value":"Norge","key":"CountryName"},{"value":"Troms og Finnmark","key":"StateName"},{"value":"Tromsø","key":"CountyName"}]},"MapReference":{"ReferenceId":"573989001","Spot":0.57,"SideOfStreet":"right","CountryId":"20418433","StateId":"20485263","CountyId":"20485259","CityId":"20485261","AddressId":"304674003","RoadLinkId":"101013570"}}},{"Relevance":1.0,"Distance":60.3,"MatchLevel":"houseNumber","MatchQuality":{"Country":1.0,"State":1.0,"County":1.0,"City":1.0,"Street":[1.0],"HouseNumber":1.0,"PostalCode":1.0},"MatchType":"interpolated","Location":{"LocationId":"NT_F4ljCWiO7yjUpBCxEvatUD_yA","LocationType":"point","DisplayPosition":{"Latitude":69.64686,"Longitude":18.95363},"MapView":{"TopLeft":{"Latitude":69.6479842,"Longitude":18.9503979},"BottomRight":{"Latitude":69.6457358,"Longitude":18.9568621}},"Address":{"Label":"Fiskergata 2, 9008 Tromsø, Norge","Country":"NOR","State":"Troms og Finnmark","County":"Tromsø","City":"Tromsø","Street":"Fiskergata","HouseNumber":"2","PostalCode":"9008","AdditionalData":[{"value":"Norge","key":"CountryName"},{"value":"Troms og Finnmark","key":"StateName"},{"value":"Tromsø","key":"CountyName"}]},"MapReference":{"ReferenceId":"554693359","Spot":0.75,"SideOfStreet":"left","CountryId":"20418433","StateId":"20485263","CountyId":"20485259","CityId":"20485261","AddressId":"304673830","RoadLinkId":"100945383"}}},{"Relevance":1.0,"Distance":68.1,"MatchLevel":"houseNumber","MatchQuality":{"Country":1.0,"State":1.0,"County":1.0,"City":1.0,"Street":[1.0],"HouseNumber":1.0,"PostalCode":1.0},"MatchType":"interpolated","Location":{"LocationId":"NT_F4ljCWiO7yjUpBCxEvatUD_xA","LocationType":"point","DisplayPosition":{"Latitude":69.64689,"Longitude":18.95343},"MapView":{"TopLeft":{"Latitude":69.6480142,"Longitude":18.9501979},"BottomRight":{"Latitude":69.6457658,"Longitude":18.9566621}},"Address":{"Label":"Fiskergata 1, 9008 Tromsø, Norge","Country":"NOR","State":"Troms og Finnmark","County":"Tromsø","City":"Tromsø","Street":"Fiskergata","HouseNumber":"1","PostalCode":"9008","AdditionalData":[{"value":"Norge","key":"CountryName"},{"value":"Troms og Finnmark","key":"StateName"},{"value":"Tromsø","key":"CountyName"}]},"MapReference":{"ReferenceId":"554693360","Spot":0.09,"SideOfStreet":"right","CountryId":"20418433","StateId":"20485263","CountyId":"20485259","CityId":"20485261","AddressId":"304039991","RoadLinkId":"101365844"}}}]}]}}