{"Response":{"MetaInfo":{"Timestamp":"2020-03-28T10:23:45.670+0000","NextPageInformation":"2"},"View":[{"_type":"SearchResultsViewType","ViewId":0,"Result":[{"Relevance":1.0,"Distance":0.0,"Direction":0.0,"MatchLevel":"district","MatchQuality":{"Country":1.0,"State":1.0,"County":1.0,"City":1.0,"District":1.0,"PostalCode":1.0},"Location":{"LocationId":"NT_bWzpvYg1HzT2WNJ33rL2jD","LocationType":"point","DisplayPosition":{"Latitude":51.039088,"Longitude":6.1528209},"MapView":{"TopLeft":{"Latitude":51.05243,"Longitude":6.13665},"BottomRight":{"Latitude":51.02794,"Longitude":6.16442}},"Address":{"Label":"Dremmen, Heinsberg, Nordrhein-Westfalen, Deutschland","Country":"DEU","State":"Nordrhein-Westfalen","County":"Heinsberg","City":"Heinsberg","District":"Dremmen","PostalCode":"52525","AdditionalData":[{"value":"Deutschland","key":"CountryName"},{"value":"Nordrhein-Westfalen","key":"StateName"},{"value":"Heinsberg","key":"CountyName"}]},"MapReference":{"ReferenceId":"51538189","SideOfStreet":"neither","CountryId":"20147700","StateId":"20157369","CountyId":"20158557","CityId":"20158598","DistrictId":"20158601"}}},{"Relevance":1.0,"Distance":4.2,"MatchLevel":"houseNumber","MatchQuality":{"Country":1.0,"State":1.0,"County":1.0,"City":1.0,"District":1.0,"Street":[1.0],"HouseNumber":1.0,"PostalCode":1.0},"MatchType":"interpolated","Location":{"LocationId":"NT_D.-vVjLXG4amMSLjU5ClYA_yED","LocationType":"point","DisplayPosition":{"Latitude":51.03893,"Longitude":6.15271},"MapView":{"TopLeft":{"Latitude":51.0400542,"Longitude":6.1509222},"BottomRight":{"Latitude":51.0378058,"Longitude":6.1544978}},"Address":{"Label":"Falderstraße 21, 52525 Heinsberg, Deutschland","Country":"DEU","State":"Nordrhein-Westfalen","County":"Heinsberg","City":"Heinsberg","District":"Dremmen","Street":"Falderstraße","HouseNumber":"21","PostalCode":"52525","AdditionalData":[{"value":"Deutschland","key":"CountryName"},{"value":"Nordrhein-Westfalen","key":"StateName"},{"value":"Heinsberg","key":"CountyName"}]},"MapReference":{"ReferenceId":"77173008","Spot":0.42,"SideOfStreet":"right","CountryId":"20147700","StateId":"20157369","CountyId":"20158557","CityId":"20158598","DistrictId":"20158601","AddressId":"195303530","RoadLinkId":"39361952"}}},{"Relevance":1.0,"Distance":33.3,"MatchLevel":"street","MatchQuality":{"Country":1.0,"State":1.0,"County":1.0,"City":1.0,"District":1.0,"PostalCode":1.0},"Location":{"LocationId":"NT_97.5zir8qaKPjbuut5.GWC_l_77170326_L","LocationType":"point","DisplayPosition":{"Latitude":51.03885,"Longitude":6.15311},"MapView":{"TopLeft":{"Latitude":51.03924,"Longitude":6.15311},"BottomRight":{"Latitude":51.03885,"Longitude":6.15343}},"Address":{"Label":"52525 Heinsberg, Deutschland","Country":"DEU","State":"Nordrhein-Westfalen","County":"Heinsberg","City":"Heinsberg","District":"Dremmen","PostalCode":"52525","AdditionalData":[{"value":"Deutschland","key":"CountryName"},{"value":"Nordrhein-Westfalen","key":"StateName"},{"value":"Heinsberg","key":"CountyName"}]},"MapReference":{"ReferenceId":"77170326","Spot":0.0,"SideOfStreet":"left","CountryId":"20147700","StateId":"20157369","CountyId":"20158557","CityId":"20158598","DistrictId":"20158601"}}},{"Relevance":1.0,"Distance":40.8,"MatchLevel":"houseNumber","MatchQuality":{"Country":1.0,"State":1.0,"County":1.0,"City":1.0,"District":1.0,"Street":[1.0],"HouseNumber":1.0,"PostalCode":1.0},"MatchType":"interpolated","Location":{"LocationId":"NT_D.-vVjLXG4amMSLjU5ClYA_yYD","LocationType":"point","DisplayPosition":{"Latitude":51.03882,"Longitude":6.15322},"MapView":{"TopLeft":{"Latitude":51.0399442,"Longitude":6.1514322},"BottomRight":{"Latitude":51.0376958,"Longitude":6.1550078}},"Address":{"Label":"Falderstraße 26, 52525 Heinsberg, Deutschland","Country":"DEU","State":"Nordrhein-Westfalen","County":"Heinsberg","City":"Heinsberg","District":"Dremmen","Street":"Falderstraße","HouseNumber":"26","PostalCode":"52525","AdditionalData":[{"value":"Deutschland","key":"CountryName"},{"value":"Nordrhein-Westfalen","key":"StateName"},{"value":"Heinsberg","key":"CountyName"}]},"MapReference":{"ReferenceId":"77173010","Spot":0.89,"SideOfStreet":"left","CountryId":"20147700","StateId":"20157369","CountyId":"20158557","CityId":"20158598","DistrictId":"20158601","AddressId":"193530378","RoadLinkId":"39428281"}}},{"Relevance":1.0,"Distance":43.7,"MatchLevel":"houseNumber","MatchQuality":{"Country":1.0,"State":1.0,"County":1.0,"City":1.0,"District":1.0,"Street":[1.0],"HouseNumber":1.0,"PostalCode":1.0},"MatchType":"interpolated","Location":{"LocationId":"NT_hm-WxlDxni7fNrYV5YCGaC_yQD","LocationType":"point","DisplayPosition":{"Latitude":51.03889,"Longitude":6.15208},"MapView":{"TopLeft":{"Latitude":51.0400142,"Longitude":6.1502922},"BottomRight":{"Latitude":51.0377658,"Longitude":6.1538678}},"Address":{"Label":"An der Eiche 24, 52525 Heinsberg, Deutschland","Country":"DEU","State":"Nordrhein-Westfalen","County":"Heinsberg","City":"Heinsberg","District":"Dremmen","Street":"An der Eiche","HouseNumber":"24","PostalCode":"52525","AdditionalData":[{"value":"Deutschland","key":"CountryName"},{"value":"Nordrhein-Westfalen","key":"StateName"},{"value":"Heinsberg","key":"CountyName"}]},"MapReference":{"ReferenceId":"77170171","Spot":0.69,"SideOfStreet":"right","CountryId":"20147700","StateId":"20157369","CountyId":"20158557","CityId":"20158598","DistrictId":"20158601","AddressId":"194726245","RoadLinkId":"39457126"}}},{"Relevance":1.0,"Distance":65.8,"MatchLevel":"houseNumber","MatchQuality":{"Country":1.0,"State":1.0,"County":1.0,"City":1.0,"District":1.0,"Street":[1.0],"HouseNumber":1.0,"PostalCode":1.0},"MatchType":"interpolated","Location":{"LocationId":"NT_yI7l6JXQ2LgGZq8HdPqc.D_0QD","LocationType":"point","DisplayPosition":{"Latitude":51.03898,"Longitude":6.15425},"MapView":{"TopLeft":{"Latitude":51.0401042,"Longitude":6.1524622},"BottomRight":{"Latitude":51.0378558,"Longitude":6.1560378}},"Address":{"Label":"Talmühlenstraße 44, 52525 Heinsberg, Deutschland","Country":"DEU","State":"Nordrhein-Westfalen","County":"Heinsberg","City":"Heinsberg","District":"Dremmen","Street":"Talmühlenstraße","HouseNumber":"44","PostalCode":"52525","AdditionalData":[{"value":"Deutschland","key":"CountryName"},{"value":"Nordrhein-Westfalen","key":"StateName"},{"value":"Heinsberg","key":"CountyName"}]},"MapReference":{"ReferenceId":"77169991","Spot":0.34,"SideOfStreet":"left","CountryId":"20147700","StateId":"20157369","CountyId":"20158557","CityId":"20158598","DistrictId":"20158601","AddressId":"193189757","RoadLinkId":"39073658"}}},{"Relevance":1.0,"Distance":80.7,"MatchLevel":"houseNumber","MatchQuality":{"Country":1.0,"State":1.0,"County":1.0,"City":1.0,"District":1.0,"Street":[1.0],"HouseNumber":1.0,"PostalCode":1.0},"MatchType":"interpolated","Location":{"LocationId":"NT_XLlZ.V5doq95qT5.JjydiA_zA","LocationType":"point","DisplayPosition":{"Latitude":51.03971,"Longitude":6.15174},"MapView":{"TopLeft":{"Latitude":51.0408342,"Longitude":6.1499522},"BottomRight":{"Latitude":51.0385858,"Longitude":6.1535278}},"Address":{"Label":"Uhlandstraße 3, 52525 Heinsberg, Deutschland","Country":"DEU","State":"Nordrhein-Westfalen","County":"Heinsberg","City":"Heinsberg","District":"Dremmen","Street":"Uhlandstraße","HouseNumber":"3","PostalCode":"52525","AdditionalData":[{"value":"Deutschland","key":"CountryName"},{"value":"Nordrhein-Westfalen","key":"StateName"},{"value":"Heinsberg","key":"CountyName"}]},"MapReference":{"ReferenceId":"77169220","Spot":0.66,"SideOfStreet":"right","CountryId":"20147700","StateId":"20157369","CountyId":"20158557","CityId":"20158598","DistrictId":"20158601","AddressId":"195686387","RoadLinkId":"39479364"}}},{"Relevance":1.0,"Distance":81.8,"MatchLevel":"houseNumber","MatchQuality":{"Country":1.0,"State":1.0,"County":1.0,"City":1.0,"District":1.0,"Street":[1.0],"HouseNumber":1.0,"PostalCode":1.0},"MatchType":"interpolated","Location":{"LocationId":"NT_hm-WxlDxni7fNrYV5YCGaC_yAD","LocationType":"point","DisplayPosition":{"Latitude":51.03856,"Longitude":6.15191},"MapView":{"TopLeft":{"Latitude":51.0396842,"Longitude":6.1501222},"BottomRight":{"Latitude":51.0374358,"Longitude":6.1536978}},"Address":{"Label":"An der Eiche 20, 52525 Heinsberg, Deutschland","Country":"DEU","State":"Nordrhein-Westfalen","County":"Heinsberg","City":"Heinsberg","District":"Dremmen","Street":"An der Eiche","HouseNumber":"20","PostalCode":"52525","AdditionalData":[{"value":"Deutschland","key":"CountryName"},{"value":"Nordrhein-Westfalen","key":"StateName"},{"value":"Heinsberg","key":"CountyName"}]},"MapReference":{"ReferenceId":"1256921687","Spot":0.99,"SideOfStreet":"right","CountryId":"20147700","StateId":"20157369","CountyId":"20158557","CityId":"20158598","DistrictId":"20158601","AddressId":"196725168","RoadLinkId":"580681660"}}},{"Relevance":1.0,"Distance":82.6,"MatchLevel":"street","MatchQuality":{"Country":1.0,"State":1.0,"County":1.0,"City":1.0,"District":1.0,"Street":[1.0],"PostalCode":1.0},"Location":{"LocationId":"NT_xpflQ.Cr1FX6edfkruWvdD_l_537816796_L","LocationType":"point","DisplayPosition":{"Latitude":51.0386,"Longitude":6.15193},"MapView":{"TopLeft":{"Latitude":51.03862,"Longitude":6.1509},"BottomRight":{"Latitude":51.03852,"Longitude":6.15193}},"Address":{"Label":"Erlenhang, 52525 Heinsberg, Deutschland","Country":"DEU","State":"Nordrhein-Westfalen","County":"Heinsberg","City":"Heinsberg","District":"Dremmen","Street":"Erlenhang","PostalCode":"52525","AdditionalData":[{"value":"Deutschland","key":"CountryName"},{"value":"Nordrhein-Westfalen","key":"StateName"},{"value":"Heinsberg","key":"CountyName"}]},"MapReference":{"ReferenceId":"537816796","Spot":1.0,"SideOfStreet":"left","CountryId":"20147700","StateId":"20157369","CountyId":"20158557","CityId":"20158598","DistrictId":"20158601"}}},{"Relevance":1.0,"Distance":90.4,"MatchLevel":"houseNumber","MatchQuality":{"Country":1.0,"State":1.0,"County":1.0,"City":1.0,"District":1.0,"Street":[1.0],"HouseNumber":1.0,"PostalCode":1.0},"MatchType":"interpolated","Location":{"LocationId":"NT_JSxQe2lMxRMrgyeHEEJbyA_xgD","LocationType":"point","DisplayPosition":{"Latitude":51.04004,"Longitude":6.15295},"MapView":{"TopLeft":{"Latitude":51.0411642,"Longitude":6.1511622},"BottomRight":{"Latitude":51.0389158,"Longitude":6.1547378}},"Address":{"Label":"Schillerstraße 18, 52525 Heinsberg, Deutschland","Country":"DEU","State":"Nordrhein-Westfalen","County":"Heinsberg","City":"Heinsberg","District":"Dremmen","Street":"Schillerstraße","HouseNumber":"18","PostalCode":"52525","AdditionalData":[{"value":"Deutschland","key":"CountryName"},{"value":"Nordrhein-Westfalen","key":"StateName"},{"value":"Heinsberg","key":"CountyName"}]},"MapReference":{"ReferenceId":"77170175","Spot":0.62,"SideOfStreet":"left","CountryId":"20147700","StateId":"20157369","CountyId":"20158557","CityId":"20158598","DistrictId":"20158601","AddressId":"196295627","RoadLinkId":"39364920"}}}]}]}}