{"Response":{"MetaInfo":{"Timestamp":"2020-03-28T11:42:30.205+0000","NextPageInformation":"2"},"View":[{"_type":"SearchResultsViewType","ViewId":0,"Result":[{"Relevance":1.0,"Distance":0.0,"Direction":0.0,"MatchLevel":"district","MatchQuality":{"Country":1.0,"State":1.0,"County":1.0,"City":1.0,"District":1.0,"PostalCode":1.0},"Location":{"LocationId":"NT_alBeAUxMt9x2Jcr4RPBnpB","LocationType":"point","DisplayPosition":{"Latitude":51.0883368,"Longitude":6.0318179},"MapView":{"TopLeft":{"Latitude":51.09693,"Longitude":6.00047},"BottomRight":{"Latitude":51.08152,"Longitude":6.05295}},"Address":{"Label":"Haaren, Waldfeucht, Nordrhein-Westfalen, Deutschland","Country":"DEU","State":"Nordrhein-Westfalen","County":"Heinsberg","City":"Waldfeucht","District":"Haaren","PostalCode":"52525","AdditionalData":[{"value":"Deutschland","key":"CountryName"},{"value":"Nordrhein-Westfalen","key":"StateName"},{"value":"Heinsberg","key":"CountyName"}]},"MapReference":{"ReferenceId":"77198012","SideOfStreet":"neither","CountryId":"20147700","StateId":"20157369","CountyId":"20158557","CityId":"20158641","DistrictId":"20158646"}}},{"Relevance":1.0,"Distance":4.2,"MatchLevel":"houseNumber","MatchQuality":{"Country":1.0,"State":1.0,"County":1.0,"City":1.0,"District":1.0,"Street":[1.0],"HouseNumber":1.0,"PostalCode":1.0},"MatchType":"interpolated","Location":{"LocationId":"NT_zMIGA1wY1xYJ5Nm7.HwGJD_zgD","LocationType":"point","DisplayPosition":{"Latitude":51.08816,"Longitude":6.032},"MapView":{"TopLeft":{"Latitude":51.0892842,"Longitude":6.0302103},"BottomRight":{"Latitude":51.0870358,"Longitude":6.0337897}},"Address":{"Label":"Johannesstraße 38, 52525 Waldfeucht, Deutschland","Country":"DEU","State":"Nordrhein-Westfalen","County":"Heinsberg","City":"Waldfeucht","District":"Haaren","Street":"Johannesstraße","HouseNumber":"38","PostalCode":"52525","AdditionalData":[{"value":"Deutschland","key":"CountryName"},{"value":"Nordrhein-Westfalen","key":"StateName"},{"value":"Heinsberg","key":"CountyName"}]},"MapReference":{"ReferenceId":"77198010","Spot":0.78,"SideOfStreet":"left","CountryId":"20147700","StateId":"20157369","CountyId":"20158557","CityId":"20158641","DistrictId":"20158646","AddressId":"196098915","RoadLinkId":"39089104"}}},{"Relevance":1.0,"Distance":38.5,"MatchLevel":"houseNumber","MatchQuality":{"Country":1.0,"State":1.0,"County":1.0,"City":1.0,"District":1.0,"Street":[1.0],"HouseNumber":1.0,"PostalCode":1.0},"MatchType":"interpolated","Location":{"LocationId":"NT_EBeiZGwvv-wZcpPzymqUMD_xcD","LocationType":"point","DisplayPosition":{"Latitude":51.0888,"Longitude":6.03149},"MapView":{"TopLeft":{"Latitude":51.0899242,"Longitude":6.0297003},"BottomRight":{"Latitude":51.0876758,"Longitude":6.0332797}},"Address":{"Label":"Konrad-Adenauer-Straße 17, 52525 Waldfeucht, Deutschland","Country":"DEU","State":"Nordrhein-Westfalen","County":"Heinsberg","City":"Waldfeucht","District":"Haaren","Street":"Konrad-Adenauer-Straße","HouseNumber":"17","PostalCode":"52525","AdditionalData":[{"value":"Deutschland","key":"CountryName"},{"value":"Nordrhein-Westfalen","key":"StateName"},{"value":"Heinsberg","key":"CountyName"}]},"MapReference":{"ReferenceId":"77197474","Spot":0.24,"SideOfStreet":"right","CountryId":"20147700","StateId":"20157369","CountyId":"20158557","CityId":"20158641","DistrictId":"20158646","AddressId":"193921441","RoadLinkId":"39307016"}}},{"Relevance":1.0,"Distance":50.9,"MatchLevel":"houseNumber","MatchQuality":{"Country":1.0,"State":1.0,"County":1.0,"City":1.0,"District":1.0,"Street":[1.0],"HouseNumber":1.0,"PostalCode":1.0},"MatchType":"interpolated","Location":{"LocationId":"NT_eA100auiKMCw1bnJ1pBi9C_xITQ","LocationType":"point","DisplayPosition":{"Latitude":51.08871,"Longitude":6.03262},"MapView":{"TopLeft":{"Latitude":51.0898342,"Longitude":6.0308303},"BottomRight":{"Latitude":51.0875858,"Longitude":6.0344097}},"Address":{"Label":"Elsweg 12A, 52525 Waldfeucht, Deutschland","Country":"DEU","State":"Nordrhein-Westfalen","County":"Heinsberg","City":"Waldfeucht","District":"Haaren","Street":"Elsweg","HouseNumber":"12A","PostalCode":"52525","AdditionalData":[{"value":"Deutschland","key":"CountryName"},{"value":"Nordrhein-Westfalen","key":"StateName"},{"value":"Heinsberg","key":"CountyName"}]},"MapReference":{"ReferenceId":"77198013","Spot":0.28,"SideOfStreet":"left","CountryId":"20147700","StateId":"20157369","CountyId":"20158557","CityId":"20158641","DistrictId":"20158646","AddressId":"196353384","RoadLinkId":"39345541"}}},{"Relevance":1.0,"Distance":71.2,"MatchLevel":"houseNumber","MatchQuality":{"Country":1.0,"State":1.0,"County":1.0,"City":1.0,"District":1.0,"Street":[1.0],"HouseNumber":1.0,"PostalCode":1.0},"MatchType":"interpolated","Location":{"LocationId":"NT_EBeiZGwvv-wZcpPzymqUMD_5A","LocationType":"point","DisplayPosition":{"Latitude":51.08882,"Longitude":6.03113},"MapView":{"TopLeft":{"Latitude":51.0899442,"Longitude":6.0293403},"BottomRight":{"Latitude":51.0876958,"Longitude":6.0329197}},"Address":{"Label":"Konrad-Adenauer-Straße 9, 52525 Waldfeucht, Deutschland","Country":"DEU","State":"Nordrhein-Westfalen","County":"Heinsberg","City":"Waldfeucht","District":"Haaren","Street":"Konrad-Adenauer-Straße","HouseNumber":"9","PostalCode":"52525","AdditionalData":[{"value":"Deutschland","key":"CountryName"},{"value":"Nordrhein-Westfalen","key":"StateName"},{"value":"Heinsberg","key":"CountyName"}]},"MapReference":{"ReferenceId":"77197495","Spot":0.15,"SideOfStreet":"right","CountryId":"20147700","StateId":"20157369","CountyId":"20158557","CityId":"20158641","DistrictId":"20158646","AddressId":"195104613","RoadLinkId":"39246580"}}},{"Relevance":1.0,"Distance":73.8,"MatchLevel":"houseNumber","MatchQuality":{"Country":1.0,"State":1.0,"County":1.0,"City":1.0,"District":1.0,"Street":[1.0],"HouseNumber":1.0,"PostalCode":1.0},"MatchType":"interpolated","Location":{"LocationId":"NT_eA100auiKMCw1bnJ1pBi9C_xIzQ","LocationType":"point","DisplayPosition":{"Latitude":51.08836,"Longitude":6.03303},"MapView":{"TopLeft":{"Latitude":51.0894842,"Longitude":6.0312403},"BottomRight":{"Latitude":51.0872358,"Longitude":6.0348197}},"Address":{"Label":"Elsweg 12C, 52525 Waldfeucht, Deutschland","Country":"DEU","State":"Nordrhein-Westfalen","County":"Heinsberg","City":"Waldfeucht","District":"Haaren","Street":"Elsweg","HouseNumber":"12C","PostalCode":"52525","AdditionalData":[{"value":"Deutschland","key":"CountryName"},{"value":"Nordrhein-Westfalen","key":"StateName"},{"value":"Heinsberg","key":"CountyName"}]},"MapReference":{"ReferenceId":"77197492","Spot":0.85,"SideOfStreet":"left","CountryId":"20147700","StateId":"20157369","CountyId":"20158557","CityId":"20158641","DistrictId":"20158646","AddressId":"194845718","RoadLinkId":"39069607"}}},{"Relevance":1.0,"Distance":80.3,"MatchLevel":"houseNumber","MatchQuality":{"Country":1.0,"State":1.0,"County":1.0,"City":1.0,"District":1.0,"Street":[1.0],"HouseNumber":1.0,"PostalCode":1.0},"MatchType":"interpolated","Location":{"LocationId":"NT_zMIGA1wY1xYJ5Nm7.HwGJD_zAD","LocationType":"point","DisplayPosition":{"Latitude":51.0886,"Longitude":6.03292},"MapView":{"TopLeft":{"Latitude":51.0897242,"Longitude":6.0311303},"BottomRight":{"Latitude":51.0874758,"Longitude":6.0347097}},"Address":{"Label":"Johannesstraße 30, 52525 Waldfeucht, Deutschland","Country":"DEU","State":"Nordrhein-Westfalen","County":"Heinsberg","City":"Waldfeucht","District":"Haaren","Street":"Johannesstraße","HouseNumber":"30","PostalCode":"52525","AdditionalData":[{"value":"Deutschland","key":"CountryName"},{"value":"Nordrhein-Westfalen","key":"StateName"},{"value":"Heinsberg","key":"CountyName"}]},"MapReference":{"ReferenceId":"77198014","Spot":0.12,"SideOfStreet":"left","CountryId":"20147700","StateId":"20157369","CountyId":"20158557","CityId":"20158641","DistrictId":"20158646","AddressId":"193150391","RoadLinkId":"39276992"}}},{"Relevance":1.0,"Distance":90.9,"MatchLevel":"houseNumber","MatchQuality":{"Country":1.0,"State":1.0,"County":1.0,"City":1.0,"District":1.0,"Street":[1.0],"HouseNumber":1.0,"PostalCode":1.0},"MatchType":"interpolated","Location":{"LocationId":"NT_EBeiZGwvv-wZcpPzymqUMD_ycD","LocationType":"point","DisplayPosition":{"Latitude":51.08839,"Longitude":6.0304},"MapView":{"TopLeft":{"Latitude":51.0895142,"Longitude":6.0286103},"BottomRight":{"Latitude":51.0872658,"Longitude":6.0321897}},"Address":{"Label":"Konrad-Adenauer-Straße 27, 52525 Waldfeucht, Deutschland","Country":"DEU","State":"Nordrhein-Westfalen","County":"Heinsberg","City":"Waldfeucht","District":"Haaren","Street":"Konrad-Adenauer-Straße","HouseNumber":"27","PostalCode":"52525","AdditionalData":[{"value":"Deutschland","key":"CountryName"},{"value":"Nordrhein-Westfalen","key":"StateName"},{"value":"Heinsberg","key":"CountyName"}]},"MapReference":{"ReferenceId":"77197381","Spot":0.28,"SideOfStreet":"right","CountryId":"20147700","StateId":"20157369","CountyId":"20158557","CityId":"20158641","DistrictId":"20158646","AddressId":"193039369","RoadLinkId":"39193076"}}},{"Relevance":1.0,"Distance":109.7,"MatchLevel":"houseNumber","MatchQuality":{"Country":1.0,"State":1.0,"County":1.0,"City":1.0,"District":1.0,"Street":[1.0],"HouseNumber":1.0,"PostalCode":1.0},"MatchType":"interpolated","Location":{"LocationId":"NT_eA100auiKMCw1bnJ1pBi9C_4A","LocationType":"point","DisplayPosition":{"Latitude":51.08941,"Longitude":6.0319},"MapView":{"TopLeft":{"Latitude":51.0905342,"Longitude":6.0301103},"BottomRight":{"Latitude":51.0882858,"Longitude":6.0336897}},"Address":{"Label":"Elsweg 8, 52525 Waldfeucht, Deutschland","Country":"DEU","State":"Nordrhein-Westfalen","County":"Heinsberg","City":"Waldfeucht","District":"Haaren","Street":"Elsweg","HouseNumber":"8","PostalCode":"52525","AdditionalData":[{"value":"Deutschland","key":"CountryName"},{"value":"Nordrhein-Westfalen","key":"StateName"},{"value":"Heinsberg","key":"CountyName"}]},"MapReference":{"ReferenceId":"537818449","Spot":0.26,"SideOfStreet":"left","CountryId":"20147700","StateId":"20157369","CountyId":"20158557","CityId":"20158641","DistrictId":"20158646","AddressId":"193021280","RoadLinkId":"39433783"}}},{"Relevance":1.0,"Distance":148.1,"MatchLevel":"houseNumber","MatchQuality":{"Country":1.0,"State":1.0,"County":1.0,"City":1.0,"District":1.0,"Street":[1.0],"HouseNumber":1.0,"PostalCode":1.0},"MatchType":"interpolated","Location":{"LocationId":"NT_MCW9C61J9DZ7mKvhLxzIDC_zgD","LocationType":"point","DisplayPosition":{"Latitude":51.08939,"Longitude":6.03007},"MapView":{"TopLeft":{"Latitude":51.0905142,"Longitude":6.0282803},"BottomRight":{"Latitude":51.0882658,"Longitude":6.0318597}},"Address":{"Label":"Im Pölert 38, 52525 Waldfeucht, Deutschland","Country":"DEU","State":"Nordrhein-Westfalen","County":"Heinsberg","City":"Waldfeucht","District":"Haaren","Street":"Im Pölert","HouseNumber":"38","PostalCode":"52525","AdditionalData":[{"value":"Deutschland","key":"CountryName"},{"value":"Nordrhein-Westfalen","key":"StateName"},{"value":"Heinsberg","key":"CountyName"}]},"MapReference":{"ReferenceId":"1036146025","Spot":0.86,"SideOfStreet":"right","CountryId":"20147700","StateId":"20157369","CountyId":"20158557","CityId":"20158641","DistrictId":"20158646","AddressId":"196045940","RoadLinkId":"358089528"}}}]}]}}