{"Response":{"MetaInfo":{"Timestamp":"2020-03-28T10:04:30.238+0000","NextPageInformation":"2"},"View":[{"_type":"SearchResultsViewType","ViewId":0,"Result":[{"Relevance":1.0,"Distance":0.0,"Direction":0.0,"MatchLevel":"district","MatchQuality":{"Country":1.0,"State":1.0,"County":1.0,"City":1.0,"District":1.0,"PostalCode":1.0},"Location":{"LocationId":"NT_8.kWPPfh3hBbso8eD0lKcA","LocationType":"point","DisplayPosition":{"Latitude":51.084136,"Longitude":6.3218099},"MapView":{"TopLeft":{"Latitude":51.0935,"Longitude":6.29206},"BottomRight":{"Latitude":51.059,"Longitude":6.33829}},"Address":{"Label":"Erkelenz, Nordrhein-Westfalen, Deutschland","Country":"DEU","State":"Nordrhein-Westfalen","County":"Heinsberg","City":"Erkelenz","District":"Erkelenz","PostalCode":"41812","AdditionalData":[{"value":"Deutschland","key":"CountryName"},{"value":"Nordrhein-Westfalen","key":"StateName"},{"value":"Heinsberg","key":"CountyName"}]},"MapReference":{"ReferenceId":"537853765","SideOfStreet":"neither","CountryId":"20147700","StateId":"20157369","CountyId":"20158557","CityId":"20158558","DistrictId":"20158574"}}},{"Relevance":1.0,"Distance":12.8,"MatchLevel":"houseNumber","MatchQuality":{"Country":1.0,"State":1.0,"County":1.0,"City":1.0,"District":1.0,"Street":[1.0],"HouseNumber":1.0,"PostalCode":1.0},"MatchType":"interpolated","Location":{"LocationId":"NT_KLPaDlMqqbQTa5s3-C2lcB_zcD","LocationType":"point","DisplayPosition":{"Latitude":51.08393,"Longitude":6.322},"MapView":{"TopLeft":{"Latitude":51.0850542,"Longitude":6.3202105},"BottomRight":{"Latitude":51.0828058,"Longitude":6.3237895}},"Address":{"Label":"Baumschulweg 37, 41812 Erkelenz, Deutschland","Country":"DEU","State":"Nordrhein-Westfalen","County":"Heinsberg","City":"Erkelenz","District":"Erkelenz","Street":"Baumschulweg","HouseNumber":"37","PostalCode":"41812","AdditionalData":[{"value":"Deutschland","key":"CountryName"},{"value":"Nordrhein-Westfalen","key":"StateName"},{"value":"Heinsberg","key":"CountyName"}]},"MapReference":{"ReferenceId":"77200589","Spot":0.28,"SideOfStreet":"left","CountryId":"20147700","StateId":"20157369","CountyId":"20158557","CityId":"20158558","DistrictId":"20158574","AddressId":"196474842","RoadLinkId":"39286078"}}},{"Relevance":1.0,"Distance":32.7,"MatchLevel":"houseNumber","MatchQuality":{"Country":1.0,"State":1.0,"County":1.0,"City":1.0,"District":1.0,"Street":[1.0],"HouseNumber":1.0,"PostalCode":1.0},"MatchType":"interpolated","Location":{"LocationId":"NT_nZI8agZBzwh1UZBw6RcU5D_1ID","LocationType":"point","DisplayPosition":{"Latitude":51.08473,"Longitude":6.32195},"MapView":{"TopLeft":{"Latitude":51.0858542,"Longitude":6.3201604},"BottomRight":{"Latitude":51.0836058,"Longitude":6.3237396}},"Address":{"Label":"Oestricher Straße 52, 41812 Erkelenz, Deutschland","Country":"DEU","State":"Nordrhein-Westfalen","County":"Heinsberg","City":"Erkelenz","District":"Erkelenz","Street":"Oestricher Straße","HouseNumber":"52","PostalCode":"41812","AdditionalData":[{"value":"Deutschland","key":"CountryName"},{"value":"Nordrhein-Westfalen","key":"StateName"},{"value":"Heinsberg","key":"CountyName"}]},"MapReference":{"ReferenceId":"77200463","Spot":0.65,"SideOfStreet":"right","CountryId":"20147700","StateId":"20157369","CountyId":"20158557","CityId":"20158558","DistrictId":"20158574","AddressId":"195966528","RoadLinkId":"39176358"}}},{"Relevance":1.0,"Distance":45.6,"MatchLevel":"houseNumber","MatchQuality":{"Country":1.0,"State":1.0,"County":1.0,"City":1.0,"District":1.0,"Street":[1.0],"HouseNumber":1.0,"PostalCode":1.0},"MatchType":"interpolated","Location":{"LocationId":"NT_nZI8agZBzwh1UZBw6RcU5D_1YjQ","LocationType":"point","DisplayPosition":{"Latitude":51.08462,"Longitude":6.32136},"MapView":{"TopLeft":{"Latitude":51.0857442,"Longitude":6.3195704},"BottomRight":{"Latitude":51.0834958,"Longitude":6.3231496}},"Address":{"Label":"Oestricher Straße 56B, 41812 Erkelenz, Deutschland","Country":"DEU","State":"Nordrhein-Westfalen","County":"Heinsberg","City":"Erkelenz","District":"Erkelenz","Street":"Oestricher Straße","HouseNumber":"56B","PostalCode":"41812","AdditionalData":[{"value":"Deutschland","key":"CountryName"},{"value":"Nordrhein-Westfalen","key":"StateName"},{"value":"Heinsberg","key":"CountyName"}]},"MapReference":{"ReferenceId":"77200531","Spot":0.97,"SideOfStreet":"right","CountryId":"20147700","StateId":"20157369","CountyId":"20158557","CityId":"20158558","DistrictId":"20158574","AddressId":"192979366","RoadLinkId":"39097040"}}},{"Relevance":1.0,"Distance":67.8,"MatchLevel":"houseNumber","MatchQuality":{"Country":1.0,"State":1.0,"County":1.0,"City":1.0,"District":1.0,"Street":[1.0],"HouseNumber":1.0,"PostalCode":1.0},"MatchType":"interpolated","Location":{"LocationId":"NT_nZI8agZBzwh1UZBw6RcU5D_0AD","LocationType":"point","DisplayPosition":{"Latitude":51.08478,"Longitude":6.32237},"MapView":{"TopLeft":{"Latitude":51.0859042,"Longitude":6.3205804},"BottomRight":{"Latitude":51.0836558,"Longitude":6.3241596}},"Address":{"Label":"Oestricher Straße 40, 41812 Erkelenz, Deutschland","Country":"DEU","State":"Nordrhein-Westfalen","County":"Heinsberg","City":"Erkelenz","District":"Erkelenz","Street":"Oestricher Straße","HouseNumber":"40","PostalCode":"41812","AdditionalData":[{"value":"Deutschland","key":"CountryName"},{"value":"Nordrhein-Westfalen","key":"StateName"},{"value":"Heinsberg","key":"CountyName"}]},"MapReference":{"ReferenceId":"77200457","Spot":0.94,"SideOfStreet":"left","CountryId":"20147700","StateId":"20157369","CountyId":"20158557","CityId":"20158558","DistrictId":"20158574","AddressId":"194151334","RoadLinkId":"39170402"}}},{"Relevance":1.0,"Distance":71.4,"MatchLevel":"houseNumber","MatchQuality":{"Country":1.0,"State":1.0,"County":1.0,"City":1.0,"District":1.0,"Street":[1.0],"HouseNumber":1.0,"PostalCode":1.0},"MatchType":"interpolated","Location":{"LocationId":"NT_LDMRILpheOKEm4ElyAH6VC_1kTQ","LocationType":"point","DisplayPosition":{"Latitude":51.08376,"Longitude":6.32078},"MapView":{"TopLeft":{"Latitude":51.0848842,"Longitude":6.3189905},"BottomRight":{"Latitude":51.0826358,"Longitude":6.3225695}},"Address":{"Label":"Anton-Heinen-Straße 59A, 41812 Erkelenz, Deutschland","Country":"DEU","State":"Nordrhein-Westfalen","County":"Heinsberg","City":"Erkelenz","District":"Erkelenz","Street":"Anton-Heinen-Straße","HouseNumber":"59A","PostalCode":"41812","AdditionalData":[{"value":"Deutschland","key":"CountryName"},{"value":"Nordrhein-Westfalen","key":"StateName"},{"value":"Heinsberg","key":"CountyName"}]},"MapReference":{"ReferenceId":"77200451","Spot":0.21,"SideOfStreet":"right","CountryId":"20147700","StateId":"20157369","CountyId":"20158557","CityId":"20158558","DistrictId":"20158574","AddressId":"195271041","RoadLinkId":"39220142"}}},{"Relevance":1.0,"Distance":72.9,"MatchLevel":"houseNumber","MatchQuality":{"Country":1.0,"State":1.0,"County":1.0,"City":1.0,"District":1.0,"Street":[1.0],"HouseNumber":1.0,"PostalCode":1.0},"MatchType":"interpolated","Location":{"LocationId":"NT_LDMRILpheOKEm4ElyAH6VC_1kD","LocationType":"point","DisplayPosition":{"Latitude":51.08347,"Longitude":6.32117},"MapView":{"TopLeft":{"Latitude":51.0845942,"Longitude":6.3193805},"BottomRight":{"Latitude":51.0823458,"Longitude":6.3229595}},"Address":{"Label":"Anton-Heinen-Straße 59, 41812 Erkelenz, Deutschland","Country":"DEU","State":"Nordrhein-Westfalen","County":"Heinsberg","City":"Erkelenz","District":"Erkelenz","Street":"Anton-Heinen-Straße","HouseNumber":"59","PostalCode":"41812","AdditionalData":[{"value":"Deutschland","key":"CountryName"},{"value":"Nordrhein-Westfalen","key":"StateName"},{"value":"Heinsberg","key":"CountyName"}]},"MapReference":{"ReferenceId":"77200479","Spot":0.85,"SideOfStreet":"right","CountryId":"20147700","StateId":"20157369","CountyId":"20158557","CityId":"20158558","DistrictId":"20158574","AddressId":"194774529","RoadLinkId":"39199766"}}},{"Relevance":1.0,"Distance":101.5,"MatchLevel":"houseNumber","MatchQuality":{"Country":1.0,"State":1.0,"County":1.0,"City":1.0,"District":1.0,"Street":[1.0],"HouseNumber":1.0,"PostalCode":1.0},"MatchType":"interpolated","Location":{"LocationId":"NT_DaiTu5AHknfhPhWolbQVcC_yA","LocationType":"point","DisplayPosition":{"Latitude":51.08497,"Longitude":6.32119},"MapView":{"TopLeft":{"Latitude":51.0860942,"Longitude":6.3194004},"BottomRight":{"Latitude":51.0838458,"Longitude":6.3229796}},"Address":{"Label":"Oestricher Maar 2, 41812 Erkelenz, Deutschland","Country":"DEU","State":"Nordrhein-Westfalen","County":"Heinsberg","City":"Erkelenz","District":"Erkelenz","Street":"Oestricher Maar","HouseNumber":"2","PostalCode":"41812","AdditionalData":[{"value":"Deutschland","key":"CountryName"},{"value":"Nordrhein-Westfalen","key":"StateName"},{"value":"Heinsberg","key":"CountyName"}]},"MapReference":{"ReferenceId":"77200468","Spot":0.43,"SideOfStreet":"right","CountryId":"20147700","StateId":"20157369","CountyId":"20158557","CityId":"20158558","DistrictId":"20158574","AddressId":"195280512","RoadLinkId":"39520866"}}},{"Relevance":1.0,"Distance":102.2,"MatchLevel":"houseNumber","MatchQuality":{"Country":1.0,"State":1.0,"County":1.0,"City":1.0,"District":1.0,"Street":[1.0],"HouseNumber":1.0,"PostalCode":1.0},"MatchType":"interpolated","Location":{"LocationId":"NT_xL4N1YUWVg.6w7WagTiy-B_0A","LocationType":"point","DisplayPosition":{"Latitude":51.08507,"Longitude":6.32217},"MapView":{"TopLeft":{"Latitude":51.0861942,"Longitude":6.3203804},"BottomRight":{"Latitude":51.0839458,"Longitude":6.3239596}},"Address":{"Label":"In den Gärten 4, 41812 Erkelenz, Deutschland","Country":"DEU","State":"Nordrhein-Westfalen","County":"Heinsberg","City":"Erkelenz","District":"Erkelenz","Street":"In den Gärten","HouseNumber":"4","PostalCode":"41812","AdditionalData":[{"value":"Deutschland","key":"CountryName"},{"value":"Nordrhein-Westfalen","key":"StateName"},{"value":"Heinsberg","key":"CountyName"}]},"MapReference":{"ReferenceId":"77200547","Spot":0.25,"SideOfStreet":"left","CountryId":"20147700","StateId":"20157369","CountyId":"20158557","CityId":"20158558","DistrictId":"20158574","AddressId":"194924173","RoadLinkId":"39162589"}}},{"Relevance":1.0,"Distance":121.5,"MatchLevel":"houseNumber","MatchQuality":{"Country":1.0,"State":1.0,"County":1.0,"City":1.0,"District":1.0,"Street":[1.0],"HouseNumber":1.0,"PostalCode":1.0},"MatchType":"interpolated","Location":{"LocationId":"NT_XBne1HrffywzS2mSBniPpC_3QD","LocationType":"point","DisplayPosition":{"Latitude":51.08297,"Longitude":6.32228},"MapView":{"TopLeft":{"Latitude":51.0840942,"Longitude":6.3204905},"BottomRight":{"Latitude":51.0818458,"Longitude":6.3240695}},"Address":{"Label":"Brückstraße 74, 41812 Erkelenz, Deutschland","Country":"DEU","State":"Nordrhein-Westfalen","County":"Heinsberg","City":"Erkelenz","District":"Erkelenz","Street":"Brückstraße","HouseNumber":"74","PostalCode":"41812","AdditionalData":[{"value":"Deutschland","key":"CountryName"},{"value":"Nordrhein-Westfalen","key":"StateName"},{"value":"Heinsberg","key":"CountyName"}]},"MapReference":{"ReferenceId":"77200473","Spot":0.12,"SideOfStreet":"left","CountryId":"20147700","StateId":"20157369","CountyId":"20158557","CityId":"20158558","DistrictId":"20158574","AddressId":"195355951","RoadLinkId":"39282341"}}}]}]}}