{"Response":{"MetaInfo":{"Timestamp":"2020-03-28T10:52:21.091+0000","NextPageInformation":"2"},"View":[{"_type":"SearchResultsViewType","ViewId":0,"Result":[{"Relevance":1.0,"Distance":-3.6,"MatchLevel":"landmark","MatchQuality":{"Country":1.0,"State":1.0,"County":1.0,"City":1.0,"District":1.0,"Street":[1.0],"HouseNumber":1.0,"PostalCode":1.0,"Name":1.0},"Location":{"LocationId":"NT_KPtvs2g2xrevuPG7GPbmqB_p_iSVFd2uvfwKCfpHLCCOkXD","LocationType":"hospital","Name":"C.A.Z. Midden-Limburg-St-Franciscus","DisplayPosition":{"Latitude":51.0472,"Longitude":5.31404},"MapView":{"TopLeft":{"Latitude":51.0483242,"Longitude":5.3122519},"BottomRight":{"Latitude":51.0460758,"Longitude":5.3158281}},"Address":{"Label":"Pastoor Paquaylaan 129, 3550 Heusden-Zolder, België","Country":"BEL","State":"Vlaanderen","County":"Limburg","City":"Heusden-Zolder","District":"Heusden","Street":"Pastoor Paquaylaan","HouseNumber":"129","PostalCode":"3550","AdditionalData":[{"value":"België","key":"CountryName"},{"value":"Vlaanderen","key":"StateName"},{"value":"Limburg","key":"CountyName"}]},"MapReference":{"CountryId":"20128886","StateId":"20204377","CountyId":"20206676","CityId":"20206783","DistrictId":"20206785","PlaceId":"50747770"}}},{"Relevance":1.0,"Distance":0.0,"Direction":0.0,"MatchLevel":"district","MatchQuality":{"Country":1.0,"State":1.0,"County":1.0,"City":1.0,"District":1.0,"PostalCode":1.0},"Location":{"LocationId":"NT_DknUd9qrNtuayTDdgvnU4C","LocationType":"point","DisplayPosition":{"Latitude":51.0478431,"Longitude":5.3154042},"MapView":{"TopLeft":{"Latitude":51.05601,"Longitude":5.25672},"BottomRight":{"Latitude":51.0229,"Longitude":5.34737}},"Address":{"Label":"Heusden, Heusden-Zolder, Vlaanderen, België","Country":"BEL","State":"Vlaanderen","County":"Limburg","City":"Heusden-Zolder","District":"Heusden","PostalCode":"3550","AdditionalData":[{"value":"België","key":"CountryName"},{"value":"Vlaanderen","key":"StateName"},{"value":"Limburg","key":"CountyName"}]},"MapReference":{"ReferenceId":"580387813","SideOfStreet":"neither","CountryId":"20128886","StateId":"20204377","CountyId":"20206676","CityId":"20206783","DistrictId":"20206785"}}},{"Relevance":1.0,"Distance":5.8,"MatchLevel":"houseNumber","MatchQuality":{"Country":1.0,"State":1.0,"County":1.0,"City":1.0,"District":1.0,"Street":[1.0],"HouseNumber":1.0,"PostalCode":1.0},"MatchType":"interpolated","Location":{"LocationId":"NT_wVHnwxmQiXU9VvO82u2zsB_yIzN","LocationType":"point","DisplayPosition":{"Latitude":51.04789,"Longitude":5.31544},"MapView":{"TopLeft":{"Latitude":51.0490142,"Longitude":5.3136519},"BottomRight":{"Latitude":51.0467658,"Longitude":5.3172281}},"Address":{"Label":"Schansstraat 227, 3550 Heusden-Zolder, België","Country":"BEL","State":"Vlaanderen","County":"Limburg","City":"Heusden-Zolder","District":"Heusden","Street":"Schansstraat","HouseNumber":"227","PostalCode":"3550","AdditionalData":[{"value":"België","key":"CountryName"},{"value":"Vlaanderen","key":"StateName"},{"value":"Limburg","key":"CountyName"}]},"MapReference":{"ReferenceId":"580431422","Spot":0.43,"SideOfStreet":"left","CountryId":"20128886","StateId":"20204377","CountyId":"20206676","CityId":"20206783","DistrictId":"20206785","AddressId":"399759910","RoadLinkId":"30713922"}}},{"Relevance":1.0,"Distance":41.7,"MatchLevel":"houseNumber","MatchQuality":{"Country":1.0,"State":1.0,"County":1.0,"City":1.0,"District":1.0,"Street":[1.0],"HouseNumber":1.0,"PostalCode":1.0},"MatchType":"interpolated","Location":{"LocationId":"NT_wVHnwxmQiXU9VvO82u2zsB_yITN","LocationType":"point","DisplayPosition":{"Latitude":51.04769,"Longitude":5.31486},"MapView":{"TopLeft":{"Latitude":51.0488142,"Longitude":5.3130719},"BottomRight":{"Latitude":51.0465658,"Longitude":5.3166481}},"Address":{"Label":"Schansstraat 225, 3550 Heusden-Zolder, België","Country":"BEL","State":"Vlaanderen","County":"Limburg","City":"Heusden-Zolder","District":"Heusden","Street":"Schansstraat","HouseNumber":"225","PostalCode":"3550","AdditionalData":[{"value":"België","key":"CountryName"},{"value":"Vlaanderen","key":"StateName"},{"value":"Limburg","key":"CountyName"}]},"MapReference":{"ReferenceId":"1038811080","Spot":0.67,"SideOfStreet":"left","CountryId":"20128886","StateId":"20204377","CountyId":"20206676","CityId":"20206783","DistrictId":"20206785","AddressId":"401687007","RoadLinkId":"360634228"}}},{"Relevance":1.0,"Distance":73.4,"MatchLevel":"houseNumber","MatchQuality":{"Country":1.0,"State":1.0,"County":1.0,"City":1.0,"District":1.0,"Street":[1.0],"HouseNumber":1.0,"PostalCode":1.0},"MatchType":"interpolated","Location":{"LocationId":"NT_fistLgvFLBM4I.MxW7GBnC_xITO","LocationType":"point","DisplayPosition":{"Latitude":51.04673,"Longitude":5.31555},"MapView":{"TopLeft":{"Latitude":51.0478542,"Longitude":5.3137619},"BottomRight":{"Latitude":51.0456058,"Longitude":5.3173381}},"Address":{"Label":"Pastoor Paquaylaan 129, 3550 Heusden-Zolder, België","Country":"BEL","State":"Vlaanderen","County":"Limburg","City":"Heusden-Zolder","District":"Heusden","Street":"Pastoor Paquaylaan","HouseNumber":"129","PostalCode":"3550","AdditionalData":[{"value":"België","key":"CountryName"},{"value":"Vlaanderen","key":"StateName"},{"value":"Limburg","key":"CountyName"}]},"MapReference":{"ReferenceId":"1038811081","Spot":0.0,"SideOfStreet":"right","CountryId":"20128886","StateId":"20204377","CountyId":"20206676","CityId":"20206783","DistrictId":"20206785","AddressId":"626304057","RoadLinkId":"360634229"}}},{"Relevance":1.0,"Distance":85.4,"MatchLevel":"houseNumber","MatchQuality":{"Country":1.0,"State":1.0,"County":1.0,"City":1.0,"District":1.0,"Street":[1.0],"HouseNumber":1.0,"PostalCode":1.0},"MatchType":"interpolated","Location":{"LocationId":"NT_wVHnwxmQiXU9VvO82u2zsB_yADO","LocationType":"point","DisplayPosition":{"Latitude":51.04824,"Longitude":5.31645},"MapView":{"TopLeft":{"Latitude":51.0493642,"Longitude":5.3146618},"BottomRight":{"Latitude":51.0471158,"Longitude":5.3182382}},"Address":{"Label":"Schansstraat 208, 3550 Heusden-Zolder, België","Country":"BEL","State":"Vlaanderen","County":"Limburg","City":"Heusden-Zolder","District":"Heusden","Street":"Schansstraat","HouseNumber":"208","PostalCode":"3550","AdditionalData":[{"value":"België","key":"CountryName"},{"value":"Vlaanderen","key":"StateName"},{"value":"Limburg","key":"CountyName"}]},"MapReference":{"ReferenceId":"68196876","Spot":0.34,"SideOfStreet":"right","CountryId":"20128886","StateId":"20204377","CountyId":"20206676","CityId":"20206783","DistrictId":"20206785","AddressId":"400339470","RoadLinkId":"30573481"}}},{"Relevance":1.0,"Distance":88.5,"MatchLevel":"street","MatchQuality":{"Country":1.0,"State":1.0,"County":1.0,"City":1.0,"District":1.0,"Street":[1.0],"PostalCode":1.0},"Location":{"LocationId":"NT_wVHnwxmQiXU9VvO82u2zsB_l_1038811079_R","LocationType":"point","DisplayPosition":{"Latitude":51.04749,"Longitude":5.31427},"MapView":{"TopLeft":{"Latitude":51.04749,"Longitude":5.31365},"BottomRight":{"Latitude":51.04727,"Longitude":5.31427}},"Address":{"Label":"Schansstraat, 3550 Heusden-Zolder, België","Country":"BEL","State":"Vlaanderen","County":"Limburg","City":"Heusden-Zolder","District":"Heusden","Street":"Schansstraat","PostalCode":"3550","AdditionalData":[{"value":"België","key":"CountryName"},{"value":"Vlaanderen","key":"StateName"},{"value":"Limburg","key":"CountyName"}]},"MapReference":{"ReferenceId":"1038811079","Spot":1.0,"SideOfStreet":"right","CountryId":"20128886","StateId":"20204377","CountyId":"20206676","CityId":"20206783","DistrictId":"20206785"}}},{"Relevance":1.0,"Distance":106.8,"MatchLevel":"houseNumber","MatchQuality":{"Country":1.0,"State":1.0,"County":1.0,"City":1.0,"District":1.0,"Street":[1.0],"HouseNumber":1.0,"PostalCode":1.0},"MatchType":"interpolated","Location":{"LocationId":"NT_Uo6RqJTyhE59Z3-pymxxND_zYD","LocationType":"point","DisplayPosition":{"Latitude":51.04736,"Longitude":5.31354},"MapView":{"TopLeft":{"Latitude":51.0484842,"Longitude":5.3117519},"BottomRight":{"Latitude":51.0462358,"Longitude":5.3153281}},"Address":{"Label":"Grauwzustersstraat 36, 3550 Heusden-Zolder, België","Country":"BEL","State":"Vlaanderen","County":"Limburg","City":"Heusden-Zolder","District":"Heusden","Street":"Grauwzustersstraat","HouseNumber":"36","PostalCode":"3550","AdditionalData":[{"value":"België","key":"CountryName"},{"value":"Vlaanderen","key":"StateName"},{"value":"Limburg","key":"CountyName"}]},"MapReference":{"ReferenceId":"59731866","Spot":0.1,"SideOfStreet":"right","CountryId":"20128886","StateId":"20204377","CountyId":"20206676","CityId":"20206783","DistrictId":"20206785","AddressId":"626352641","RoadLinkId":"30299644"}}},{"Relevance":1.0,"Distance":121.8,"MatchLevel":"houseNumber","MatchQuality":{"Country":1.0,"State":1.0,"County":1.0,"City":1.0,"District":1.0,"Street":[1.0],"HouseNumber":1.0,"PostalCode":1.0},"MatchType":"interpolated","Location":{"LocationId":"NT_yoLFRHPFyqm7rgdKPJhfDC_1QD","LocationType":"point","DisplayPosition":{"Latitude":51.04889,"Longitude":5.31427},"MapView":{"TopLeft":{"Latitude":51.0500142,"Longitude":5.3124818},"BottomRight":{"Latitude":51.0477658,"Longitude":5.3160582}},"Address":{"Label":"De Lobbert 54, 3550 Heusden-Zolder, België","Country":"BEL","State":"Vlaanderen","County":"Limburg","City":"Heusden-Zolder","District":"Heusden","Street":"De Lobbert","HouseNumber":"54","PostalCode":"3550","AdditionalData":[{"value":"België","key":"CountryName"},{"value":"Vlaanderen","key":"StateName"},{"value":"Limburg","key":"CountyName"}]},"MapReference":{"ReferenceId":"59731910","Spot":0.47,"SideOfStreet":"right","CountryId":"20128886","StateId":"20204377","CountyId":"20206676","CityId":"20206783","DistrictId":"20206785","AddressId":"400914485","RoadLinkId":"30883246"}}},{"Relevance":1.0,"Distance":122.2,"MatchLevel":"houseNumber","MatchQuality":{"Country":1.0,"State":1.0,"County":1.0,"City":1.0,"District":1.0,"Street":[1.0],"HouseNumber":1.0,"PostalCode":1.0},"MatchType":"interpolated","Location":{"LocationId":"NT_yoLFRHPFyqm7rgdKPJhfDC_1AD","LocationType":"point","DisplayPosition":{"Latitude":51.0487,"Longitude":5.31385},"MapView":{"TopLeft":{"Latitude":51.0498242,"Longitude":5.3120618},"BottomRight":{"Latitude":51.0475758,"Longitude":5.3156382}},"Address":{"Label":"De Lobbert 50, 3550 Heusden-Zolder, België","Country":"BEL","State":"Vlaanderen","County":"Limburg","City":"Heusden-Zolder","District":"Heusden","Street":"De Lobbert","HouseNumber":"50","PostalCode":"3550","AdditionalData":[{"value":"België","key":"CountryName"},{"value":"Vlaanderen","key":"StateName"},{"value":"Limburg","key":"CountyName"}]},"MapReference":{"ReferenceId":"580427583","Spot":0.81,"SideOfStreet":"right","CountryId":"20128886","StateId":"20204377","CountyId":"20206676","CityId":"20206783","DistrictId":"20206785","AddressId":"401462576","RoadLinkId":"30443165"}}}]}]}}