{"Response":{"MetaInfo":{"Timestamp":"2020-03-28T10:23:52.122+0000","NextPageInformation":"2"},"View":[{"_type":"SearchResultsViewType","ViewId":0,"Result":[{"Relevance":1.0,"Distance":0.0,"Direction":0.0,"MatchLevel":"district","MatchQuality":{"Country":1.0,"State":1.0,"County":1.0,"City":1.0,"District":1.0,"PostalCode":1.0},"Location":{"LocationId":"NT_4M3EhogtFjOGeTKAY.fiDB","LocationType":"point","DisplayPosition":{"Latitude":51.0554974,"Longitude":7.5415697},"MapView":{"TopLeft":{"Latitude":51.06564,"Longitude":7.52934},"BottomRight":{"Latitude":51.05232,"Longitude":7.54551}},"Address":{"Label":"Kotthausen, Marienheide, Nordrhein-Westfalen, Deutschland","Country":"DEU","State":"Nordrhein-Westfalen","County":"Oberbergischer Kreis","City":"Marienheide","District":"Kotthausen","PostalCode":"51709","AdditionalData":[{"value":"Deutschland","key":"CountryName"},{"value":"Nordrhein-Westfalen","key":"StateName"},{"value":"Oberbergischer Kreis","key":"CountyName"}]},"MapReference":{"ReferenceId":"536993742","SideOfStreet":"neither","CountryId":"20147700","StateId":"20157369","CountyId":"20158671","CityId":"20158718","DistrictId":"20158723"}}},{"Relevance":1.0,"Distance":2.8,"MatchLevel":"houseNumber","MatchQuality":{"Country":1.0,"State":1.0,"County":1.0,"City":1.0,"District":1.0,"Street":[1.0],"HouseNumber":1.0,"PostalCode":1.0},"MatchType":"interpolated","Location":{"LocationId":"NT_W-RwXMzu.WAoCV76-Z.qYA_2A","LocationType":"point","DisplayPosition":{"Latitude":51.05522,"Longitude":7.54152},"MapView":{"TopLeft":{"Latitude":51.0563442,"Longitude":7.5397316},"BottomRight":{"Latitude":51.0540958,"Longitude":7.5433084}},"Address":{"Label":"Herreshagener Straße 6, 51709 Marienheide, Deutschland","Country":"DEU","State":"Nordrhein-Westfalen","County":"Oberbergischer Kreis","City":"Marienheide","District":"Kotthausen","Street":"Herreshagener Straße","HouseNumber":"6","PostalCode":"51709","AdditionalData":[{"value":"Deutschland","key":"CountryName"},{"value":"Nordrhein-Westfalen","key":"StateName"},{"value":"Oberbergischer Kreis","key":"CountyName"}]},"MapReference":{"ReferenceId":"536993747","Spot":0.74,"SideOfStreet":"right","CountryId":"20147700","StateId":"20157369","CountyId":"20158671","CityId":"20158718","DistrictId":"20158723","AddressId":"193968168","RoadLinkId":"39003742"}}},{"Relevance":1.0,"Distance":30.1,"MatchLevel":"houseNumber","MatchQuality":{"Country":1.0,"State":1.0,"County":1.0,"City":1.0,"District":1.0,"Street":[1.0],"HouseNumber":1.0,"PostalCode":1.0},"MatchType":"interpolated","Location":{"LocationId":"NT_W-RwXMzu.WAoCV76-Z.qYA_4A","LocationType":"point","DisplayPosition":{"Latitude":51.05522,"Longitude":7.54121},"MapView":{"TopLeft":{"Latitude":51.0563442,"Longitude":7.5394216},"BottomRight":{"Latitude":51.0540958,"Longitude":7.5429984}},"Address":{"Label":"Herreshagener Straße 8, 51709 Marienheide, Deutschland","Country":"DEU","State":"Nordrhein-Westfalen","County":"Oberbergischer Kreis","City":"Marienheide","District":"Kotthausen","Street":"Herreshagener Straße","HouseNumber":"8","PostalCode":"51709","AdditionalData":[{"value":"Deutschland","key":"CountryName"},{"value":"Nordrhein-Westfalen","key":"StateName"},{"value":"Oberbergischer Kreis","key":"CountyName"}]},"MapReference":{"ReferenceId":"773920062","Spot":0.87,"SideOfStreet":"left","CountryId":"20147700","StateId":"20157369","CountyId":"20158671","CityId":"20158718","DistrictId":"20158723","AddressId":"196279735","RoadLinkId":"167602347"}}},{"Relevance":1.0,"Distance":36.1,"MatchLevel":"houseNumber","MatchQuality":{"Country":1.0,"State":1.0,"County":1.0,"City":1.0,"District":1.0,"Street":[1.0],"HouseNumber":1.0,"PostalCode":1.0},"MatchType":"interpolated","Location":{"LocationId":"NT_bY-VoMtlnYn3U2mHoMnncA_zA","LocationType":"point","DisplayPosition":{"Latitude":51.05563,"Longitude":7.54207},"MapView":{"TopLeft":{"Latitude":51.0567542,"Longitude":7.5402816},"BottomRight":{"Latitude":51.0545058,"Longitude":7.5438584}},"Address":{"Label":"Igelweg 3, 51709 Marienheide, Deutschland","Country":"DEU","State":"Nordrhein-Westfalen","County":"Oberbergischer Kreis","City":"Marienheide","District":"Kotthausen","Street":"Igelweg","HouseNumber":"3","PostalCode":"51709","AdditionalData":[{"value":"Deutschland","key":"CountryName"},{"value":"Nordrhein-Westfalen","key":"StateName"},{"value":"Oberbergischer Kreis","key":"CountyName"}]},"MapReference":{"ReferenceId":"536993741","Spot":0.33,"SideOfStreet":"left","CountryId":"20147700","StateId":"20157369","CountyId":"20158671","CityId":"20158718","DistrictId":"20158723","AddressId":"622142588","RoadLinkId":"39433706"}}},{"Relevance":1.0,"Distance":52.6,"MatchLevel":"houseNumber","MatchQuality":{"Country":1.0,"State":1.0,"County":1.0,"City":1.0,"District":1.0,"Street":[1.0],"HouseNumber":1.0,"PostalCode":1.0},"MatchType":"interpolated","Location":{"LocationId":"NT_7C8Gc0n8qA7zmPTOr4bVGB_zA","LocationType":"point","DisplayPosition":{"Latitude":51.05542,"Longitude":7.5425},"MapView":{"TopLeft":{"Latitude":51.0565442,"Longitude":7.5407116},"BottomRight":{"Latitude":51.0542958,"Longitude":7.5442884}},"Address":{"Label":"Gimborner Straße 3, 51709 Marienheide, Deutschland","Country":"DEU","State":"Nordrhein-Westfalen","County":"Oberbergischer Kreis","City":"Marienheide","District":"Kotthausen","Street":"Gimborner Straße","HouseNumber":"3","PostalCode":"51709","AdditionalData":[{"value":"Deutschland","key":"CountryName"},{"value":"Nordrhein-Westfalen","key":"StateName"},{"value":"Oberbergischer Kreis","key":"CountyName"}]},"MapReference":{"ReferenceId":"536998204","Spot":0.52,"SideOfStreet":"left","CountryId":"20147700","StateId":"20157369","CountyId":"20158671","CityId":"20158718","DistrictId":"20158723","AddressId":"194217263","RoadLinkId":"39404651"}}},{"Relevance":1.0,"Distance":56.4,"MatchLevel":"street","MatchQuality":{"Country":1.0,"State":1.0,"County":1.0,"City":1.0,"District":1.0,"PostalCode":1.0},"Location":{"LocationId":"NT_VgTggHd-8UrrpJmZx2Iu-A_l_536993731_L","LocationType":"point","DisplayPosition":{"Latitude":51.05509,"Longitude":7.54205},"MapView":{"TopLeft":{"Latitude":51.05521,"Longitude":7.54205},"BottomRight":{"Latitude":51.05509,"Longitude":7.54263}},"Address":{"Label":"51709 Marienheide, Deutschland","Country":"DEU","State":"Nordrhein-Westfalen","County":"Oberbergischer Kreis","City":"Marienheide","District":"Kotthausen","PostalCode":"51709","AdditionalData":[{"value":"Deutschland","key":"CountryName"},{"value":"Nordrhein-Westfalen","key":"StateName"},{"value":"Oberbergischer Kreis","key":"CountyName"}]},"MapReference":{"ReferenceId":"536993731","Spot":0.0,"SideOfStreet":"left","CountryId":"20147700","StateId":"20157369","CountyId":"20158671","CityId":"20158718","DistrictId":"20158723"}}},{"Relevance":1.0,"Distance":59.0,"MatchLevel":"houseNumber","MatchQuality":{"Country":1.0,"State":1.0,"County":1.0,"City":1.0,"District":1.0,"Street":[1.0],"HouseNumber":1.0,"PostalCode":1.0},"MatchType":"interpolated","Location":{"LocationId":"NT_W-RwXMzu.WAoCV76-Z.qYA_xME","LocationType":"point","DisplayPosition":{"Latitude":51.05508,"Longitude":7.54209},"MapView":{"TopLeft":{"Latitude":51.0562042,"Longitude":7.5403016},"BottomRight":{"Latitude":51.0539558,"Longitude":7.5438784}},"Address":{"Label":"Herreshagener Straße 1C, 51709 Marienheide, Deutschland","Country":"DEU","State":"Nordrhein-Westfalen","County":"Oberbergischer Kreis","City":"Marienheide","District":"Kotthausen","Street":"Herreshagener Straße","HouseNumber":"1C","PostalCode":"51709","AdditionalData":[{"value":"Deutschland","key":"CountryName"},{"value":"Nordrhein-Westfalen","key":"StateName"},{"value":"Oberbergischer Kreis","key":"CountyName"}]},"MapReference":{"ReferenceId":"536993744","Spot":0.96,"SideOfStreet":"left","CountryId":"20147700","StateId":"20157369","CountyId":"20158671","CityId":"20158718","DistrictId":"20158723","AddressId":"195660467","RoadLinkId":"39278995"}}},{"Relevance":1.0,"Distance":59.4,"MatchLevel":"houseNumber","MatchQuality":{"Country":1.0,"State":1.0,"County":1.0,"City":1.0,"District":1.0,"Street":[1.0],"HouseNumber":1.0,"PostalCode":1.0},"MatchType":"interpolated","Location":{"LocationId":"NT_7C8Gc0n8qA7zmPTOr4bVGB_3A","LocationType":"point","DisplayPosition":{"Latitude":51.05593,"Longitude":7.54227},"MapView":{"TopLeft":{"Latitude":51.0570542,"Longitude":7.5404815},"BottomRight":{"Latitude":51.0548058,"Longitude":7.5440585}},"Address":{"Label":"Gimborner Straße 7, 51709 Marienheide, Deutschland","Country":"DEU","State":"Nordrhein-Westfalen","County":"Oberbergischer Kreis","City":"Marienheide","District":"Kotthausen","Street":"Gimborner Straße","HouseNumber":"7","PostalCode":"51709","AdditionalData":[{"value":"Deutschland","key":"CountryName"},{"value":"Nordrhein-Westfalen","key":"StateName"},{"value":"Oberbergischer Kreis","key":"CountyName"}]},"MapReference":{"ReferenceId":"536998202","Spot":0.19,"SideOfStreet":"left","CountryId":"20147700","StateId":"20157369","CountyId":"20158671","CityId":"20158718","DistrictId":"20158723","AddressId":"194742228","RoadLinkId":"39491100"}}},{"Relevance":1.0,"Distance":60.0,"MatchLevel":"street","MatchQuality":{"Country":1.0,"State":1.0,"County":1.0,"City":1.0,"District":1.0,"Street":[1.0],"PostalCode":1.0},"Location":{"LocationId":"NT_7C8Gc0n8qA7zmPTOr4bVGB_l_536998205_L","LocationType":"point","DisplayPosition":{"Latitude":51.05576,"Longitude":7.54232},"MapView":{"TopLeft":{"Latitude":51.05576,"Longitude":7.54232},"BottomRight":{"Latitude":51.05556,"Longitude":7.54242}},"Address":{"Label":"Gimborner Straße, 51709 Marienheide, Deutschland","Country":"DEU","State":"Nordrhein-Westfalen","County":"Oberbergischer Kreis","City":"Marienheide","District":"Kotthausen","Street":"Gimborner Straße","PostalCode":"51709","AdditionalData":[{"value":"Deutschland","key":"CountryName"},{"value":"Nordrhein-Westfalen","key":"StateName"},{"value":"Oberbergischer Kreis","key":"CountyName"}]},"MapReference":{"ReferenceId":"536998205","Spot":1.0,"SideOfStreet":"left","CountryId":"20147700","StateId":"20157369","CountyId":"20158671","CityId":"20158718","DistrictId":"20158723"}}},{"Relevance":1.0,"Distance":75.7,"MatchLevel":"street","MatchQuality":{"Country":1.0,"State":1.0,"County":1.0,"City":1.0,"District":1.0,"Street":[1.0],"PostalCode":1.0},"Location":{"LocationId":"NT_vDRMLAk.YHwD0CN421GeBA_l_536993746_L","LocationType":"point","DisplayPosition":{"Latitude":51.05527,"Longitude":7.54259},"MapView":{"TopLeft":{"Latitude":51.05527,"Longitude":7.54259},"BottomRight":{"Latitude":51.05521,"Longitude":7.54263}},"Address":{"Label":"Gimborner Straße, 51709 Marienheide, Deutschland","Country":"DEU","State":"Nordrhein-Westfalen","County":"Oberbergischer Kreis","City":"Marienheide","District":"Kotthausen","Street":"Gimborner Straße","PostalCode":"51709","AdditionalData":[{"value":"Deutschland","key":"CountryName"},{"value":"Nordrhein-Westfalen","key":"StateName"},{"value":"Oberbergischer Kreis","key":"CountyName"}]},"MapReference":{"ReferenceId":"536993746","Spot":1.0,"SideOfStreet":"left","CountryId":"20147700","StateId":"20157369","CountyId":"20158671","CityId":"20158718","DistrictId":"20158723"}}}]}]}}