{"Response":{"MetaInfo":{"Timestamp":"2020-03-28T11:58:51.069+0000","NextPageInformation":"2"},"View":[{"_type":"SearchResultsViewType","ViewId":0,"Result":[{"Relevance":1.0,"Distance":0.0,"Direction":0.0,"MatchLevel":"district","MatchQuality":{"Country":1.0,"State":1.0,"County":1.0,"City":1.0,"District":1.0,"PostalCode":1.0},"Location":{"LocationId":"NT_AZ1W0ZTZZ.To6ghu1rNh-C","LocationType":"point","DisplayPosition":{"Latitude":51.061816,"Longitude":-1.3109963},"MapView":{"TopLeft":{"Latitude":51.08848,"Longitude":-1.35734},"BottomRight":{"Latitude":51.03974,"Longitude":-1.29042}},"Address":{"Label":"Winchester, England, United Kingdom","Country":"GBR","State":"England","County":"Hampshire","City":"Winchester","District":"Winchester","PostalCode":"SO23 9","AdditionalData":[{"value":"United Kingdom","key":"CountryName"},{"value":"England","key":"StateName"},{"value":"Hampshire","key":"CountyName"}]},"MapReference":{"ReferenceId":"25712290","SideOfStreet":"neither","StateId":"20248595","CountyId":"20335863","CityId":"20336390","DistrictId":"20336391"}}},{"Relevance":1.0,"Distance":7.0,"MatchLevel":"postalCode","MatchQuality":{"PostalCode":1.0},"MatchType":"interpolated","Location":{"LocationId":"NT_abplp14sDiZ.rea.SD.f3B_l_1266647073_R_xUzM","LocationType":"point","DisplayPosition":{"Latitude":51.06185,"Longitude":-1.31108},"MapView":{"TopLeft":{"Latitude":51.0708432,"Longitude":-1.3253894},"BottomRight":{"Latitude":51.0528568,"Longitude":-1.2967706}},"Address":{"Label":"SO23 9AZ, Winchester, England, United Kingdom","Country":"GBR","State":"England","County":"Hampshire","City":"Winchester","PostalCode":"SO23 9AZ","AdditionalData":[{"value":"United Kingdom","key":"CountryName"},{"value":"England","key":"StateName"},{"value":"Hampshire","key":"CountyName"}]},"MapReference":{"ReferenceId":"1266647073","Spot":0.0,"SideOfStreet":"neither","StateId":"20248595","CountyId":"20335863","CityId":"20336390"}}},{"Relevance":1.0,"Distance":7.8,"MatchLevel":"houseNumber","MatchQuality":{"Country":1.0,"State":1.0,"County":1.0,"City":1.0,"District":1.0,"Street":[1.0],"HouseNumber":1.0,"PostalCode":1.0},"MatchType":"interpolated","Location":{"LocationId":"NT_abplp14sDiZ.rea.SD.f3B_l_1266647073_R_xUzM","LocationType":"point","DisplayPosition":{"Latitude":51.06177,"Longitude":-1.31108},"MapView":{"TopLeft":{"Latitude":51.0628942,"Longitude":-1.3128687},"BottomRight":{"Latitude":51.0606459,"Longitude":-1.3092913}},"Address":{"Label":"153 High Street, Winchester, SO23 9, United Kingdom","Country":"GBR","State":"England","County":"Hampshire","City":"Winchester","District":"Winchester","Street":"High Street","HouseNumber":"153","PostalCode":"SO23 9","AdditionalData":[{"value":"United Kingdom","key":"CountryName"},{"value":"England","key":"StateName"},{"value":"Hampshire","key":"CountyName"}]},"MapReference":{"ReferenceId":"1266647073","Spot":0.0,"SideOfStreet":"right","StateId":"20248595","CountyId":"20335863","CityId":"20336390","DistrictId":"20336391"}}},{"Relevance":1.0,"Distance":10.5,"MatchLevel":"landmark","MatchQuality":{"Country":1.0,"State":1.0,"County":1.0,"City":1.0,"District":1.0,"Street":[1.0],"PostalCode":1.0,"Name":1.0},"Location":{"LocationId":"NT_-peEzE3j--.eE9ElYDp8TA_p_z9N74Go1mU6jbUizh8ea9A","LocationType":"shoppingCentre","Name":"The Brooks Shopping","DisplayPosition":{"Latitude":51.06351,"Longitude":-1.31211},"MapView":{"TopLeft":{"Latitude":51.06361,"Longitude":-1.31342},"BottomRight":{"Latitude":51.0618,"Longitude":-1.31044}},"Address":{"Label":"Friarsgate, Winchester, SO23 8, United Kingdom","Country":"GBR","State":"England","County":"Hampshire","City":"Winchester","District":"Winchester","Street":"Friarsgate","PostalCode":"SO23 8","AdditionalData":[{"value":"United Kingdom","key":"CountryName"},{"value":"England","key":"StateName"},{"value":"Hampshire","key":"CountyName"}]},"MapReference":{"StateId":"20248595","CountyId":"20335863","CityId":"20336390","DistrictId":"20336391","PlaceId":"18028697"}}},{"Relevance":1.0,"Distance":10.5,"MatchLevel":"street","MatchQuality":{"Country":1.0,"State":1.0,"County":1.0,"City":1.0,"District":1.0,"Street":[1.0],"PostalCode":1.0},"Location":{"LocationId":"NT_Ds6IeDggzAr9l45uL7W5UA_l_773732683_R","LocationType":"point","DisplayPosition":{"Latitude":51.06187,"Longitude":-1.31112},"MapView":{"TopLeft":{"Latitude":51.06223,"Longitude":-1.31118},"BottomRight":{"Latitude":51.0618,"Longitude":-1.31102}},"Address":{"Label":"Cross Keys Passage, Winchester, SO23 9, United Kingdom","Country":"GBR","State":"England","County":"Hampshire","City":"Winchester","District":"Winchester","Street":"Cross Keys Passage","PostalCode":"SO23 9","AdditionalData":[{"value":"United Kingdom","key":"CountryName"},{"value":"England","key":"StateName"},{"value":"Hampshire","key":"CountyName"}]},"MapReference":{"ReferenceId":"773732683","Spot":0.2,"SideOfStreet":"right","StateId":"20248595","CountyId":"20335863","CityId":"20336390","DistrictId":"20336391"}}},{"Relevance":1.0,"Distance":15.2,"MatchLevel":"houseNumber","MatchQuality":{"Country":1.0,"State":1.0,"County":1.0,"City":1.0,"District":1.0,"Street":[1.0],"HouseNumber":1.0,"PostalCode":1.0},"MatchType":"interpolated","Location":{"LocationId":"NT_abplp14sDiZ.rea.SD.f3B_l_25712398_R_xUDN","LocationType":"point","DisplayPosition":{"Latitude":51.061708,"Longitude":-1.3108093},"MapView":{"TopLeft":{"Latitude":51.0628322,"Longitude":-1.312598},"BottomRight":{"Latitude":51.0605839,"Longitude":-1.3090207}},"Address":{"Label":"154 High Street, Winchester, SO23 9BA, United Kingdom","Country":"GBR","State":"England","County":"Hampshire","City":"Winchester","District":"Winchester","Street":"High Street","HouseNumber":"154","PostalCode":"SO23 9BA","AdditionalData":[{"value":"United Kingdom","key":"CountryName"},{"value":"England","key":"StateName"},{"value":"Hampshire","key":"CountyName"}]},"MapReference":{"ReferenceId":"25712398","Spot":0.79,"SideOfStreet":"right","StateId":"20248595","CountyId":"20335863","CityId":"20336390","DistrictId":"20336391"}}},{"Relevance":1.0,"Distance":25.0,"MatchLevel":"houseNumber","MatchQuality":{"Country":1.0,"State":1.0,"County":1.0,"City":1.0,"District":1.0,"Street":[1.0],"HouseNumber":1.0,"PostalCode":1.0},"MatchType":"interpolated","Location":{"LocationId":"NT_.iK7coO4Ojd6JLQpN0.P-D_l_25712411_R_1AD","LocationType":"point","DisplayPosition":{"Latitude":51.061618,"Longitude":-1.311165},"MapView":{"TopLeft":{"Latitude":51.0627422,"Longitude":-1.3129537},"BottomRight":{"Latitude":51.0604939,"Longitude":-1.3093763}},"Address":{"Label":"50 Colebrook Street, Winchester, SO23 9, United Kingdom","Country":"GBR","State":"England","County":"Hampshire","City":"Winchester","District":"Winchester","Street":"Colebrook Street","HouseNumber":"50","PostalCode":"SO23 9","AdditionalData":[{"value":"United Kingdom","key":"CountryName"},{"value":"England","key":"StateName"},{"value":"Hampshire","key":"CountyName"}]},"MapReference":{"ReferenceId":"25712411","Spot":0.69,"SideOfStreet":"right","StateId":"20248595","CountyId":"20335863","CityId":"20336390","DistrictId":"20336391"}}},{"Relevance":1.0,"Distance":26.3,"MatchLevel":"houseNumber","MatchQuality":{"Country":1.0,"State":1.0,"County":1.0,"City":1.0,"District":1.0,"Street":[1.0],"HouseNumber":1.0,"PostalCode":1.0},"MatchType":"interpolated","Location":{"LocationId":"NT_abplp14sDiZ.rea.SD.f3B_l_1266647074_R_xUTM","LocationType":"point","DisplayPosition":{"Latitude":51.06184,"Longitude":-1.3113701},"MapView":{"TopLeft":{"Latitude":51.0629642,"Longitude":-1.3131588},"BottomRight":{"Latitude":51.0607159,"Longitude":-1.3095815}},"Address":{"Label":"151 High Street, Winchester, SO23 9AY, United Kingdom","Country":"GBR","State":"England","County":"Hampshire","City":"Winchester","District":"Winchester","Street":"High Street","HouseNumber":"151","PostalCode":"SO23 9AY","AdditionalData":[{"value":"United Kingdom","key":"CountryName"},{"value":"England","key":"StateName"},{"value":"Hampshire","key":"CountyName"}]},"MapReference":{"ReferenceId":"1266647074","Spot":0.18,"SideOfStreet":"right","StateId":"20248595","CountyId":"20335863","CityId":"20336390","DistrictId":"20336391"}}},{"Relevance":1.0,"Distance":41.7,"MatchLevel":"postalCode","MatchQuality":{"PostalCode":1.0},"Location":{"LocationId":"NT_z6Ae4yoj11ldxlA7FrflqC_l_25712345_L","LocationType":"point","DisplayPosition":{"Latitude":51.06219,"Longitude":-1.31104},"MapView":{"TopLeft":{"Latitude":51.0711832,"Longitude":-1.3253496},"BottomRight":{"Latitude":51.0531968,"Longitude":-1.2967304}},"Address":{"Label":"SO23 8AE, Winchester, England, United Kingdom","Country":"GBR","State":"England","County":"Hampshire","City":"Winchester","PostalCode":"SO23 8AE","AdditionalData":[{"value":"United Kingdom","key":"CountryName"},{"value":"England","key":"StateName"},{"value":"Hampshire","key":"CountyName"}]},"MapReference":{"ReferenceId":"25712345","Spot":0.0,"SideOfStreet":"neither","StateId":"20248595","CountyId":"20335863","CityId":"20336390"}}},{"Relevance":1.0,"Distance":46.1,"MatchLevel":"street","MatchQuality":{"Country":1.0,"State":1.0,"County":1.0,"City":1.0,"District":1.0,"Street":[1.0],"PostalCode":1.0},"Location":{"LocationId":"NT_oyqKOT3MvU5Gq2toteb5jC_l_846070659_R","LocationType":"point","DisplayPosition":{"Latitude":51.06223,"Longitude":-1.31102},"MapView":{"TopLeft":{"Latitude":51.06235,"Longitude":-1.31102},"BottomRight":{"Latitude":51.06223,"Longitude":-1.31089}},"Address":{"Label":"Tanner Street, Winchester, SO23 8, United Kingdom","Country":"GBR","State":"England","County":"Hampshire","City":"Winchester","District":"Winchester","Street":"Tanner Street","PostalCode":"SO23 8","AdditionalData":[{"value":"United Kingdom","key":"CountryName"},{"value":"England","key":"StateName"},{"value":"Hampshire","key":"CountyName"}]},"MapReference":{"ReferenceId":"846070659","Spot":0.0,"SideOfStreet":"right","StateId":"20248595","CountyId":"20335863","CityId":"20336390","DistrictId":"20336391"}}}]}]}}