{"Response":{"MetaInfo":{"Timestamp":"2020-03-28T11:38:51.085+0000","NextPageInformation":"2"},"View":[{"_type":"SearchResultsViewType","ViewId":0,"Result":[{"Relevance":1.0,"Distance":0.0,"Direction":0.0,"MatchLevel":"city","MatchQuality":{"Country":1.0,"State":1.0,"County":1.0,"City":1.0,"PostalCode":1.0},"Location":{"LocationId":"NT_pEz9LfBV00WHSJZ8hf6OXA","LocationType":"point","DisplayPosition":{"Latitude":51.0424087,"Longitude":4.4779321},"MapView":{"TopLeft":{"Latitude":51.08081,"Longitude":4.37023},"BottomRight":{"Latitude":50.991,"Longitude":4.54861}},"Address":{"Label":"Mechelen, Vlaanderen, België","Country":"BEL","State":"Vlaanderen","County":"Antwerpen","City":"Mechelen","PostalCode":"2800","AdditionalData":[{"value":"België","key":"CountryName"},{"value":"Vlaanderen","key":"StateName"},{"value":"Antwerpen","key":"CountyName"}]},"MapReference":{"ReferenceId":"54012022","SideOfStreet":"neither","CountryId":"20128886","StateId":"20204377","CountyId":"20204378","CityId":"20204534"}}},{"Relevance":1.0,"Distance":4.6,"MatchLevel":"houseNumber","MatchQuality":{"Country":1.0,"State":1.0,"County":1.0,"City":1.0,"Street":[1.0],"HouseNumber":1.0,"PostalCode":1.0},"MatchType":"interpolated","Location":{"LocationId":"NT_Dgrh9Tx0HQOvT9yy34JK5B_yYjM","LocationType":"point","DisplayPosition":{"Latitude":51.04228,"Longitude":4.47739},"MapView":{"TopLeft":{"Latitude":51.0434042,"Longitude":4.4756021},"BottomRight":{"Latitude":51.0411558,"Longitude":4.4791779}},"Address":{"Label":"Liersesteenweg 262, 2800 Mechelen, België","Country":"BEL","State":"Vlaanderen","County":"Antwerpen","City":"Mechelen","Street":"Liersesteenweg","HouseNumber":"262","PostalCode":"2800","AdditionalData":[{"value":"België","key":"CountryName"},{"value":"Vlaanderen","key":"StateName"},{"value":"Antwerpen","key":"CountyName"}]},"MapReference":{"ReferenceId":"1132242387","Spot":0.58,"SideOfStreet":"right","CountryId":"20128886","StateId":"20204377","CountyId":"20204378","CityId":"20204534","AddressId":"401339709","RoadLinkId":"442198185"}}},{"Relevance":1.0,"Distance":23.4,"MatchLevel":"houseNumber","MatchQuality":{"Country":1.0,"State":1.0,"County":1.0,"City":1.0,"Street":[1.0],"HouseNumber":1.0,"PostalCode":1.0},"MatchType":"interpolated","Location":{"LocationId":"NT_Dgrh9Tx0HQOvT9yy34JK5B_yYDO","LocationType":"point","DisplayPosition":{"Latitude":51.04252,"Longitude":4.4773},"MapView":{"TopLeft":{"Latitude":51.0436442,"Longitude":4.4755121},"BottomRight":{"Latitude":51.0413958,"Longitude":4.4790879}},"Address":{"Label":"Liersesteenweg 268, 2800 Mechelen, België","Country":"BEL","State":"Vlaanderen","County":"Antwerpen","City":"Mechelen","Street":"Liersesteenweg","HouseNumber":"268","PostalCode":"2800","AdditionalData":[{"value":"België","key":"CountryName"},{"value":"Vlaanderen","key":"StateName"},{"value":"Antwerpen","key":"CountyName"}]},"MapReference":{"ReferenceId":"1132242749","Spot":0.02,"SideOfStreet":"right","CountryId":"20128886","StateId":"20204377","CountyId":"20204378","CityId":"20204534","AddressId":"401339681","RoadLinkId":"442198592"}}},{"Relevance":1.0,"Distance":42.5,"MatchLevel":"houseNumber","MatchQuality":{"Country":1.0,"State":1.0,"County":1.0,"City":1.0,"Street":[1.0],"HouseNumber":1.0,"PostalCode":1.0},"MatchType":"interpolated","Location":{"LocationId":"NT_emBHLMk0PiS9zT1OewFmlD_xUD","LocationType":"point","DisplayPosition":{"Latitude":51.04247,"Longitude":4.47868},"MapView":{"TopLeft":{"Latitude":51.0435942,"Longitude":4.4768921},"BottomRight":{"Latitude":51.0413458,"Longitude":4.4804679}},"Address":{"Label":"Amblèvestraat 15, 2800 Mechelen, België","Country":"BEL","State":"Vlaanderen","County":"Antwerpen","City":"Mechelen","Street":"Amblèvestraat","HouseNumber":"15","PostalCode":"2800","AdditionalData":[{"value":"België","key":"CountryName"},{"value":"Vlaanderen","key":"StateName"},{"value":"Antwerpen","key":"CountyName"}]},"MapReference":{"ReferenceId":"54013027","Spot":0.8,"SideOfStreet":"left","CountryId":"20128886","StateId":"20204377","CountyId":"20204378","CityId":"20204534","AddressId":"401360966","RoadLinkId":"30705795"}}},{"Relevance":1.0,"Distance":42.8,"MatchLevel":"houseNumber","MatchQuality":{"Country":1.0,"State":1.0,"County":1.0,"City":1.0,"Street":[1.0],"HouseNumber":1.0,"PostalCode":1.0},"MatchType":"interpolated","Location":{"LocationId":"NT_Dgrh9Tx0HQOvT9yy34JK5B_yQDOBB","LocationType":"point","DisplayPosition":{"Latitude":51.04191,"Longitude":4.47757},"MapView":{"TopLeft":{"Latitude":51.0430342,"Longitude":4.4757821},"BottomRight":{"Latitude":51.0407858,"Longitude":4.4793579}},"Address":{"Label":"Liersesteenweg 248A, 2800 Mechelen, België","Country":"BEL","State":"Vlaanderen","County":"Antwerpen","City":"Mechelen","Street":"Liersesteenweg","HouseNumber":"248A","PostalCode":"2800","AdditionalData":[{"value":"België","key":"CountryName"},{"value":"Vlaanderen","key":"StateName"},{"value":"Antwerpen","key":"CountyName"}]},"MapReference":{"ReferenceId":"819580853","Spot":0.38,"SideOfStreet":"right","CountryId":"20128886","StateId":"20204377","CountyId":"20204378","CityId":"20204534","AddressId":"806753515","RoadLinkId":"206655930"}}},{"Relevance":1.0,"Distance":50.2,"MatchLevel":"houseNumber","MatchQuality":{"Country":1.0,"State":1.0,"County":1.0,"City":1.0,"Street":[1.0],"HouseNumber":1.0,"PostalCode":1.0},"MatchType":"interpolated","Location":{"LocationId":"NT_n26LkFVAkQTNNGk1akz4jC_xcD","LocationType":"point","DisplayPosition":{"Latitude":51.04202,"Longitude":4.4783},"MapView":{"TopLeft":{"Latitude":51.0431442,"Longitude":4.4765121},"BottomRight":{"Latitude":51.0408958,"Longitude":4.4800879}},"Address":{"Label":"Ourthestraat 17, 2800 Mechelen, België","Country":"BEL","State":"Vlaanderen","County":"Antwerpen","City":"Mechelen","Street":"Ourthestraat","HouseNumber":"17","PostalCode":"2800","AdditionalData":[{"value":"België","key":"CountryName"},{"value":"Vlaanderen","key":"StateName"},{"value":"Antwerpen","key":"CountyName"}]},"MapReference":{"ReferenceId":"54013026","Spot":0.49,"SideOfStreet":"left","CountryId":"20128886","StateId":"20204377","CountyId":"20204378","CityId":"20204534","AddressId":"401735544","RoadLinkId":"30502714"}}},{"Relevance":1.0,"Distance":54.5,"MatchLevel":"houseNumber","MatchQuality":{"Country":1.0,"State":1.0,"County":1.0,"City":1.0,"Street":[1.0],"HouseNumber":1.0,"PostalCode":1.0},"MatchType":"interpolated","Location":{"LocationId":"NT_emBHLMk0PiS9zT1OewFmlD_3A","LocationType":"point","DisplayPosition":{"Latitude":51.04228,"Longitude":4.47882},"MapView":{"TopLeft":{"Latitude":51.0434042,"Longitude":4.4770321},"BottomRight":{"Latitude":51.0411558,"Longitude":4.4806079}},"Address":{"Label":"Amblèvestraat 7, 2800 Mechelen, België","Country":"BEL","State":"Vlaanderen","County":"Antwerpen","City":"Mechelen","Street":"Amblèvestraat","HouseNumber":"7","PostalCode":"2800","AdditionalData":[{"value":"België","key":"CountryName"},{"value":"Vlaanderen","key":"StateName"},{"value":"Antwerpen","key":"CountyName"}]},"MapReference":{"ReferenceId":"54013020","Spot":0.9,"SideOfStreet":"left","CountryId":"20128886","StateId":"20204377","CountyId":"20204378","CityId":"20204534","AddressId":"400827019","RoadLinkId":"30256358"}}},{"Relevance":1.0,"Distance":54.7,"MatchLevel":"houseNumber","MatchQuality":{"Country":1.0,"State":1.0,"County":1.0,"City":1.0,"Street":[1.0],"HouseNumber":1.0,"PostalCode":1.0},"MatchType":"interpolated","Location":{"LocationId":"NT_Dgrh9Tx0HQOvT9yy34JK5B_yQDN","LocationType":"point","DisplayPosition":{"Latitude":51.04186,"Longitude":4.4776},"MapView":{"TopLeft":{"Latitude":51.0429842,"Longitude":4.4758121},"BottomRight":{"Latitude":51.0407358,"Longitude":4.4793879}},"Address":{"Label":"Liersesteenweg 244, 2800 Mechelen, België","Country":"BEL","State":"Vlaanderen","County":"Antwerpen","City":"Mechelen","Street":"Liersesteenweg","HouseNumber":"244","PostalCode":"2800","AdditionalData":[{"value":"België","key":"CountryName"},{"value":"Vlaanderen","key":"StateName"},{"value":"Antwerpen","key":"CountyName"}]},"MapReference":{"ReferenceId":"819580852","Spot":1.0,"SideOfStreet":"right","CountryId":"20128886","StateId":"20204377","CountyId":"20204378","CityId":"20204534","AddressId":"399547817","RoadLinkId":"206655927"}}},{"Relevance":1.0,"Distance":60.0,"MatchLevel":"houseNumber","MatchQuality":{"Country":1.0,"State":1.0,"County":1.0,"City":1.0,"Street":[1.0],"HouseNumber":1.0,"PostalCode":1.0},"MatchType":"interpolated","Location":{"LocationId":"NT_CQq3WdQP6Ylg.tTW2rVGaD_xA","LocationType":"point","DisplayPosition":{"Latitude":51.04191,"Longitude":4.47858},"MapView":{"TopLeft":{"Latitude":51.0430342,"Longitude":4.4767921},"BottomRight":{"Latitude":51.0407858,"Longitude":4.4803679}},"Address":{"Label":"Samberstraat 1, 2800 Mechelen, België","Country":"BEL","State":"Vlaanderen","County":"Antwerpen","City":"Mechelen","Street":"Samberstraat","HouseNumber":"1","PostalCode":"2800","AdditionalData":[{"value":"België","key":"CountryName"},{"value":"Vlaanderen","key":"StateName"},{"value":"Antwerpen","key":"CountyName"}]},"MapReference":{"ReferenceId":"54013025","Spot":0.3,"SideOfStreet":"left","CountryId":"20128886","StateId":"20204377","CountyId":"20204378","CityId":"20204534","AddressId":"399330635","RoadLinkId":"30581312"}}},{"Relevance":1.0,"Distance":69.0,"MatchLevel":"houseNumber","MatchQuality":{"Country":1.0,"State":1.0,"County":1.0,"City":1.0,"Street":[1.0],"HouseNumber":1.0,"PostalCode":1.0},"MatchType":"interpolated","Location":{"LocationId":"NT_n26LkFVAkQTNNGk1akz4jC_5A","LocationType":"point","DisplayPosition":{"Latitude":51.04186,"Longitude":4.47841},"MapView":{"TopLeft":{"Latitude":51.0429842,"Longitude":4.4766221},"BottomRight":{"Latitude":51.0407358,"Longitude":4.4801979}},"Address":{"Label":"Ourthestraat 9, 2800 Mechelen, België","Country":"BEL","State":"Vlaanderen","County":"Antwerpen","City":"Mechelen","Street":"Ourthestraat","HouseNumber":"9","PostalCode":"2800","AdditionalData":[{"value":"België","key":"CountryName"},{"value":"Vlaanderen","key":"StateName"},{"value":"Antwerpen","key":"CountyName"}]},"MapReference":{"ReferenceId":"54013023","Spot":1.0,"SideOfStreet":"left","CountryId":"20128886","StateId":"20204377","CountyId":"20204378","CityId":"20204534","AddressId":"400359370","RoadLinkId":"30507941"}}}]}]}}