{"Response":{"MetaInfo":{"Timestamp":"2020-03-28T11:00:14.907+0000","NextPageInformation":"2"},"View":[{"_type":"SearchResultsViewType","ViewId":0,"Result":[{"Relevance":1.0,"Distance":0.0,"Direction":0.0,"MatchLevel":"district","MatchQuality":{"Country":1.0,"State":1.0,"County":1.0,"City":1.0,"District":1.0,"PostalCode":1.0},"Location":{"LocationId":"NT_xXPQnDZ9KNsSMS6sNdQYQA","LocationType":"point","DisplayPosition":{"Latitude":51.0915945,"Longitude":6.5946551},"MapView":{"TopLeft":{"Latitude":51.10919,"Longitude":6.55657},"BottomRight":{"Latitude":51.07109,"Longitude":6.63233}},"Address":{"Label":"Grevenbroich, Nordrhein-Westfalen, Deutschland","Country":"DEU","State":"Nordrhein-Westfalen","County":"Rhein-Kreis Neuss","City":"Grevenbroich","District":"Grevenbroich","PostalCode":"41515","AdditionalData":[{"value":"Deutschland","key":"CountryName"},{"value":"Nordrhein-Westfalen","key":"StateName"},{"value":"Rhein-Kreis Neuss","key":"CountyName"}]},"MapReference":{"ReferenceId":"840202228","SideOfStreet":"neither","CountryId":"20147700","StateId":"20157369","CountyId":"20157687","CityId":"20157700","DistrictId":"20157715"}}},{"Relevance":1.0,"Distance":16.1,"MatchLevel":"houseNumber","MatchQuality":{"Country":1.0,"State":1.0,"County":1.0,"City":1.0,"District":1.0,"Street":[1.0],"HouseNumber":1.0,"PostalCode":1.0},"MatchType":"interpolated","Location":{"LocationId":"NT_esT.wyXw5WhYjGTd34c42A_xYE","LocationType":"point","DisplayPosition":{"Latitude":51.09158,"Longitude":6.59422},"MapView":{"TopLeft":{"Latitude":51.0927042,"Longitude":6.5924302},"BottomRight":{"Latitude":51.0904558,"Longitude":6.5960098}},"Address":{"Label":"Am Ziegelkamp 1F, 41515 Grevenbroich, Deutschland","Country":"DEU","State":"Nordrhein-Westfalen","County":"Rhein-Kreis Neuss","City":"Grevenbroich","District":"Grevenbroich","Street":"Am Ziegelkamp","HouseNumber":"1F","PostalCode":"41515","AdditionalData":[{"value":"Deutschland","key":"CountryName"},{"value":"Nordrhein-Westfalen","key":"StateName"},{"value":"Rhein-Kreis Neuss","key":"CountyName"}]},"MapReference":{"ReferenceId":"50976046","Spot":0.67,"SideOfStreet":"right","CountryId":"20147700","StateId":"20157369","CountyId":"20157687","CityId":"20157700","DistrictId":"20157715","AddressId":"622126596","RoadLinkId":"39493461"}}},{"Relevance":1.0,"Distance":16.6,"MatchLevel":"street","MatchQuality":{"Country":1.0,"State":1.0,"County":1.0,"City":1.0,"District":1.0,"PostalCode":1.0},"Location":{"LocationId":"NT_devpw0xKZshpYb8Dzsdk6D_l_50976047_L","LocationType":"point","DisplayPosition":{"Latitude":51.0917424,"Longitude":6.5946896},"MapView":{"TopLeft":{"Latitude":51.09181,"Longitude":6.5944},"BottomRight":{"Latitude":51.0916,"Longitude":6.59557}},"Address":{"Label":"41515 Grevenbroich, Deutschland","Country":"DEU","State":"Nordrhein-Westfalen","County":"Rhein-Kreis Neuss","City":"Grevenbroich","District":"Grevenbroich","PostalCode":"41515","AdditionalData":[{"value":"Deutschland","key":"CountryName"},{"value":"Nordrhein-Westfalen","key":"StateName"},{"value":"Rhein-Kreis Neuss","key":"CountyName"}]},"MapReference":{"ReferenceId":"50976047","Spot":0.75,"SideOfStreet":"left","CountryId":"20147700","StateId":"20157369","CountyId":"20157687","CityId":"20157700","DistrictId":"20157715"}}},{"Relevance":1.0,"Distance":29.9,"MatchLevel":"street","MatchQuality":{"Country":1.0,"State":1.0,"County":1.0,"City":1.0,"District":1.0,"Street":[1.0],"PostalCode":1.0},"Location":{"LocationId":"NT_esT.wyXw5WhYjGTd34c42A_l_50976045_R","LocationType":"point","DisplayPosition":{"Latitude":51.09181,"Longitude":6.5944},"MapView":{"TopLeft":{"Latitude":51.0922,"Longitude":6.5944},"BottomRight":{"Latitude":51.09181,"Longitude":6.59469}},"Address":{"Label":"Am Ziegelkamp, 41515 Grevenbroich, Deutschland","Country":"DEU","State":"Nordrhein-Westfalen","County":"Rhein-Kreis Neuss","City":"Grevenbroich","District":"Grevenbroich","Street":"Am Ziegelkamp","PostalCode":"41515","AdditionalData":[{"value":"Deutschland","key":"CountryName"},{"value":"Nordrhein-Westfalen","key":"StateName"},{"value":"Rhein-Kreis Neuss","key":"CountyName"}]},"MapReference":{"ReferenceId":"50976045","Spot":0.0,"SideOfStreet":"right","CountryId":"20147700","StateId":"20157369","CountyId":"20157687","CityId":"20157700","DistrictId":"20157715"}}},{"Relevance":1.0,"Distance":51.9,"MatchLevel":"houseNumber","MatchQuality":{"Country":1.0,"State":1.0,"County":1.0,"City":1.0,"District":1.0,"Street":[1.0],"HouseNumber":1.0,"PostalCode":1.0},"MatchType":"interpolated","Location":{"LocationId":"NT_kI5Q7qvifTJdpJHQOWhusC_xID","LocationType":"point","DisplayPosition":{"Latitude":51.09217,"Longitude":6.59487},"MapView":{"TopLeft":{"Latitude":51.0932942,"Longitude":6.5930801},"BottomRight":{"Latitude":51.0910458,"Longitude":6.5966599}},"Address":{"Label":"Montanusstraße 12, 41515 Grevenbroich, Deutschland","Country":"DEU","State":"Nordrhein-Westfalen","County":"Rhein-Kreis Neuss","City":"Grevenbroich","District":"Grevenbroich","Street":"Montanusstraße","HouseNumber":"12","PostalCode":"41515","AdditionalData":[{"value":"Deutschland","key":"CountryName"},{"value":"Nordrhein-Westfalen","key":"StateName"},{"value":"Rhein-Kreis Neuss","key":"CountyName"}]},"MapReference":{"ReferenceId":"50976031","Spot":0.93,"SideOfStreet":"left","CountryId":"20147700","StateId":"20157369","CountyId":"20157687","CityId":"20157700","DistrictId":"20157715","AddressId":"195151237","RoadLinkId":"39050933"}}},{"Relevance":1.0,"Distance":62.0,"MatchLevel":"houseNumber","MatchQuality":{"Country":1.0,"State":1.0,"County":1.0,"City":1.0,"District":1.0,"Street":[1.0],"HouseNumber":1.0,"PostalCode":1.0},"MatchType":"interpolated","Location":{"LocationId":"NT_kI5Q7qvifTJdpJHQOWhusC_xAD","LocationType":"point","DisplayPosition":{"Latitude":51.09224,"Longitude":6.5944},"MapView":{"TopLeft":{"Latitude":51.0933642,"Longitude":6.5926101},"BottomRight":{"Latitude":51.0911158,"Longitude":6.5961899}},"Address":{"Label":"Montanusstraße 10, 41515 Grevenbroich, Deutschland","Country":"DEU","State":"Nordrhein-Westfalen","County":"Rhein-Kreis Neuss","City":"Grevenbroich","District":"Grevenbroich","Street":"Montanusstraße","HouseNumber":"10","PostalCode":"41515","AdditionalData":[{"value":"Deutschland","key":"CountryName"},{"value":"Nordrhein-Westfalen","key":"StateName"},{"value":"Rhein-Kreis Neuss","key":"CountyName"}]},"MapReference":{"ReferenceId":"50976030","Spot":0.16,"SideOfStreet":"left","CountryId":"20147700","StateId":"20157369","CountyId":"20157687","CityId":"20157700","DistrictId":"20157715","AddressId":"194338231","RoadLinkId":"39109479"}}},{"Relevance":1.0,"Distance":71.9,"MatchLevel":"street","MatchQuality":{"Country":1.0,"State":1.0,"County":1.0,"City":1.0,"District":1.0,"PostalCode":1.0},"Location":{"LocationId":"NT_devpw0xKZshpYb8Dzsdk6D_l_1256911447_L","LocationType":"point","DisplayPosition":{"Latitude":51.09109,"Longitude":6.5953},"MapView":{"TopLeft":{"Latitude":51.09121,"Longitude":6.5953},"BottomRight":{"Latitude":51.09109,"Longitude":6.59587}},"Address":{"Label":"41515 Grevenbroich, Deutschland","Country":"DEU","State":"Nordrhein-Westfalen","County":"Rhein-Kreis Neuss","City":"Grevenbroich","District":"Grevenbroich","PostalCode":"41515","AdditionalData":[{"value":"Deutschland","key":"CountryName"},{"value":"Nordrhein-Westfalen","key":"StateName"},{"value":"Rhein-Kreis Neuss","key":"CountyName"}]},"MapReference":{"ReferenceId":"1256911447","Spot":0.0,"SideOfStreet":"left","CountryId":"20147700","StateId":"20157369","CountyId":"20157687","CityId":"20157700","DistrictId":"20157715"}}},{"Relevance":1.0,"Distance":76.1,"MatchLevel":"houseNumber","MatchQuality":{"Country":1.0,"State":1.0,"County":1.0,"City":1.0,"District":1.0,"Street":[1.0],"HouseNumber":1.0,"PostalCode":1.0},"MatchType":"interpolated","Location":{"LocationId":"NT_zMTIBqJTSdLqc7.GrPLR2C_4A","LocationType":"point","DisplayPosition":{"Latitude":51.09124,"Longitude":6.59588},"MapView":{"TopLeft":{"Latitude":51.0923642,"Longitude":6.5940902},"BottomRight":{"Latitude":51.0901158,"Longitude":6.5976698}},"Address":{"Label":"Jakob-Dickers-Weg 8, 41515 Grevenbroich, Deutschland","Country":"DEU","State":"Nordrhein-Westfalen","County":"Rhein-Kreis Neuss","City":"Grevenbroich","District":"Grevenbroich","Street":"Jakob-Dickers-Weg","HouseNumber":"8","PostalCode":"41515","AdditionalData":[{"value":"Deutschland","key":"CountryName"},{"value":"Nordrhein-Westfalen","key":"StateName"},{"value":"Rhein-Kreis Neuss","key":"CountyName"}]},"MapReference":{"ReferenceId":"1256911449","Spot":0.96,"SideOfStreet":"right","CountryId":"20147700","StateId":"20157369","CountyId":"20157687","CityId":"20157700","DistrictId":"20157715","AddressId":"194576667","RoadLinkId":"580664769"}}},{"Relevance":1.0,"Distance":89.6,"MatchLevel":"houseNumber","MatchQuality":{"Country":1.0,"State":1.0,"County":1.0,"City":1.0,"District":1.0,"Street":[1.0],"HouseNumber":1.0,"PostalCode":1.0},"MatchType":"interpolated","Location":{"LocationId":"NT_ZGFzDgfIZCnvsiSVvBD90D_1ADN","LocationType":"point","DisplayPosition":{"Latitude":51.0918,"Longitude":6.59313},"MapView":{"TopLeft":{"Latitude":51.0929242,"Longitude":6.5913402},"BottomRight":{"Latitude":51.0906758,"Longitude":6.5949198}},"Address":{"Label":"Parkstraße 504, 41515 Grevenbroich, Deutschland","Country":"DEU","State":"Nordrhein-Westfalen","County":"Rhein-Kreis Neuss","City":"Grevenbroich","District":"Grevenbroich","Street":"Parkstraße","HouseNumber":"504","PostalCode":"41515","AdditionalData":[{"value":"Deutschland","key":"CountryName"},{"value":"Nordrhein-Westfalen","key":"StateName"},{"value":"Rhein-Kreis Neuss","key":"CountyName"}]},"MapReference":{"ReferenceId":"1267626637","Spot":0.08,"SideOfStreet":"left","CountryId":"20147700","StateId":"20157369","CountyId":"20157687","CityId":"20157700","DistrictId":"20157715","AddressId":"622126603","RoadLinkId":"594436076"}}},{"Relevance":1.0,"Distance":97.9,"MatchLevel":"houseNumber","MatchQuality":{"Country":1.0,"State":1.0,"County":1.0,"City":1.0,"District":1.0,"Street":[1.0],"HouseNumber":1.0,"PostalCode":1.0},"MatchType":"interpolated","Location":{"LocationId":"NT_zMTIBqJTSdLqc7.GrPLR2C_xAD","LocationType":"point","DisplayPosition":{"Latitude":51.09101,"Longitude":6.59581},"MapView":{"TopLeft":{"Latitude":51.0921342,"Longitude":6.5940202},"BottomRight":{"Latitude":51.0898858,"Longitude":6.5975998}},"Address":{"Label":"Jakob-Dickers-Weg 10, 41515 Grevenbroich, Deutschland","Country":"DEU","State":"Nordrhein-Westfalen","County":"Rhein-Kreis Neuss","City":"Grevenbroich","District":"Grevenbroich","Street":"Jakob-Dickers-Weg","HouseNumber":"10","PostalCode":"41515","AdditionalData":[{"value":"Deutschland","key":"CountryName"},{"value":"Nordrhein-Westfalen","key":"StateName"},{"value":"Rhein-Kreis Neuss","key":"CountyName"}]},"MapReference":{"ReferenceId":"1256911448","Spot":0.6,"SideOfStreet":"left","CountryId":"20147700","StateId":"20157369","CountyId":"20157687","CityId":"20157700","DistrictId":"20157715","AddressId":"194576668","RoadLinkId":"580664768"}}}]}]}}