{"Response":{"MetaInfo":{"Timestamp":"2020-03-28T10:23:46.142+0000","NextPageInformation":"2"},"View":[{"_type":"SearchResultsViewType","ViewId":0,"Result":[{"Relevance":1.0,"Distance":0.0,"Direction":0.0,"MatchLevel":"district","MatchQuality":{"Country":1.0,"State":1.0,"County":1.0,"City":1.0,"District":1.0,"PostalCode":1.0},"Location":{"LocationId":"NT_HhsD9OujFUn5Fy8vMDmGXC","LocationType":"point","DisplayPosition":{"Latitude":51.0624699,"Longitude":6.0995888},"MapView":{"TopLeft":{"Latitude":51.07409,"Longitude":6.0829},"BottomRight":{"Latitude":51.04836,"Longitude":6.12807}},"Address":{"Label":"Heinsberg, Nordrhein-Westfalen, Deutschland","Country":"DEU","State":"Nordrhein-Westfalen","County":"Heinsberg","City":"Heinsberg","District":"Heinsberg","PostalCode":"52525","AdditionalData":[{"value":"Deutschland","key":"CountryName"},{"value":"Nordrhein-Westfalen","key":"StateName"},{"value":"Heinsberg","key":"CountyName"}]},"MapReference":{"ReferenceId":"1195445768","SideOfStreet":"neither","CountryId":"20147700","StateId":"20157369","CountyId":"20158557","CityId":"20158598","DistrictId":"20158612"}}},{"Relevance":1.0,"Distance":4.8,"MatchLevel":"houseNumber","MatchQuality":{"Country":1.0,"State":1.0,"County":1.0,"City":1.0,"District":1.0,"Street":[1.0],"HouseNumber":1.0,"PostalCode":1.0},"MatchType":"interpolated","Location":{"LocationId":"NT_7GseXFfeIrc1Q0bgROr7IB_xED","LocationType":"point","DisplayPosition":{"Latitude":51.0626,"Longitude":6.09955},"MapView":{"TopLeft":{"Latitude":51.0637242,"Longitude":6.0977613},"BottomRight":{"Latitude":51.0614758,"Longitude":6.1013387}},"Address":{"Label":"Valkenburger Straße 11, 52525 Heinsberg, Deutschland","Country":"DEU","State":"Nordrhein-Westfalen","County":"Heinsberg","City":"Heinsberg","District":"Heinsberg","Street":"Valkenburger Straße","HouseNumber":"11","PostalCode":"52525","AdditionalData":[{"value":"Deutschland","key":"CountryName"},{"value":"Nordrhein-Westfalen","key":"StateName"},{"value":"Heinsberg","key":"CountyName"}]},"MapReference":{"ReferenceId":"77170338","Spot":0.69,"SideOfStreet":"left","CountryId":"20147700","StateId":"20157369","CountyId":"20158557","CityId":"20158598","DistrictId":"20158612","AddressId":"195871097","RoadLinkId":"39102220"}}},{"Relevance":1.0,"Distance":57.9,"MatchLevel":"houseNumber","MatchQuality":{"Country":1.0,"State":1.0,"County":1.0,"City":1.0,"District":1.0,"Street":[1.0],"HouseNumber":1.0,"PostalCode":1.0},"MatchType":"interpolated","Location":{"LocationId":"NT_0Qk4G.E5CY8TwTbPyvKFHA_yAD","LocationType":"point","DisplayPosition":{"Latitude":51.06179,"Longitude":6.09956},"MapView":{"TopLeft":{"Latitude":51.0629142,"Longitude":6.0977713},"BottomRight":{"Latitude":51.0606658,"Longitude":6.1013487}},"Address":{"Label":"Oberbrucher Straße 20, 52525 Heinsberg, Deutschland","Country":"DEU","State":"Nordrhein-Westfalen","County":"Heinsberg","City":"Heinsberg","District":"Heinsberg","Street":"Oberbrucher Straße","HouseNumber":"20","PostalCode":"52525","AdditionalData":[{"value":"Deutschland","key":"CountryName"},{"value":"Nordrhein-Westfalen","key":"StateName"},{"value":"Heinsberg","key":"CountyName"}]},"MapReference":{"ReferenceId":"77169582","Spot":0.45,"SideOfStreet":"right","CountryId":"20147700","StateId":"20157369","CountyId":"20158557","CityId":"20158598","DistrictId":"20158612","AddressId":"196016413","RoadLinkId":"39482274"}}},{"Relevance":1.0,"Distance":66.8,"MatchLevel":"houseNumber","MatchQuality":{"Country":1.0,"State":1.0,"County":1.0,"City":1.0,"District":1.0,"Street":[1.0],"HouseNumber":1.0,"PostalCode":1.0},"MatchType":"interpolated","Location":{"LocationId":"NT_OTo17bParBC8Ir0ip7hJ8C_1A","LocationType":"point","DisplayPosition":{"Latitude":51.06321,"Longitude":6.09955},"MapView":{"TopLeft":{"Latitude":51.0643342,"Longitude":6.0977613},"BottomRight":{"Latitude":51.0620858,"Longitude":6.1013387}},"Address":{"Label":"Herrenheide 5, 52525 Heinsberg, Deutschland","Country":"DEU","State":"Nordrhein-Westfalen","County":"Heinsberg","City":"Heinsberg","District":"Heinsberg","Street":"Herrenheide","HouseNumber":"5","PostalCode":"52525","AdditionalData":[{"value":"Deutschland","key":"CountryName"},{"value":"Nordrhein-Westfalen","key":"StateName"},{"value":"Heinsberg","key":"CountyName"}]},"MapReference":{"ReferenceId":"818191147","Spot":0.27,"SideOfStreet":"right","CountryId":"20147700","StateId":"20157369","CountyId":"20158557","CityId":"20158598","DistrictId":"20158612","AddressId":"249363436","RoadLinkId":"205487001"}}},{"Relevance":1.0,"Distance":101.7,"MatchLevel":"houseNumber","MatchQuality":{"Country":1.0,"State":1.0,"County":1.0,"City":1.0,"District":1.0,"Street":[1.0],"HouseNumber":1.0,"PostalCode":1.0},"MatchType":"interpolated","Location":{"LocationId":"NT_k7FqtKdOvBmmXZUqK53BcB_2ED","LocationType":"point","DisplayPosition":{"Latitude":51.06317,"Longitude":6.09825},"MapView":{"TopLeft":{"Latitude":51.0642942,"Longitude":6.0964613},"BottomRight":{"Latitude":51.0620458,"Longitude":6.1000387}},"Address":{"Label":"Ostpromenade 61, 52525 Heinsberg, Deutschland","Country":"DEU","State":"Nordrhein-Westfalen","County":"Heinsberg","City":"Heinsberg","District":"Heinsberg","Street":"Ostpromenade","HouseNumber":"61","PostalCode":"52525","AdditionalData":[{"value":"Deutschland","key":"CountryName"},{"value":"Nordrhein-Westfalen","key":"StateName"},{"value":"Heinsberg","key":"CountyName"}]},"MapReference":{"ReferenceId":"77168627","Spot":0.81,"SideOfStreet":"right","CountryId":"20147700","StateId":"20157369","CountyId":"20158557","CityId":"20158598","DistrictId":"20158612","AddressId":"195552540","RoadLinkId":"39127256"}}},{"Relevance":1.0,"Distance":113.5,"MatchLevel":"houseNumber","MatchQuality":{"Country":1.0,"State":1.0,"County":1.0,"City":1.0,"District":1.0,"Street":[1.0],"HouseNumber":1.0,"PostalCode":1.0},"MatchType":"interpolated","Location":{"LocationId":"NT_k7FqtKdOvBmmXZUqK53BcB_2UD","LocationType":"point","DisplayPosition":{"Latitude":51.06341,"Longitude":6.09848},"MapView":{"TopLeft":{"Latitude":51.0645342,"Longitude":6.0966913},"BottomRight":{"Latitude":51.0622858,"Longitude":6.1002687}},"Address":{"Label":"Ostpromenade 65, 52525 Heinsberg, Deutschland","Country":"DEU","State":"Nordrhein-Westfalen","County":"Heinsberg","City":"Heinsberg","District":"Heinsberg","Street":"Ostpromenade","HouseNumber":"65","PostalCode":"52525","AdditionalData":[{"value":"Deutschland","key":"CountryName"},{"value":"Nordrhein-Westfalen","key":"StateName"},{"value":"Heinsberg","key":"CountyName"}]},"MapReference":{"ReferenceId":"77168624","Spot":0.49,"SideOfStreet":"right","CountryId":"20147700","StateId":"20157369","CountyId":"20158557","CityId":"20158598","DistrictId":"20158612","AddressId":"196113746","RoadLinkId":"39451963"}}},{"Relevance":1.0,"Distance":123.5,"MatchLevel":"houseNumber","MatchQuality":{"Country":1.0,"State":1.0,"County":1.0,"City":1.0,"District":1.0,"Street":[1.0],"HouseNumber":1.0,"PostalCode":1.0},"MatchType":"interpolated","Location":{"LocationId":"NT_JJYZ67AWjsus1EVWWsRNlD_xMD","LocationType":"point","DisplayPosition":{"Latitude":51.06372,"Longitude":6.09945},"MapView":{"TopLeft":{"Latitude":51.0648442,"Longitude":6.0976612},"BottomRight":{"Latitude":51.0625958,"Longitude":6.1012388}},"Address":{"Label":"Buschheide 13, 52525 Heinsberg, Deutschland","Country":"DEU","State":"Nordrhein-Westfalen","County":"Heinsberg","City":"Heinsberg","District":"Heinsberg","Street":"Buschheide","HouseNumber":"13","PostalCode":"52525","AdditionalData":[{"value":"Deutschland","key":"CountryName"},{"value":"Nordrhein-Westfalen","key":"StateName"},{"value":"Heinsberg","key":"CountyName"}]},"MapReference":{"ReferenceId":"77168622","Spot":0.59,"SideOfStreet":"right","CountryId":"20147700","StateId":"20157369","CountyId":"20158557","CityId":"20158598","DistrictId":"20158612","AddressId":"194074388","RoadLinkId":"39413100"}}},{"Relevance":1.0,"Distance":128.4,"MatchLevel":"houseNumber","MatchQuality":{"Country":1.0,"State":1.0,"County":1.0,"City":1.0,"District":1.0,"Street":[1.0],"HouseNumber":1.0,"PostalCode":1.0},"MatchType":"interpolated","Location":{"LocationId":"NT_k7FqtKdOvBmmXZUqK53BcB_2ID","LocationType":"point","DisplayPosition":{"Latitude":51.06276,"Longitude":6.09781},"MapView":{"TopLeft":{"Latitude":51.0638842,"Longitude":6.0960213},"BottomRight":{"Latitude":51.0616358,"Longitude":6.0995987}},"Address":{"Label":"Ostpromenade 62, 52525 Heinsberg, Deutschland","Country":"DEU","State":"Nordrhein-Westfalen","County":"Heinsberg","City":"Heinsberg","District":"Heinsberg","Street":"Ostpromenade","HouseNumber":"62","PostalCode":"52525","AdditionalData":[{"value":"Deutschland","key":"CountryName"},{"value":"Nordrhein-Westfalen","key":"StateName"},{"value":"Heinsberg","key":"CountyName"}]},"MapReference":{"ReferenceId":"759987309","Spot":0.5,"SideOfStreet":"left","CountryId":"20147700","StateId":"20157369","CountyId":"20158557","CityId":"20158598","DistrictId":"20158612","AddressId":"193636269","RoadLinkId":"154489050"}}},{"Relevance":1.0,"Distance":139.7,"MatchLevel":"houseNumber","MatchQuality":{"Country":1.0,"State":1.0,"County":1.0,"City":1.0,"District":1.0,"Street":[1.0],"HouseNumber":1.0,"PostalCode":1.0},"MatchType":"interpolated","Location":{"LocationId":"NT_RZNocza8czUhBpBOs6zCsD_xQD","LocationType":"point","DisplayPosition":{"Latitude":51.06107,"Longitude":6.09927},"MapView":{"TopLeft":{"Latitude":51.0621942,"Longitude":6.0974813},"BottomRight":{"Latitude":51.0599458,"Longitude":6.1010587}},"Address":{"Label":"Haagweiher 14, 52525 Heinsberg, Deutschland","Country":"DEU","State":"Nordrhein-Westfalen","County":"Heinsberg","City":"Heinsberg","District":"Heinsberg","Street":"Haagweiher","HouseNumber":"14","PostalCode":"52525","AdditionalData":[{"value":"Deutschland","key":"CountryName"},{"value":"Nordrhein-Westfalen","key":"StateName"},{"value":"Heinsberg","key":"CountyName"}]},"MapReference":{"ReferenceId":"77169825","Spot":0.42,"SideOfStreet":"right","CountryId":"20147700","StateId":"20157369","CountyId":"20158557","CityId":"20158598","DistrictId":"20158612","AddressId":"193971998","RoadLinkId":"39483251"}}},{"Relevance":1.0,"Distance":141.9,"MatchLevel":"houseNumber","MatchQuality":{"Country":1.0,"State":1.0,"County":1.0,"City":1.0,"District":1.0,"Street":[1.0],"HouseNumber":1.0,"PostalCode":1.0},"MatchType":"interpolated","Location":{"LocationId":"NT_k7FqtKdOvBmmXZUqK53BcB_1QD","LocationType":"point","DisplayPosition":{"Latitude":51.06252,"Longitude":6.09756},"MapView":{"TopLeft":{"Latitude":51.0636442,"Longitude":6.0957713},"BottomRight":{"Latitude":51.0613958,"Longitude":6.0993487}},"Address":{"Label":"Ostpromenade 54, 52525 Heinsberg, Deutschland","Country":"DEU","State":"Nordrhein-Westfalen","County":"Heinsberg","City":"Heinsberg","District":"Heinsberg","Street":"Ostpromenade","HouseNumber":"54","PostalCode":"52525","AdditionalData":[{"value":"Deutschland","key":"CountryName"},{"value":"Nordrhein-Westfalen","key":"StateName"},{"value":"Heinsberg","key":"CountyName"}]},"MapReference":{"ReferenceId":"1197799180","Spot":0.23,"SideOfStreet":"left","CountryId":"20147700","StateId":"20157369","CountyId":"20158557","CityId":"20158598","DistrictId":"20158612","AddressId":"195328579","RoadLinkId":"508736075"}}}]}]}}