{"Response":{"MetaInfo":{"Timestamp":"2020-03-28T10:05:05.134+0000","NextPageInformation":"2"},"View":[{"_type":"SearchResultsViewType","ViewId":0,"Result":[{"Relevance":1.0,"Distance":0.0,"Direction":0.0,"MatchLevel":"district","MatchQuality":{"Country":1.0,"State":1.0,"County":1.0,"City":1.0,"District":1.0,"PostalCode":1.0},"Location":{"LocationId":"NT_hCkk6F5QWk8cYez6WY0S1A","LocationType":"point","DisplayPosition":{"Latitude":51.0273489,"Longitude":13.709729},"MapView":{"TopLeft":{"Latitude":51.04455,"Longitude":13.68145},"BottomRight":{"Latitude":51.0026,"Longitude":13.76502}},"Address":{"Label":"Plauen, Dresden, Sachsen, Deutschland","Country":"DEU","State":"Sachsen","County":"Dresden","City":"Dresden","District":"Plauen","PostalCode":"01187","AdditionalData":[{"value":"Deutschland","key":"CountryName"},{"value":"Sachsen","key":"StateName"},{"value":"Dresden","key":"CountyName"}]},"MapReference":{"ReferenceId":"53570017","SideOfStreet":"neither","CountryId":"20147700","StateId":"20191185","CountyId":"20191437","CityId":"20191438","DistrictId":"20481084"}}},{"Relevance":1.0,"Distance":29.0,"MatchLevel":"houseNumber","MatchQuality":{"Country":1.0,"State":1.0,"County":1.0,"City":1.0,"District":1.0,"Street":[1.0],"HouseNumber":1.0,"PostalCode":1.0},"MatchType":"interpolated","Location":{"LocationId":"NT_BPR1oQ2LLOSBqvkTsRejzD_xkD","LocationType":"point","DisplayPosition":{"Latitude":51.02697,"Longitude":13.70951},"MapView":{"TopLeft":{"Latitude":51.0280942,"Longitude":13.7077227},"BottomRight":{"Latitude":51.0258458,"Longitude":13.7112973}},"Address":{"Label":"Plauenscher Ring 19, 01187 Dresden, Deutschland","Country":"DEU","State":"Sachsen","County":"Dresden","City":"Dresden","District":"Plauen","Street":"Plauenscher Ring","HouseNumber":"19","PostalCode":"01187","AdditionalData":[{"value":"Deutschland","key":"CountryName"},{"value":"Sachsen","key":"StateName"},{"value":"Dresden","key":"CountyName"}]},"MapReference":{"ReferenceId":"53569949","Spot":0.5,"SideOfStreet":"right","CountryId":"20147700","StateId":"20191185","CountyId":"20191437","CityId":"20191438","DistrictId":"20481084","AddressId":"169514169","RoadLinkId":"39589612"}}},{"Relevance":1.0,"Distance":33.4,"MatchLevel":"houseNumber","MatchQuality":{"Country":1.0,"State":1.0,"County":1.0,"City":1.0,"District":1.0,"Street":[1.0],"HouseNumber":1.0,"PostalCode":1.0},"MatchType":"interpolated","Location":{"LocationId":"NT_U4bp-MotPKAYxTrBBDkUPD_5IzQ","LocationType":"point","DisplayPosition":{"Latitude":51.0272,"Longitude":13.7107},"MapView":{"TopLeft":{"Latitude":51.0283242,"Longitude":13.7089127},"BottomRight":{"Latitude":51.0260758,"Longitude":13.7124873}},"Address":{"Label":"Kaitzer Straße 92C, 01187 Dresden, Deutschland","Country":"DEU","State":"Sachsen","County":"Dresden","City":"Dresden","District":"Plauen","Street":"Kaitzer Straße","HouseNumber":"92C","PostalCode":"01187","AdditionalData":[{"value":"Deutschland","key":"CountryName"},{"value":"Sachsen","key":"StateName"},{"value":"Dresden","key":"CountyName"}]},"MapReference":{"ReferenceId":"53569958","Spot":0.38,"SideOfStreet":"left","CountryId":"20147700","StateId":"20191185","CountyId":"20191437","CityId":"20191438","DistrictId":"20481084","AddressId":"167877645","RoadLinkId":"39590902"}}},{"Relevance":1.0,"Distance":47.0,"MatchLevel":"houseNumber","MatchQuality":{"Country":1.0,"State":1.0,"County":1.0,"City":1.0,"District":1.0,"Street":[1.0],"HouseNumber":1.0,"PostalCode":1.0},"MatchType":"interpolated","Location":{"LocationId":"NT_V6tjxmTkR22cu.iKoGofkC_xAzN","LocationType":"point","DisplayPosition":{"Latitude":51.02776,"Longitude":13.70922},"MapView":{"TopLeft":{"Latitude":51.0288842,"Longitude":13.7074326},"BottomRight":{"Latitude":51.0266358,"Longitude":13.7110074}},"Address":{"Label":"Hohe Straße 107, 01187 Dresden, Deutschland","Country":"DEU","State":"Sachsen","County":"Dresden","City":"Dresden","District":"Plauen","Street":"Hohe Straße","HouseNumber":"107","PostalCode":"01187","AdditionalData":[{"value":"Deutschland","key":"CountryName"},{"value":"Sachsen","key":"StateName"},{"value":"Dresden","key":"CountyName"}]},"MapReference":{"ReferenceId":"53569957","Spot":0.34,"SideOfStreet":"right","CountryId":"20147700","StateId":"20191185","CountyId":"20191437","CityId":"20191438","DistrictId":"20481084","AddressId":"169131488","RoadLinkId":"39773136"}}},{"Relevance":1.0,"Distance":69.2,"MatchLevel":"houseNumber","MatchQuality":{"Country":1.0,"State":1.0,"County":1.0,"City":1.0,"District":1.0,"Street":[1.0],"HouseNumber":1.0,"PostalCode":1.0},"MatchType":"interpolated","Location":{"LocationId":"NT_V6tjxmTkR22cu.iKoGofkC_xETM","LocationType":"point","DisplayPosition":{"Latitude":51.02709,"Longitude":13.70869},"MapView":{"TopLeft":{"Latitude":51.0282142,"Longitude":13.7069027},"BottomRight":{"Latitude":51.0259658,"Longitude":13.7104773}},"Address":{"Label":"Hohe Straße 111, 01187 Dresden, Deutschland","Country":"DEU","State":"Sachsen","County":"Dresden","City":"Dresden","District":"Plauen","Street":"Hohe Straße","HouseNumber":"111","PostalCode":"01187","AdditionalData":[{"value":"Deutschland","key":"CountryName"},{"value":"Sachsen","key":"StateName"},{"value":"Dresden","key":"CountyName"}]},"MapReference":{"ReferenceId":"53569965","Spot":0.73,"SideOfStreet":"right","CountryId":"20147700","StateId":"20191185","CountyId":"20191437","CityId":"20191438","DistrictId":"20481084","AddressId":"169127834","RoadLinkId":"40138059"}}},{"Relevance":1.0,"Distance":86.9,"MatchLevel":"houseNumber","MatchQuality":{"Country":1.0,"State":1.0,"County":1.0,"City":1.0,"District":1.0,"Street":[1.0],"HouseNumber":1.0,"PostalCode":1.0},"MatchType":"interpolated","Location":{"LocationId":"NT_agh1GzqJ4GkkKfwPqJ3BUA_xITQ","LocationType":"point","DisplayPosition":{"Latitude":51.02849,"Longitude":13.71031},"MapView":{"TopLeft":{"Latitude":51.0296142,"Longitude":13.7085226},"BottomRight":{"Latitude":51.0273658,"Longitude":13.7120974}},"Address":{"Label":"Nöthnitzer Straße 12A, 01187 Dresden, Deutschland","Country":"DEU","State":"Sachsen","County":"Dresden","City":"Dresden","District":"Plauen","Street":"Nöthnitzer Straße","HouseNumber":"12A","PostalCode":"01187","AdditionalData":[{"value":"Deutschland","key":"CountryName"},{"value":"Sachsen","key":"StateName"},{"value":"Dresden","key":"CountyName"}]},"MapReference":{"ReferenceId":"1236685881","Spot":0.69,"SideOfStreet":"left","CountryId":"20147700","StateId":"20191185","CountyId":"20191437","CityId":"20191438","DistrictId":"20481084","AddressId":"169037186","RoadLinkId":"557364895"}}},{"Relevance":1.0,"Distance":101.1,"MatchLevel":"houseNumber","MatchQuality":{"Country":1.0,"State":1.0,"County":1.0,"City":1.0,"District":1.0,"Street":[1.0],"HouseNumber":1.0,"PostalCode":1.0},"MatchType":"interpolated","Location":{"LocationId":"NT_U4bp-MotPKAYxTrBBDkUPD_xADM","LocationType":"point","DisplayPosition":{"Latitude":51.02638,"Longitude":13.70993},"MapView":{"TopLeft":{"Latitude":51.0275042,"Longitude":13.7081427},"BottomRight":{"Latitude":51.0252558,"Longitude":13.7117173}},"Address":{"Label":"Kaitzer Straße 100, 01187 Dresden, Deutschland","Country":"DEU","State":"Sachsen","County":"Dresden","City":"Dresden","District":"Plauen","Street":"Kaitzer Straße","HouseNumber":"100","PostalCode":"01187","AdditionalData":[{"value":"Deutschland","key":"CountryName"},{"value":"Sachsen","key":"StateName"},{"value":"Dresden","key":"CountyName"}]},"MapReference":{"ReferenceId":"53569985","Spot":0.75,"SideOfStreet":"left","CountryId":"20147700","StateId":"20191185","CountyId":"20191437","CityId":"20191438","DistrictId":"20481084","AddressId":"168326877","RoadLinkId":"39647797"}}},{"Relevance":1.0,"Distance":127.7,"MatchLevel":"houseNumber","MatchQuality":{"Country":1.0,"State":1.0,"County":1.0,"City":1.0,"District":1.0,"Street":[1.0],"HouseNumber":1.0,"PostalCode":1.0},"MatchType":"interpolated","Location":{"LocationId":"NT_BPR1oQ2LLOSBqvkTsRejzD_yMD","LocationType":"point","DisplayPosition":{"Latitude":51.02634,"Longitude":13.7106},"MapView":{"TopLeft":{"Latitude":51.0274642,"Longitude":13.7088127},"BottomRight":{"Latitude":51.0252158,"Longitude":13.7123873}},"Address":{"Label":"Plauenscher Ring 23, 01187 Dresden, Deutschland","Country":"DEU","State":"Sachsen","County":"Dresden","City":"Dresden","District":"Plauen","Street":"Plauenscher Ring","HouseNumber":"23","PostalCode":"01187","AdditionalData":[{"value":"Deutschland","key":"CountryName"},{"value":"Sachsen","key":"StateName"},{"value":"Dresden","key":"CountyName"}]},"MapReference":{"ReferenceId":"53569948","Spot":0.75,"SideOfStreet":"right","CountryId":"20147700","StateId":"20191185","CountyId":"20191437","CityId":"20191438","DistrictId":"20481084","AddressId":"170309222","RoadLinkId":"39883537"}}},{"Relevance":1.0,"Distance":134.4,"MatchLevel":"houseNumber","MatchQuality":{"Country":1.0,"State":1.0,"County":1.0,"City":1.0,"District":1.0,"Street":[1.0],"HouseNumber":1.0,"PostalCode":1.0},"MatchType":"interpolated","Location":{"LocationId":"NT_agh1GzqJ4GkkKfwPqJ3BUA_4A","LocationType":"point","DisplayPosition":{"Latitude":51.02868,"Longitude":13.70958},"MapView":{"TopLeft":{"Latitude":51.0298042,"Longitude":13.7077926},"BottomRight":{"Latitude":51.0275558,"Longitude":13.7113674}},"Address":{"Label":"Nöthnitzer Straße 8, 01187 Dresden, Deutschland","Country":"DEU","State":"Sachsen","County":"Dresden","City":"Dresden","District":"Plauen","Street":"Nöthnitzer Straße","HouseNumber":"8","PostalCode":"01187","AdditionalData":[{"value":"Deutschland","key":"CountryName"},{"value":"Sachsen","key":"StateName"},{"value":"Dresden","key":"CountyName"}]},"MapReference":{"ReferenceId":"835647324","Spot":0.97,"SideOfStreet":"left","CountryId":"20147700","StateId":"20191185","CountyId":"20191437","CityId":"20191438","DistrictId":"20481084","AddressId":"168305699","RoadLinkId":"218902388"}}},{"Relevance":1.0,"Distance":144.8,"MatchLevel":"houseNumber","MatchQuality":{"Country":1.0,"State":1.0,"County":1.0,"City":1.0,"District":1.0,"Street":[1.0],"HouseNumber":1.0,"PostalCode":1.0},"MatchType":"interpolated","Location":{"LocationId":"NT_yLZO3ruhwKP29BKRC7jIrD_zA","LocationType":"point","DisplayPosition":{"Latitude":51.02606,"Longitude":13.70877},"MapView":{"TopLeft":{"Latitude":51.0271842,"Longitude":13.7069827},"BottomRight":{"Latitude":51.0249358,"Longitude":13.7105573}},"Address":{"Label":"Friedrich-Hegel-Straße 3, 01187 Dresden, Deutschland","Country":"DEU","State":"Sachsen","County":"Dresden","City":"Dresden","District":"Plauen","Street":"Friedrich-Hegel-Straße","HouseNumber":"3","PostalCode":"01187","AdditionalData":[{"value":"Deutschland","key":"CountryName"},{"value":"Sachsen","key":"StateName"},{"value":"Dresden","key":"CountyName"}]},"MapReference":{"ReferenceId":"53569964","Spot":0.49,"SideOfStreet":"right","CountryId":"20147700","StateId":"20191185","CountyId":"20191437","CityId":"20191438","DistrictId":"20481084","AddressId":"168192666","RoadLinkId":"40021326"}}}]}]}}