{"Response":{"MetaInfo":{"Timestamp":"2020-03-28T10:22:53.856+0000","NextPageInformation":"2"},"View":[{"_type":"SearchResultsViewType","ViewId":0,"Result":[{"Relevance":1.0,"Distance":0.0,"Direction":0.0,"MatchLevel":"district","MatchQuality":{"Country":1.0,"State":1.0,"County":1.0,"City":1.0,"District":1.0,"PostalCode":1.0},"Location":{"LocationId":"NT_MLmTPszlGLrvY3YlTbIp8A","LocationType":"point","DisplayPosition":{"Latitude":51.0320957,"Longitude":6.6823852},"MapView":{"TopLeft":{"Latitude":51.04256,"Longitude":6.67385},"BottomRight":{"Latitude":51.02522,"Longitude":6.70311}},"Address":{"Label":"Rommerskirchen, Nordrhein-Westfalen, Deutschland","Country":"DEU","State":"Nordrhein-Westfalen","County":"Rhein-Kreis Neuss","City":"Rommerskirchen","District":"Rommerskirchen","PostalCode":"41569","AdditionalData":[{"value":"Deutschland","key":"CountryName"},{"value":"Nordrhein-Westfalen","key":"StateName"},{"value":"Rhein-Kreis Neuss","key":"CountyName"}]},"MapReference":{"ReferenceId":"841139110","SideOfStreet":"neither","CountryId":"20147700","StateId":"20157369","CountyId":"20157687","CityId":"20157783","DistrictId":"20157792"}}},{"Relevance":1.0,"Distance":6.2,"MatchLevel":"houseNumber","MatchQuality":{"Country":1.0,"State":1.0,"County":1.0,"City":1.0,"District":1.0,"Street":[1.0],"HouseNumber":1.0,"PostalCode":1.0},"MatchType":"interpolated","Location":{"LocationId":"NT_AJstT5.nzI.-1fGK8KhqTC_yUD","LocationType":"point","DisplayPosition":{"Latitude":51.03215,"Longitude":6.68249},"MapView":{"TopLeft":{"Latitude":51.0332742,"Longitude":6.6807025},"BottomRight":{"Latitude":51.0310258,"Longitude":6.6842775}},"Address":{"Label":"Wehrstraße 25, 41569 Rommerskirchen, Deutschland","Country":"DEU","State":"Nordrhein-Westfalen","County":"Rhein-Kreis Neuss","City":"Rommerskirchen","District":"Rommerskirchen","Street":"Wehrstraße","HouseNumber":"25","PostalCode":"41569","AdditionalData":[{"value":"Deutschland","key":"CountryName"},{"value":"Nordrhein-Westfalen","key":"StateName"},{"value":"Rhein-Kreis Neuss","key":"CountyName"}]},"MapReference":{"ReferenceId":"50895981","Spot":0.48,"SideOfStreet":"left","CountryId":"20147700","StateId":"20157369","CountyId":"20157687","CityId":"20157783","DistrictId":"20157792","AddressId":"196169424","RoadLinkId":"39081087"}}},{"Relevance":1.0,"Distance":73.7,"MatchLevel":"houseNumber","MatchQuality":{"Country":1.0,"State":1.0,"County":1.0,"City":1.0,"District":1.0,"Street":[1.0],"HouseNumber":1.0,"PostalCode":1.0},"MatchType":"interpolated","Location":{"LocationId":"NT_e9gYkZW-vURIharlf.TkhA_yMD","LocationType":"point","DisplayPosition":{"Latitude":51.03225,"Longitude":6.68374},"MapView":{"TopLeft":{"Latitude":51.0333742,"Longitude":6.6819525},"BottomRight":{"Latitude":51.0311258,"Longitude":6.6855275}},"Address":{"Label":"Giller Straße 23, 41569 Rommerskirchen, Deutschland","Country":"DEU","State":"Nordrhein-Westfalen","County":"Rhein-Kreis Neuss","City":"Rommerskirchen","District":"Rommerskirchen","Street":"Giller Straße","HouseNumber":"23","PostalCode":"41569","AdditionalData":[{"value":"Deutschland","key":"CountryName"},{"value":"Nordrhein-Westfalen","key":"StateName"},{"value":"Rhein-Kreis Neuss","key":"CountyName"}]},"MapReference":{"ReferenceId":"50896056","Spot":0.01,"SideOfStreet":"left","CountryId":"20147700","StateId":"20157369","CountyId":"20157687","CityId":"20157783","DistrictId":"20157792","AddressId":"194189080","RoadLinkId":"39080451"}}},{"Relevance":1.0,"Distance":80.5,"MatchLevel":"houseNumber","MatchQuality":{"Country":1.0,"State":1.0,"County":1.0,"City":1.0,"District":1.0,"Street":[1.0],"HouseNumber":1.0,"PostalCode":1.0},"MatchType":"interpolated","Location":{"LocationId":"NT_e9gYkZW-vURIharlf.TkhA_l_50896057_L_yMD","LocationType":"point","DisplayPosition":{"Latitude":51.0321861,"Longitude":6.6837355},"MapView":{"TopLeft":{"Latitude":51.0333103,"Longitude":6.681948},"BottomRight":{"Latitude":51.031062,"Longitude":6.685523}},"Address":{"Label":"Giller Straße 23, 41569 Rommerskirchen, Deutschland","Country":"DEU","State":"Nordrhein-Westfalen","County":"Rhein-Kreis Neuss","City":"Rommerskirchen","District":"Rommerskirchen","Street":"Giller Straße","HouseNumber":"23","PostalCode":"41569","AdditionalData":[{"value":"Deutschland","key":"CountryName"},{"value":"Nordrhein-Westfalen","key":"StateName"},{"value":"Rhein-Kreis Neuss","key":"CountyName"}]},"MapReference":{"ReferenceId":"50896057","Spot":0.55,"SideOfStreet":"left","CountryId":"20147700","StateId":"20157369","CountyId":"20157687","CityId":"20157783","DistrictId":"20157792"}}},{"Relevance":1.0,"Distance":81.9,"MatchLevel":"houseNumber","MatchQuality":{"Country":1.0,"State":1.0,"County":1.0,"City":1.0,"District":1.0,"Street":[1.0],"HouseNumber":1.0,"PostalCode":1.0},"MatchType":"interpolated","Location":{"LocationId":"NT_AJstT5.nzI.-1fGK8KhqTC_xAD","LocationType":"point","DisplayPosition":{"Latitude":51.03278,"Longitude":6.68171},"MapView":{"TopLeft":{"Latitude":51.0339042,"Longitude":6.6799224},"BottomRight":{"Latitude":51.0316558,"Longitude":6.6834976}},"Address":{"Label":"Wehrstraße 10, 41569 Rommerskirchen, Deutschland","Country":"DEU","State":"Nordrhein-Westfalen","County":"Rhein-Kreis Neuss","City":"Rommerskirchen","District":"Rommerskirchen","Street":"Wehrstraße","HouseNumber":"10","PostalCode":"41569","AdditionalData":[{"value":"Deutschland","key":"CountryName"},{"value":"Nordrhein-Westfalen","key":"StateName"},{"value":"Rhein-Kreis Neuss","key":"CountyName"}]},"MapReference":{"ReferenceId":"50895982","Spot":0.03,"SideOfStreet":"right","CountryId":"20147700","StateId":"20157369","CountyId":"20157687","CityId":"20157783","DistrictId":"20157792","AddressId":"195265921","RoadLinkId":"39256927"}}},{"Relevance":1.0,"Distance":83.5,"MatchLevel":"houseNumber","MatchQuality":{"Country":1.0,"State":1.0,"County":1.0,"City":1.0,"District":1.0,"Street":[1.0],"HouseNumber":1.0,"PostalCode":1.0},"MatchType":"interpolated","Location":{"LocationId":"NT_e9gYkZW-vURIharlf.TkhA_yUD","LocationType":"point","DisplayPosition":{"Latitude":51.032,"Longitude":6.68373},"MapView":{"TopLeft":{"Latitude":51.0331242,"Longitude":6.6819425},"BottomRight":{"Latitude":51.0308758,"Longitude":6.6855175}},"Address":{"Label":"Giller Straße 25, 41569 Rommerskirchen, Deutschland","Country":"DEU","State":"Nordrhein-Westfalen","County":"Rhein-Kreis Neuss","City":"Rommerskirchen","District":"Rommerskirchen","Street":"Giller Straße","HouseNumber":"25","PostalCode":"41569","AdditionalData":[{"value":"Deutschland","key":"CountryName"},{"value":"Nordrhein-Westfalen","key":"StateName"},{"value":"Rhein-Kreis Neuss","key":"CountyName"}]},"MapReference":{"ReferenceId":"1256907265","Spot":0.63,"SideOfStreet":"left","CountryId":"20147700","StateId":"20157369","CountyId":"20157687","CityId":"20157783","DistrictId":"20157792","AddressId":"194125085","RoadLinkId":"580655916"}}},{"Relevance":1.0,"Distance":92.0,"MatchLevel":"houseNumber","MatchQuality":{"Country":1.0,"State":1.0,"County":1.0,"City":1.0,"District":1.0,"Street":[1.0],"HouseNumber":1.0,"PostalCode":1.0},"MatchType":"interpolated","Location":{"LocationId":"NT_e9gYkZW-vURIharlf.TkhA_ycD","LocationType":"point","DisplayPosition":{"Latitude":51.03175,"Longitude":6.68375},"MapView":{"TopLeft":{"Latitude":51.0328742,"Longitude":6.6819625},"BottomRight":{"Latitude":51.0306258,"Longitude":6.6855375}},"Address":{"Label":"Giller Straße 27, 41569 Rommerskirchen, Deutschland","Country":"DEU","State":"Nordrhein-Westfalen","County":"Rhein-Kreis Neuss","City":"Rommerskirchen","District":"Rommerskirchen","Street":"Giller Straße","HouseNumber":"27","PostalCode":"41569","AdditionalData":[{"value":"Deutschland","key":"CountryName"},{"value":"Nordrhein-Westfalen","key":"StateName"},{"value":"Rhein-Kreis Neuss","key":"CountyName"}]},"MapReference":{"ReferenceId":"1256907264","Spot":0.44,"SideOfStreet":"left","CountryId":"20147700","StateId":"20157369","CountyId":"20157687","CityId":"20157783","DistrictId":"20157792","AddressId":"743420495","RoadLinkId":"580655915"}}},{"Relevance":1.0,"Distance":100.9,"MatchLevel":"street","MatchQuality":{"Country":1.0,"State":1.0,"County":1.0,"City":1.0,"District":1.0,"PostalCode":1.0},"Location":{"LocationId":"NT_Z2Dz7ZWuj9yprbQ9jO55PD_l_1256907263_L","LocationType":"point","DisplayPosition":{"Latitude":51.0318,"Longitude":6.68375},"MapView":{"TopLeft":{"Latitude":51.03236,"Longitude":6.68375},"BottomRight":{"Latitude":51.0318,"Longitude":6.68719}},"Address":{"Label":"41569 Rommerskirchen, Deutschland","Country":"DEU","State":"Nordrhein-Westfalen","County":"Rhein-Kreis Neuss","City":"Rommerskirchen","District":"Rommerskirchen","PostalCode":"41569","AdditionalData":[{"value":"Deutschland","key":"CountryName"},{"value":"Nordrhein-Westfalen","key":"StateName"},{"value":"Rhein-Kreis Neuss","key":"CountyName"}]},"MapReference":{"ReferenceId":"1256907263","Spot":0.0,"SideOfStreet":"left","CountryId":"20147700","StateId":"20157369","CountyId":"20157687","CityId":"20157783","DistrictId":"20157792"}}},{"Relevance":1.0,"Distance":102.6,"MatchLevel":"houseNumber","MatchQuality":{"Country":1.0,"State":1.0,"County":1.0,"City":1.0,"District":1.0,"Street":[1.0],"HouseNumber":1.0,"PostalCode":1.0},"MatchType":"interpolated","Location":{"LocationId":"NT_Bx5QeewTkr2.4UFvDv9t3B_0A","LocationType":"point","DisplayPosition":{"Latitude":51.03278,"Longitude":6.68127},"MapView":{"TopLeft":{"Latitude":51.0339042,"Longitude":6.6794824},"BottomRight":{"Latitude":51.0316558,"Longitude":6.6830576}},"Address":{"Label":"Hermann-Spies-Weg 4, 41569 Rommerskirchen, Deutschland","Country":"DEU","State":"Nordrhein-Westfalen","County":"Rhein-Kreis Neuss","City":"Rommerskirchen","District":"Rommerskirchen","Street":"Hermann-Spies-Weg","HouseNumber":"4","PostalCode":"41569","AdditionalData":[{"value":"Deutschland","key":"CountryName"},{"value":"Nordrhein-Westfalen","key":"StateName"},{"value":"Rhein-Kreis Neuss","key":"CountyName"}]},"MapReference":{"ReferenceId":"50895980","Spot":0.26,"SideOfStreet":"left","CountryId":"20147700","StateId":"20157369","CountyId":"20157687","CityId":"20157783","DistrictId":"20157792","AddressId":"193818782","RoadLinkId":"39117769"}}},{"Relevance":1.0,"Distance":104.9,"MatchLevel":"street","MatchQuality":{"Country":1.0,"State":1.0,"County":1.0,"City":1.0,"District":1.0,"Street":[1.0],"PostalCode":1.0},"Location":{"LocationId":"NT_dFkyG2lhVHSt2pIQxOsnYA_l_50895962_L","LocationType":"point","DisplayPosition":{"Latitude":51.03156,"Longitude":6.68362},"MapView":{"TopLeft":{"Latitude":51.03171,"Longitude":6.68332},"BottomRight":{"Latitude":51.03,"Longitude":6.68375}},"Address":{"Label":"Am Teebaum, 41569 Rommerskirchen, Deutschland","Country":"DEU","State":"Nordrhein-Westfalen","County":"Rhein-Kreis Neuss","City":"Rommerskirchen","District":"Rommerskirchen","Street":"Am Teebaum","PostalCode":"41569","AdditionalData":[{"value":"Deutschland","key":"CountryName"},{"value":"Nordrhein-Westfalen","key":"StateName"},{"value":"Rhein-Kreis Neuss","key":"CountyName"}]},"MapReference":{"ReferenceId":"50895962","Spot":0.89,"SideOfStreet":"left","CountryId":"20147700","StateId":"20157369","CountyId":"20157687","CityId":"20157783","DistrictId":"20157792"}}}]}]}}