{"Response":{"MetaInfo":{"Timestamp":"2020-03-28T10:51:44.298+0000","NextPageInformation":"2"},"View":[{"_type":"SearchResultsViewType","ViewId":0,"Result":[{"Relevance":1.0,"Distance":0.0,"Direction":0.0,"MatchLevel":"city","MatchQuality":{"Country":1.0,"State":1.0,"County":1.0,"City":1.0,"PostalCode":1.0},"Location":{"LocationId":"NT_5MTfacFcQkov-La3-piSaD","LocationType":"point","DisplayPosition":{"Latitude":51.0262041,"Longitude":4.1133228},"MapView":{"TopLeft":{"Latitude":51.07228,"Longitude":3.99668},"BottomRight":{"Latitude":50.98512,"Longitude":4.19402}},"Address":{"Label":"Dendermonde, Vlaanderen, België","Country":"BEL","State":"Vlaanderen","County":"Oost-Vlaanderen","City":"Dendermonde","PostalCode":"9200","AdditionalData":[{"value":"België","key":"CountryName"},{"value":"Vlaanderen","key":"StateName"},{"value":"Oost-Vlaanderen","key":"CountyName"}]},"MapReference":{"ReferenceId":"762713823","SideOfStreet":"neither","CountryId":"20128886","StateId":"20204377","CountyId":"20205081","CityId":"20205192"}}},{"Relevance":1.0,"Distance":30.3,"MatchLevel":"street","MatchQuality":{"Country":1.0,"State":1.0,"County":1.0,"City":1.0,"Street":[1.0],"PostalCode":1.0},"Location":{"LocationId":"NT_4t46ZHZF06xca8QvPuTG0D_l_580430657_L","LocationType":"point","DisplayPosition":{"Latitude":51.02644,"Longitude":4.11354},"MapView":{"TopLeft":{"Latitude":51.02654,"Longitude":4.11351},"BottomRight":{"Latitude":51.02644,"Longitude":4.11357}},"Address":{"Label":"Kroonveldlaan, 9200 Dendermonde, België","Country":"BEL","State":"Vlaanderen","County":"Oost-Vlaanderen","City":"Dendermonde","Street":"Kroonveldlaan","PostalCode":"9200","AdditionalData":[{"value":"België","key":"CountryName"},{"value":"Vlaanderen","key":"StateName"},{"value":"Oost-Vlaanderen","key":"CountyName"}]},"MapReference":{"ReferenceId":"580430657","Spot":0.0,"SideOfStreet":"left","CountryId":"20128886","StateId":"20204377","CountyId":"20205081","CityId":"20205192"}}},{"Relevance":1.0,"Distance":32.7,"MatchLevel":"houseNumber","MatchQuality":{"Country":1.0,"State":1.0,"County":1.0,"City":1.0,"Street":[1.0],"HouseNumber":1.0,"PostalCode":1.0},"MatchType":"interpolated","Location":{"LocationId":"NT_4t46ZHZF06xca8QvPuTG0D_1AD","LocationType":"point","DisplayPosition":{"Latitude":51.02642,"Longitude":4.11364},"MapView":{"TopLeft":{"Latitude":51.0275442,"Longitude":4.1118527},"BottomRight":{"Latitude":51.0252958,"Longitude":4.1154273}},"Address":{"Label":"Kroonveldlaan 50, 9200 Dendermonde, België","Country":"BEL","State":"Vlaanderen","County":"Oost-Vlaanderen","City":"Dendermonde","Street":"Kroonveldlaan","HouseNumber":"50","PostalCode":"9200","AdditionalData":[{"value":"België","key":"CountryName"},{"value":"Vlaanderen","key":"StateName"},{"value":"Oost-Vlaanderen","key":"CountyName"}]},"MapReference":{"ReferenceId":"580430658","Spot":0.6,"SideOfStreet":"right","CountryId":"20128886","StateId":"20204377","CountyId":"20205081","CityId":"20205192","AddressId":"626407963","RoadLinkId":"30239244"}}},{"Relevance":1.0,"Distance":41.2,"MatchLevel":"street","MatchQuality":{"Country":1.0,"State":1.0,"County":1.0,"City":1.0,"Street":[1.0],"PostalCode":1.0},"Location":{"LocationId":"NT_4t46ZHZF06xca8QvPuTG0D_l_580430659_L","LocationType":"point","DisplayPosition":{"Latitude":51.02654,"Longitude":4.11357},"MapView":{"TopLeft":{"Latitude":51.02654,"Longitude":4.11357},"BottomRight":{"Latitude":51.02647,"Longitude":4.11368}},"Address":{"Label":"Kroonveldlaan, 9200 Dendermonde, België","Country":"BEL","State":"Vlaanderen","County":"Oost-Vlaanderen","City":"Dendermonde","Street":"Kroonveldlaan","PostalCode":"9200","AdditionalData":[{"value":"België","key":"CountryName"},{"value":"Vlaanderen","key":"StateName"},{"value":"Oost-Vlaanderen","key":"CountyName"}]},"MapReference":{"ReferenceId":"580430659","Spot":1.0,"SideOfStreet":"left","CountryId":"20128886","StateId":"20204377","CountyId":"20205081","CityId":"20205192"}}},{"Relevance":1.0,"Distance":41.2,"MatchLevel":"street","MatchQuality":{"Country":1.0,"State":1.0,"County":1.0,"City":1.0,"Street":[1.0],"PostalCode":1.0},"Location":{"LocationId":"NT_4t46ZHZF06xca8QvPuTG0D_l_580430656_L","LocationType":"point","DisplayPosition":{"Latitude":51.02654,"Longitude":4.11357},"MapView":{"TopLeft":{"Latitude":51.02816,"Longitude":4.11307},"BottomRight":{"Latitude":51.02654,"Longitude":4.11443}},"Address":{"Label":"Kroonveldlaan, 9200 Dendermonde, België","Country":"BEL","State":"Vlaanderen","County":"Oost-Vlaanderen","City":"Dendermonde","Street":"Kroonveldlaan","PostalCode":"9200","AdditionalData":[{"value":"België","key":"CountryName"},{"value":"Vlaanderen","key":"StateName"},{"value":"Oost-Vlaanderen","key":"CountyName"}]},"MapReference":{"ReferenceId":"580430656","Spot":0.0,"SideOfStreet":"left","CountryId":"20128886","StateId":"20204377","CountyId":"20205081","CityId":"20205192"}}},{"Relevance":1.0,"Distance":56.0,"MatchLevel":"street","MatchQuality":{"Country":1.0,"State":1.0,"County":1.0,"City":1.0,"PostalCode":1.0},"Location":{"LocationId":"NT_reHm9XQnPbv.wHuBW9VlyD_l_580430662_R","LocationType":"point","DisplayPosition":{"Latitude":51.02571,"Longitude":4.11348},"MapView":{"TopLeft":{"Latitude":51.02625,"Longitude":4.11345},"BottomRight":{"Latitude":51.02544,"Longitude":4.11672}},"Address":{"Label":"9200 Dendermonde, België","Country":"BEL","State":"Vlaanderen","County":"Oost-Vlaanderen","City":"Dendermonde","PostalCode":"9200","AdditionalData":[{"value":"België","key":"CountryName"},{"value":"Vlaanderen","key":"StateName"},{"value":"Oost-Vlaanderen","key":"CountyName"}]},"MapReference":{"ReferenceId":"580430662","Spot":0.0,"SideOfStreet":"right","CountryId":"20128886","StateId":"20204377","CountyId":"20205081","CityId":"20205192"}}},{"Relevance":1.0,"Distance":190.6,"MatchLevel":"houseNumber","MatchQuality":{"Country":1.0,"State":1.0,"County":1.0,"City":1.0,"Street":[1.0],"HouseNumber":1.0,"PostalCode":1.0},"MatchType":"interpolated","Location":{"LocationId":"NT_4t46ZHZF06xca8QvPuTG0D_2ED","LocationType":"point","DisplayPosition":{"Latitude":51.02689,"Longitude":4.11582},"MapView":{"TopLeft":{"Latitude":51.0280142,"Longitude":4.1140327},"BottomRight":{"Latitude":51.0257658,"Longitude":4.1176073}},"Address":{"Label":"Kroonveldlaan 61, 9200 Dendermonde, België","Country":"BEL","State":"Vlaanderen","County":"Oost-Vlaanderen","City":"Dendermonde","Street":"Kroonveldlaan","HouseNumber":"61","PostalCode":"9200","AdditionalData":[{"value":"België","key":"CountryName"},{"value":"Vlaanderen","key":"StateName"},{"value":"Oost-Vlaanderen","key":"CountyName"}]},"MapReference":{"ReferenceId":"544984730","Spot":0.44,"SideOfStreet":"right","CountryId":"20128886","StateId":"20204377","CountyId":"20205081","CityId":"20205192","AddressId":"399497584","RoadLinkId":"30934325"}}},{"Relevance":1.0,"Distance":202.1,"MatchLevel":"houseNumber","MatchQuality":{"Country":1.0,"State":1.0,"County":1.0,"City":1.0,"Street":[1.0],"HouseNumber":1.0,"PostalCode":1.0},"MatchType":"interpolated","Location":{"LocationId":"NT_FForbUn0qTYpWgsZnZeyhC_0QTQ","LocationType":"point","DisplayPosition":{"Latitude":51.02402,"Longitude":4.11355},"MapView":{"TopLeft":{"Latitude":51.0251442,"Longitude":4.1117628},"BottomRight":{"Latitude":51.0228958,"Longitude":4.1153372}},"Address":{"Label":"Baleunisstraat 44A, 9200 Dendermonde, België","Country":"BEL","State":"Vlaanderen","County":"Oost-Vlaanderen","City":"Dendermonde","Street":"Baleunisstraat","HouseNumber":"44A","PostalCode":"9200","AdditionalData":[{"value":"België","key":"CountryName"},{"value":"Vlaanderen","key":"StateName"},{"value":"Oost-Vlaanderen","key":"CountyName"}]},"MapReference":{"ReferenceId":"59214170","Spot":0.36,"SideOfStreet":"right","CountryId":"20128886","StateId":"20204377","CountyId":"20205081","CityId":"20205192","AddressId":"400305632","RoadLinkId":"30465923"}}},{"Relevance":1.0,"Distance":204.5,"MatchLevel":"houseNumber","MatchQuality":{"Country":1.0,"State":1.0,"County":1.0,"City":1.0,"Street":[1.0],"HouseNumber":1.0,"PostalCode":1.0},"MatchType":"interpolated","Location":{"LocationId":"NT_4t46ZHZF06xca8QvPuTG0D_1UD","LocationType":"point","DisplayPosition":{"Latitude":51.02778,"Longitude":4.11483},"MapView":{"TopLeft":{"Latitude":51.0289042,"Longitude":4.1130426},"BottomRight":{"Latitude":51.0266558,"Longitude":4.1166174}},"Address":{"Label":"Kroonveldlaan 55, 9200 Dendermonde, België","Country":"BEL","State":"Vlaanderen","County":"Oost-Vlaanderen","City":"Dendermonde","Street":"Kroonveldlaan","HouseNumber":"55","PostalCode":"9200","AdditionalData":[{"value":"België","key":"CountryName"},{"value":"Vlaanderen","key":"StateName"},{"value":"Oost-Vlaanderen","key":"CountyName"}]},"MapReference":{"ReferenceId":"544984731","Spot":0.6,"SideOfStreet":"right","CountryId":"20128886","StateId":"20204377","CountyId":"20205081","CityId":"20205192","AddressId":"401603115","RoadLinkId":"30328045"}}},{"Relevance":1.0,"Distance":219.8,"MatchLevel":"houseNumber","MatchQuality":{"Country":1.0,"State":1.0,"County":1.0,"City":1.0,"Street":[1.0],"HouseNumber":1.0,"PostalCode":1.0},"MatchType":"interpolated","Location":{"LocationId":"NT_fcK0ZxL3HZMlONgai2q4xA_yA","LocationType":"point","DisplayPosition":{"Latitude":51.02737,"Longitude":4.11586},"MapView":{"TopLeft":{"Latitude":51.0284942,"Longitude":4.1140727},"BottomRight":{"Latitude":51.0262458,"Longitude":4.1176473}},"Address":{"Label":"Patrijzenlaan 2, 9200 Dendermonde, België","Country":"BEL","State":"Vlaanderen","County":"Oost-Vlaanderen","City":"Dendermonde","Street":"Patrijzenlaan","HouseNumber":"2","PostalCode":"9200","AdditionalData":[{"value":"België","key":"CountryName"},{"value":"Vlaanderen","key":"StateName"},{"value":"Oost-Vlaanderen","key":"CountyName"}]},"MapReference":{"ReferenceId":"544984734","Spot":0.4,"SideOfStreet":"right","CountryId":"20128886","StateId":"20204377","CountyId":"20205081","CityId":"20205192","AddressId":"401000714","RoadLinkId":"30619149"}}}]}]}}