{"Response":{"MetaInfo":{"Timestamp":"2020-03-28T10:15:41.044+0000","NextPageInformation":"2"},"View":[{"_type":"SearchResultsViewType","ViewId":0,"Result":[{"Relevance":1.0,"Distance":0.0,"Direction":0.0,"MatchLevel":"city","MatchQuality":{"Country":1.0,"State":1.0,"County":1.0,"City":1.0,"PostalCode":1.0},"Location":{"LocationId":"NT_KdliLzKh5cX6EuJm9imwJA","LocationType":"point","DisplayPosition":{"Latitude":51.0969733,"Longitude":4.1365532},"MapView":{"TopLeft":{"Latitude":51.11183,"Longitude":4.05948},"BottomRight":{"Latitude":51.03208,"Longitude":4.19906}},"Address":{"Label":"Hamme, Vlaanderen, België","Country":"BEL","State":"Vlaanderen","County":"Oost-Vlaanderen","City":"Hamme","PostalCode":"9220","AdditionalData":[{"value":"België","key":"CountryName"},{"value":"Vlaanderen","key":"StateName"},{"value":"Oost-Vlaanderen","key":"CountyName"}]},"MapReference":{"ReferenceId":"59189861","SideOfStreet":"neither","CountryId":"20128886","StateId":"20204377","CountyId":"20205081","CityId":"20205202"}}},{"Relevance":1.0,"Distance":8.6,"MatchLevel":"houseNumber","MatchQuality":{"Country":1.0,"State":1.0,"County":1.0,"City":1.0,"Street":[1.0],"HouseNumber":1.0,"PostalCode":1.0},"MatchType":"interpolated","Location":{"LocationId":"NT_U84uCbL-aFrXTmAajrgYGC_xED","LocationType":"point","DisplayPosition":{"Latitude":51.09705,"Longitude":4.13657},"MapView":{"TopLeft":{"Latitude":51.0981742,"Longitude":4.13478},"BottomRight":{"Latitude":51.0959258,"Longitude":4.13836}},"Address":{"Label":"Plezantstraat 11, 9220 Hamme, België","Country":"BEL","State":"Vlaanderen","County":"Oost-Vlaanderen","City":"Hamme","Street":"Plezantstraat","HouseNumber":"11","PostalCode":"9220","AdditionalData":[{"value":"België","key":"CountryName"},{"value":"Vlaanderen","key":"StateName"},{"value":"Oost-Vlaanderen","key":"CountyName"}]},"MapReference":{"ReferenceId":"59189890","Spot":0.59,"SideOfStreet":"right","CountryId":"20128886","StateId":"20204377","CountyId":"20205081","CityId":"20205202","AddressId":"400643162","RoadLinkId":"30606626"}}},{"Relevance":1.0,"Distance":73.6,"MatchLevel":"houseNumber","MatchQuality":{"Country":1.0,"State":1.0,"County":1.0,"City":1.0,"Street":[1.0],"HouseNumber":1.0,"PostalCode":1.0},"MatchType":"interpolated","Location":{"LocationId":"NT_k7bC6pUr2UUNj7cz44CV-A_yA","LocationType":"point","DisplayPosition":{"Latitude":51.09744,"Longitude":4.13755},"MapView":{"TopLeft":{"Latitude":51.0985642,"Longitude":4.1357599},"BottomRight":{"Latitude":51.0963158,"Longitude":4.1393401}},"Address":{"Label":"Nieuwstraat 2, 9220 Hamme, België","Country":"BEL","State":"Vlaanderen","County":"Oost-Vlaanderen","City":"Hamme","Street":"Nieuwstraat","HouseNumber":"2","PostalCode":"9220","AdditionalData":[{"value":"België","key":"CountryName"},{"value":"Vlaanderen","key":"StateName"},{"value":"Oost-Vlaanderen","key":"CountyName"}]},"MapReference":{"ReferenceId":"59189892","Spot":0.41,"SideOfStreet":"left","CountryId":"20128886","StateId":"20204377","CountyId":"20205081","CityId":"20205202","AddressId":"399702749","RoadLinkId":"30251450"}}},{"Relevance":1.0,"Distance":79.1,"MatchLevel":"houseNumber","MatchQuality":{"Country":1.0,"State":1.0,"County":1.0,"City":1.0,"Street":[1.0],"HouseNumber":1.0,"PostalCode":1.0},"MatchType":"interpolated","Location":{"LocationId":"NT_5Pidje23MWk9p6Q8DtUrBC_l_580422811_R_3A","LocationType":"point","DisplayPosition":{"Latitude":51.09632,"Longitude":4.1357199},"MapView":{"TopLeft":{"Latitude":51.0974442,"Longitude":4.1339299},"BottomRight":{"Latitude":51.0951959,"Longitude":4.13751}},"Address":{"Label":"De Ring 7, 9220 Hamme, België","Country":"BEL","State":"Vlaanderen","County":"Oost-Vlaanderen","City":"Hamme","Street":"De Ring","HouseNumber":"7","PostalCode":"9220","AdditionalData":[{"value":"België","key":"CountryName"},{"value":"Vlaanderen","key":"StateName"},{"value":"Oost-Vlaanderen","key":"CountyName"}]},"MapReference":{"ReferenceId":"580422811","Spot":0.1,"SideOfStreet":"right","CountryId":"20128886","StateId":"20204377","CountyId":"20205081","CityId":"20205202"}}},{"Relevance":1.0,"Distance":79.1,"MatchLevel":"houseNumber","MatchQuality":{"Country":1.0,"State":1.0,"County":1.0,"City":1.0,"Street":[1.0],"HouseNumber":1.0,"PostalCode":1.0},"MatchType":"interpolated","Location":{"LocationId":"NT_NsrwOv-p6OXbLupNEGmHbD_5A","LocationType":"point","DisplayPosition":{"Latitude":51.09761,"Longitude":4.13705},"MapView":{"TopLeft":{"Latitude":51.0987342,"Longitude":4.1352599},"BottomRight":{"Latitude":51.0964858,"Longitude":4.1388401}},"Address":{"Label":"Marktplein 9, 9220 Hamme, België","Country":"BEL","State":"Vlaanderen","County":"Oost-Vlaanderen","City":"Hamme","Street":"Marktplein","HouseNumber":"9","PostalCode":"9220","AdditionalData":[{"value":"België","key":"CountryName"},{"value":"Vlaanderen","key":"StateName"},{"value":"Oost-Vlaanderen","key":"CountyName"}]},"MapReference":{"ReferenceId":"59189891","Spot":0.0,"SideOfStreet":"left","CountryId":"20128886","StateId":"20204377","CountyId":"20205081","CityId":"20205202","AddressId":"399529194","RoadLinkId":"31036216"}}},{"Relevance":1.0,"Distance":85.2,"MatchLevel":"houseNumber","MatchQuality":{"Country":1.0,"State":1.0,"County":1.0,"City":1.0,"Street":[1.0],"HouseNumber":1.0,"PostalCode":1.0},"MatchType":"interpolated","Location":{"LocationId":"NT_k7bC6pUr2UUNj7cz44CV-A_2ME","LocationType":"point","DisplayPosition":{"Latitude":51.09722,"Longitude":4.13816},"MapView":{"TopLeft":{"Latitude":51.0983442,"Longitude":4.13637},"BottomRight":{"Latitude":51.0960958,"Longitude":4.13995}},"Address":{"Label":"Nieuwstraat 6C, 9220 Hamme, België","Country":"BEL","State":"Vlaanderen","County":"Oost-Vlaanderen","City":"Hamme","Street":"Nieuwstraat","HouseNumber":"6C","PostalCode":"9220","AdditionalData":[{"value":"België","key":"CountryName"},{"value":"Vlaanderen","key":"StateName"},{"value":"Oost-Vlaanderen","key":"CountyName"}]},"MapReference":{"ReferenceId":"59189836","Spot":0.7,"SideOfStreet":"left","CountryId":"20128886","StateId":"20204377","CountyId":"20205081","CityId":"20205202","AddressId":"776625663","RoadLinkId":"30715268"}}},{"Relevance":1.0,"Distance":101.0,"MatchLevel":"street","MatchQuality":{"Country":1.0,"State":1.0,"County":1.0,"City":1.0,"PostalCode":1.0},"Location":{"LocationId":"NT_TxZqsI.-9kDrPmlVrQqkhA_l_59189886_L","LocationType":"point","DisplayPosition":{"Latitude":51.09732,"Longitude":4.13789},"MapView":{"TopLeft":{"Latitude":51.09772,"Longitude":4.13785},"BottomRight":{"Latitude":51.09732,"Longitude":4.13808}},"Address":{"Label":"9220 Hamme, België","Country":"BEL","State":"Vlaanderen","County":"Oost-Vlaanderen","City":"Hamme","PostalCode":"9220","AdditionalData":[{"value":"België","key":"CountryName"},{"value":"Vlaanderen","key":"StateName"},{"value":"Oost-Vlaanderen","key":"CountyName"}]},"MapReference":{"ReferenceId":"59189886","Spot":0.0,"SideOfStreet":"left","CountryId":"20128886","StateId":"20204377","CountyId":"20205081","CityId":"20205202"}}},{"Relevance":1.0,"Distance":114.1,"MatchLevel":"houseNumber","MatchQuality":{"Country":1.0,"State":1.0,"County":1.0,"City":1.0,"Street":[1.0],"HouseNumber":1.0,"PostalCode":1.0},"MatchType":"interpolated","Location":{"LocationId":"NT_N7AF2uim0DWx0MzDpvUWEA_xMD","LocationType":"point","DisplayPosition":{"Latitude":51.09606,"Longitude":4.13754},"MapView":{"TopLeft":{"Latitude":51.0971842,"Longitude":4.13575},"BottomRight":{"Latitude":51.0949358,"Longitude":4.13933}},"Address":{"Label":"Achterthof 13, 9220 Hamme, België","Country":"BEL","State":"Vlaanderen","County":"Oost-Vlaanderen","City":"Hamme","Street":"Achterthof","HouseNumber":"13","PostalCode":"9220","AdditionalData":[{"value":"België","key":"CountryName"},{"value":"Vlaanderen","key":"StateName"},{"value":"Oost-Vlaanderen","key":"CountyName"}]},"MapReference":{"ReferenceId":"59189870","Spot":0.75,"SideOfStreet":"left","CountryId":"20128886","StateId":"20204377","CountyId":"20205081","CityId":"20205202","AddressId":"399991389","RoadLinkId":"30236450"}}},{"Relevance":1.0,"Distance":116.7,"MatchLevel":"houseNumber","MatchQuality":{"Country":1.0,"State":1.0,"County":1.0,"City":1.0,"Street":[1.0],"HouseNumber":1.0,"PostalCode":1.0},"MatchType":"interpolated","Location":{"LocationId":"NT_GCy0ZDnpEdycV54VV-XqdD_zA","LocationType":"point","DisplayPosition":{"Latitude":51.09815,"Longitude":4.1367},"MapView":{"TopLeft":{"Latitude":51.0992742,"Longitude":4.1349099},"BottomRight":{"Latitude":51.0970258,"Longitude":4.1384901}},"Address":{"Label":"Kerkstraat 3, 9220 Hamme, België","Country":"BEL","State":"Vlaanderen","County":"Oost-Vlaanderen","City":"Hamme","Street":"Kerkstraat","HouseNumber":"3","PostalCode":"9220","AdditionalData":[{"value":"België","key":"CountryName"},{"value":"Vlaanderen","key":"StateName"},{"value":"Oost-Vlaanderen","key":"CountyName"}]},"MapReference":{"ReferenceId":"59189875","Spot":0.26,"SideOfStreet":"left","CountryId":"20128886","StateId":"20204377","CountyId":"20205081","CityId":"20205202","AddressId":"400145423","RoadLinkId":"30366699"}}},{"Relevance":1.0,"Distance":120.6,"MatchLevel":"houseNumber","MatchQuality":{"Country":1.0,"State":1.0,"County":1.0,"City":1.0,"Street":[1.0],"HouseNumber":1.0,"PostalCode":1.0},"MatchType":"interpolated","Location":{"LocationId":"NT_kqfbpokuxsWS6wh6D1QNUB_xA","LocationType":"point","DisplayPosition":{"Latitude":51.09594,"Longitude":4.13588},"MapView":{"TopLeft":{"Latitude":51.0970642,"Longitude":4.13409},"BottomRight":{"Latitude":51.0948158,"Longitude":4.13767}},"Address":{"Label":"Slangstraat 1, 9220 Hamme, België","Country":"BEL","State":"Vlaanderen","County":"Oost-Vlaanderen","City":"Hamme","Street":"Slangstraat","HouseNumber":"1","PostalCode":"9220","AdditionalData":[{"value":"België","key":"CountryName"},{"value":"Vlaanderen","key":"StateName"},{"value":"Oost-Vlaanderen","key":"CountyName"}]},"MapReference":{"ReferenceId":"59189910","Spot":0.73,"SideOfStreet":"right","CountryId":"20128886","StateId":"20204377","CountyId":"20205081","CityId":"20205202","AddressId":"401330921","RoadLinkId":"30755823"}}}]}]}}