{"Response":{"MetaInfo":{"Timestamp":"2020-03-28T10:23:44.733+0000","NextPageInformation":"2"},"View":[{"_type":"SearchResultsViewType","ViewId":0,"Result":[{"Relevance":1.0,"Distance":0.0,"Direction":0.0,"MatchLevel":"district","MatchQuality":{"Country":1.0,"State":1.0,"County":1.0,"City":1.0,"District":1.0,"PostalCode":1.0},"Location":{"LocationId":"NT_8.kWPPfh3hBbso8eD0lKcA","LocationType":"point","DisplayPosition":{"Latitude":51.0851473,"Longitude":6.3196323},"MapView":{"TopLeft":{"Latitude":51.0935,"Longitude":6.29206},"BottomRight":{"Latitude":51.059,"Longitude":6.33829}},"Address":{"Label":"Erkelenz, Nordrhein-Westfalen, Deutschland","Country":"DEU","State":"Nordrhein-Westfalen","County":"Heinsberg","City":"Erkelenz","District":"Erkelenz","PostalCode":"41812","AdditionalData":[{"value":"Deutschland","key":"CountryName"},{"value":"Nordrhein-Westfalen","key":"StateName"},{"value":"Heinsberg","key":"CountyName"}]},"MapReference":{"ReferenceId":"537853765","SideOfStreet":"neither","CountryId":"20147700","StateId":"20157369","CountyId":"20158557","CityId":"20158558","DistrictId":"20158574"}}},{"Relevance":1.0,"Distance":10.3,"MatchLevel":"houseNumber","MatchQuality":{"Country":1.0,"State":1.0,"County":1.0,"City":1.0,"District":1.0,"Street":[1.0],"HouseNumber":1.0,"PostalCode":1.0},"MatchType":"interpolated","Location":{"LocationId":"NT_LDMRILpheOKEm4ElyAH6VC_4ED","LocationType":"point","DisplayPosition":{"Latitude":51.08516,"Longitude":6.31938},"MapView":{"TopLeft":{"Latitude":51.0862842,"Longitude":6.3175904},"BottomRight":{"Latitude":51.0840358,"Longitude":6.3211696}},"Address":{"Label":"Anton-Heinen-Straße 81, 41812 Erkelenz, Deutschland","Country":"DEU","State":"Nordrhein-Westfalen","County":"Heinsberg","City":"Erkelenz","District":"Erkelenz","Street":"Anton-Heinen-Straße","HouseNumber":"81","PostalCode":"41812","AdditionalData":[{"value":"Deutschland","key":"CountryName"},{"value":"Nordrhein-Westfalen","key":"StateName"},{"value":"Heinsberg","key":"CountyName"}]},"MapReference":{"ReferenceId":"1145780001","Spot":0.48,"SideOfStreet":"right","CountryId":"20147700","StateId":"20157369","CountyId":"20158557","CityId":"20158558","DistrictId":"20158574","AddressId":"196275868","RoadLinkId":"450976588"}}},{"Relevance":1.0,"Distance":59.7,"MatchLevel":"houseNumber","MatchQuality":{"Country":1.0,"State":1.0,"County":1.0,"City":1.0,"District":1.0,"Street":[1.0],"HouseNumber":1.0,"PostalCode":1.0},"MatchType":"interpolated","Location":{"LocationId":"NT_z0h315jCaQVjTlG4XXCI9A_0A","LocationType":"point","DisplayPosition":{"Latitude":51.08583,"Longitude":6.3198},"MapView":{"TopLeft":{"Latitude":51.0869542,"Longitude":6.3180104},"BottomRight":{"Latitude":51.0847058,"Longitude":6.3215896}},"Address":{"Label":"Karl-Platz-Straße 4, 41812 Erkelenz, Deutschland","Country":"DEU","State":"Nordrhein-Westfalen","County":"Heinsberg","City":"Erkelenz","District":"Erkelenz","Street":"Karl-Platz-Straße","HouseNumber":"4","PostalCode":"41812","AdditionalData":[{"value":"Deutschland","key":"CountryName"},{"value":"Nordrhein-Westfalen","key":"StateName"},{"value":"Heinsberg","key":"CountyName"}]},"MapReference":{"ReferenceId":"77200583","Spot":0.55,"SideOfStreet":"right","CountryId":"20147700","StateId":"20157369","CountyId":"20158557","CityId":"20158558","DistrictId":"20158574","AddressId":"193831188","RoadLinkId":"39432155"}}},{"Relevance":1.0,"Distance":65.3,"MatchLevel":"street","MatchQuality":{"Country":1.0,"State":1.0,"County":1.0,"City":1.0,"District":1.0,"PostalCode":1.0},"Location":{"LocationId":"NT_zXxkuIZ9xSg38pP3HnmfED_l_1218705677_L","LocationType":"point","DisplayPosition":{"Latitude":51.08456,"Longitude":6.3196323},"MapView":{"TopLeft":{"Latitude":51.08456,"Longitude":6.31721},"BottomRight":{"Latitude":51.08403,"Longitude":6.31986}},"Address":{"Label":"41812 Erkelenz, Deutschland","Country":"DEU","State":"Nordrhein-Westfalen","County":"Heinsberg","City":"Erkelenz","District":"Erkelenz","PostalCode":"41812","AdditionalData":[{"value":"Deutschland","key":"CountryName"},{"value":"Nordrhein-Westfalen","key":"StateName"},{"value":"Heinsberg","key":"CountyName"}]},"MapReference":{"ReferenceId":"1218705677","Spot":0.92,"SideOfStreet":"left","CountryId":"20147700","StateId":"20157369","CountyId":"20158557","CityId":"20158558","DistrictId":"20158574"}}},{"Relevance":1.0,"Distance":65.4,"MatchLevel":"houseNumber","MatchQuality":{"Country":1.0,"State":1.0,"County":1.0,"City":1.0,"District":1.0,"Street":[1.0],"HouseNumber":1.0,"PostalCode":1.0},"MatchType":"interpolated","Location":{"LocationId":"NT_nZI8agZBzwh1UZBw6RcU5D_2kD","LocationType":"point","DisplayPosition":{"Latitude":51.08452,"Longitude":6.32019},"MapView":{"TopLeft":{"Latitude":51.0856442,"Longitude":6.3184004},"BottomRight":{"Latitude":51.0833958,"Longitude":6.3219796}},"Address":{"Label":"Oestricher Straße 69, 41812 Erkelenz, Deutschland","Country":"DEU","State":"Nordrhein-Westfalen","County":"Heinsberg","City":"Erkelenz","District":"Erkelenz","Street":"Oestricher Straße","HouseNumber":"69","PostalCode":"41812","AdditionalData":[{"value":"Deutschland","key":"CountryName"},{"value":"Nordrhein-Westfalen","key":"StateName"},{"value":"Heinsberg","key":"CountyName"}]},"MapReference":{"ReferenceId":"77200531","Spot":0.18,"SideOfStreet":"left","CountryId":"20147700","StateId":"20157369","CountyId":"20158557","CityId":"20158558","DistrictId":"20158574","AddressId":"193733330","RoadLinkId":"39097040"}}},{"Relevance":1.0,"Distance":67.2,"MatchLevel":"street","MatchQuality":{"Country":1.0,"State":1.0,"County":1.0,"City":1.0,"District":1.0,"Street":[1.0],"PostalCode":1.0},"Location":{"LocationId":"NT_LDMRILpheOKEm4ElyAH6VC_l_1145780000_R","LocationType":"point","DisplayPosition":{"Latitude":51.08456,"Longitude":6.31986},"MapView":{"TopLeft":{"Latitude":51.08456,"Longitude":6.31986},"BottomRight":{"Latitude":51.08451,"Longitude":6.31993}},"Address":{"Label":"Anton-Heinen-Straße, 41812 Erkelenz, Deutschland","Country":"DEU","State":"Nordrhein-Westfalen","County":"Heinsberg","City":"Erkelenz","District":"Erkelenz","Street":"Anton-Heinen-Straße","PostalCode":"41812","AdditionalData":[{"value":"Deutschland","key":"CountryName"},{"value":"Nordrhein-Westfalen","key":"StateName"},{"value":"Heinsberg","key":"CountyName"}]},"MapReference":{"ReferenceId":"1145780000","Spot":1.0,"SideOfStreet":"right","CountryId":"20147700","StateId":"20157369","CountyId":"20158557","CityId":"20158558","DistrictId":"20158574"}}},{"Relevance":1.0,"Distance":80.1,"MatchLevel":"houseNumber","MatchQuality":{"Country":1.0,"State":1.0,"County":1.0,"City":1.0,"District":1.0,"Street":[1.0],"HouseNumber":1.0,"PostalCode":1.0},"MatchType":"interpolated","Location":{"LocationId":"NT_DaiTu5AHknfhPhWolbQVcC_3A","LocationType":"point","DisplayPosition":{"Latitude":51.08533,"Longitude":6.32092},"MapView":{"TopLeft":{"Latitude":51.0864542,"Longitude":6.3191304},"BottomRight":{"Latitude":51.0842058,"Longitude":6.3227096}},"Address":{"Label":"Oestricher Maar 7, 41812 Erkelenz, Deutschland","Country":"DEU","State":"Nordrhein-Westfalen","County":"Heinsberg","City":"Erkelenz","District":"Erkelenz","Street":"Oestricher Maar","HouseNumber":"7","PostalCode":"41812","AdditionalData":[{"value":"Deutschland","key":"CountryName"},{"value":"Nordrhein-Westfalen","key":"StateName"},{"value":"Heinsberg","key":"CountyName"}]},"MapReference":{"ReferenceId":"77200468","Spot":0.91,"SideOfStreet":"left","CountryId":"20147700","StateId":"20157369","CountyId":"20158557","CityId":"20158558","DistrictId":"20158574","AddressId":"195581690","RoadLinkId":"39520866"}}},{"Relevance":1.0,"Distance":98.6,"MatchLevel":"houseNumber","MatchQuality":{"Country":1.0,"State":1.0,"County":1.0,"City":1.0,"District":1.0,"Street":[1.0],"HouseNumber":1.0,"PostalCode":1.0},"MatchType":"interpolated","Location":{"LocationId":"NT_LDMRILpheOKEm4ElyAH6VC_2cD","LocationType":"point","DisplayPosition":{"Latitude":51.08432,"Longitude":6.32014},"MapView":{"TopLeft":{"Latitude":51.0854442,"Longitude":6.3183505},"BottomRight":{"Latitude":51.0831958,"Longitude":6.3219295}},"Address":{"Label":"Anton-Heinen-Straße 67, 41812 Erkelenz, Deutschland","Country":"DEU","State":"Nordrhein-Westfalen","County":"Heinsberg","City":"Erkelenz","District":"Erkelenz","Street":"Anton-Heinen-Straße","HouseNumber":"67","PostalCode":"41812","AdditionalData":[{"value":"Deutschland","key":"CountryName"},{"value":"Nordrhein-Westfalen","key":"StateName"},{"value":"Heinsberg","key":"CountyName"}]},"MapReference":{"ReferenceId":"77200451","Spot":0.8,"SideOfStreet":"right","CountryId":"20147700","StateId":"20157369","CountyId":"20158557","CityId":"20158558","DistrictId":"20158574","AddressId":"193774274","RoadLinkId":"39220142"}}},{"Relevance":1.0,"Distance":99.7,"MatchLevel":"houseNumber","MatchQuality":{"Country":1.0,"State":1.0,"County":1.0,"City":1.0,"District":1.0,"Street":[1.0],"HouseNumber":1.0,"PostalCode":1.0},"MatchType":"interpolated","Location":{"LocationId":"NT_z0h315jCaQVjTlG4XXCI9A_xAD","LocationType":"point","DisplayPosition":{"Latitude":51.08589,"Longitude":6.32066},"MapView":{"TopLeft":{"Latitude":51.0870142,"Longitude":6.3188704},"BottomRight":{"Latitude":51.0847658,"Longitude":6.3224496}},"Address":{"Label":"Karl-Platz-Straße 10, 41812 Erkelenz, Deutschland","Country":"DEU","State":"Nordrhein-Westfalen","County":"Heinsberg","City":"Erkelenz","District":"Erkelenz","Street":"Karl-Platz-Straße","HouseNumber":"10","PostalCode":"41812","AdditionalData":[{"value":"Deutschland","key":"CountryName"},{"value":"Nordrhein-Westfalen","key":"StateName"},{"value":"Heinsberg","key":"CountyName"}]},"MapReference":{"ReferenceId":"77200470","Spot":0.02,"SideOfStreet":"right","CountryId":"20147700","StateId":"20157369","CountyId":"20158557","CityId":"20158558","DistrictId":"20158574","AddressId":"193008661","RoadLinkId":"39054703"}}},{"Relevance":1.0,"Distance":110.2,"MatchLevel":"houseNumber","MatchQuality":{"Country":1.0,"State":1.0,"County":1.0,"City":1.0,"District":1.0,"Street":[1.0],"HouseNumber":1.0,"PostalCode":1.0},"MatchType":"interpolated","Location":{"LocationId":"NT_LDMRILpheOKEm4ElyAH6VC_2AD","LocationType":"point","DisplayPosition":{"Latitude":51.08585,"Longitude":6.31852},"MapView":{"TopLeft":{"Latitude":51.0869742,"Longitude":6.3167304},"BottomRight":{"Latitude":51.0847258,"Longitude":6.3203096}},"Address":{"Label":"Anton-Heinen-Straße 60, 41812 Erkelenz, Deutschland","Country":"DEU","State":"Nordrhein-Westfalen","County":"Heinsberg","City":"Erkelenz","District":"Erkelenz","Street":"Anton-Heinen-Straße","HouseNumber":"60","PostalCode":"41812","AdditionalData":[{"value":"Deutschland","key":"CountryName"},{"value":"Nordrhein-Westfalen","key":"StateName"},{"value":"Heinsberg","key":"CountyName"}]},"MapReference":{"ReferenceId":"77200591","Spot":0.18,"SideOfStreet":"left","CountryId":"20147700","StateId":"20157369","CountyId":"20158557","CityId":"20158558","DistrictId":"20158574","AddressId":"196483153","RoadLinkId":"39399073"}}}]}]}}