{"Response":{"MetaInfo":{"Timestamp":"2020-03-28T10:24:20.225+0000","NextPageInformation":"2"},"View":[{"_type":"SearchResultsViewType","ViewId":0,"Result":[{"Relevance":1.0,"Distance":0.0,"Direction":0.0,"MatchLevel":"district","MatchQuality":{"Country":1.0,"State":1.0,"County":1.0,"City":1.0,"District":1.0,"PostalCode":1.0},"Location":{"LocationId":"NT_yNy34cBpMuOeODMpVGVVmD","LocationType":"point","DisplayPosition":{"Latitude":51.124341,"Longitude":13.8452387},"MapView":{"TopLeft":{"Latitude":51.13956,"Longitude":13.81691},"BottomRight":{"Latitude":51.12049,"Longitude":13.85484}},"Address":{"Label":"Langebrück, Dresden, Sachsen, Deutschland","Country":"DEU","State":"Sachsen","County":"Dresden","City":"Dresden","District":"Langebrück","PostalCode":"01465","AdditionalData":[{"value":"Deutschland","key":"CountryName"},{"value":"Sachsen","key":"StateName"},{"value":"Dresden","key":"CountyName"}]},"MapReference":{"ReferenceId":"836206070","SideOfStreet":"neither","CountryId":"20147700","StateId":"20191185","CountyId":"20191437","CityId":"20191438","DistrictId":"20371112"}}},{"Relevance":1.0,"Distance":20.5,"MatchLevel":"houseNumber","MatchQuality":{"Country":1.0,"State":1.0,"County":1.0,"City":1.0,"District":1.0,"Street":[1.0],"HouseNumber":1.0,"PostalCode":1.0},"MatchType":"interpolated","Location":{"LocationId":"NT_SwfYHls3lmy4bduaRu28GB_yA","LocationType":"point","DisplayPosition":{"Latitude":51.12434,"Longitude":13.84573},"MapView":{"TopLeft":{"Latitude":51.1254642,"Longitude":13.8439389},"BottomRight":{"Latitude":51.1232158,"Longitude":13.8475211}},"Address":{"Label":"Radeberger Straße 2, 01465 Dresden, Deutschland","Country":"DEU","State":"Sachsen","County":"Dresden","City":"Dresden","District":"Langebrück","Street":"Radeberger Straße","HouseNumber":"2","PostalCode":"01465","AdditionalData":[{"value":"Deutschland","key":"CountryName"},{"value":"Sachsen","key":"StateName"},{"value":"Dresden","key":"CountyName"}]},"MapReference":{"ReferenceId":"1237424172","Spot":0.91,"SideOfStreet":"left","CountryId":"20147700","StateId":"20191185","CountyId":"20191437","CityId":"20191438","DistrictId":"20371112","AddressId":"249740150","RoadLinkId":"558171322"}}},{"Relevance":1.0,"Distance":34.1,"MatchLevel":"street","MatchQuality":{"Country":1.0,"State":1.0,"County":1.0,"City":1.0,"District":1.0,"Street":[1.0],"PostalCode":1.0},"Location":{"LocationId":"NT_4pY2qIN8EbJpat6MgO8XxA_l_1202100278_L","LocationType":"point","DisplayPosition":{"Latitude":51.1245928,"Longitude":13.8455185},"MapView":{"TopLeft":{"Latitude":51.12468,"Longitude":13.84544},"BottomRight":{"Latitude":51.12448,"Longitude":13.84562}},"Address":{"Label":"Radeberger Straße, 01465 Dresden, Deutschland","Country":"DEU","State":"Sachsen","County":"Dresden","City":"Dresden","District":"Langebrück","Street":"Radeberger Straße","PostalCode":"01465","AdditionalData":[{"value":"Deutschland","key":"CountryName"},{"value":"Sachsen","key":"StateName"},{"value":"Dresden","key":"CountyName"}]},"MapReference":{"ReferenceId":"1202100278","Spot":0.56,"SideOfStreet":"left","CountryId":"20147700","StateId":"20191185","CountyId":"20191437","CityId":"20191438","DistrictId":"20371112"}}},{"Relevance":1.0,"Distance":37.8,"MatchLevel":"houseNumber","MatchQuality":{"Country":1.0,"State":1.0,"County":1.0,"City":1.0,"District":1.0,"Street":[1.0],"HouseNumber":1.0,"PostalCode":1.0},"MatchType":"interpolated","Location":{"LocationId":"NT_7FIyZCd3R3BoO62Tdy95dB_4A","LocationType":"point","DisplayPosition":{"Latitude":51.12466,"Longitude":13.84505},"MapView":{"TopLeft":{"Latitude":51.1257842,"Longitude":13.8432589},"BottomRight":{"Latitude":51.1235358,"Longitude":13.8468411}},"Address":{"Label":"Beethovenstraße 8, 01465 Dresden, Deutschland","Country":"DEU","State":"Sachsen","County":"Dresden","City":"Dresden","District":"Langebrück","Street":"Beethovenstraße","HouseNumber":"8","PostalCode":"01465","AdditionalData":[{"value":"Deutschland","key":"CountryName"},{"value":"Sachsen","key":"StateName"},{"value":"Dresden","key":"CountyName"}]},"MapReference":{"ReferenceId":"64982712","Spot":0.68,"SideOfStreet":"left","CountryId":"20147700","StateId":"20191185","CountyId":"20191437","CityId":"20191438","DistrictId":"20371112","AddressId":"249731748","RoadLinkId":"39590291"}}},{"Relevance":1.0,"Distance":52.3,"MatchLevel":"houseNumber","MatchQuality":{"Country":1.0,"State":1.0,"County":1.0,"City":1.0,"District":1.0,"Street":[1.0],"HouseNumber":1.0,"PostalCode":1.0},"MatchType":"interpolated","Location":{"LocationId":"NT_bYLsjzglIb7LL5C4dtnCAA_1A","LocationType":"point","DisplayPosition":{"Latitude":51.12442,"Longitude":13.84421},"MapView":{"TopLeft":{"Latitude":51.1255442,"Longitude":13.8424189},"BottomRight":{"Latitude":51.1232958,"Longitude":13.8460011}},"Address":{"Label":"Bergerstraße 5, 01465 Dresden, Deutschland","Country":"DEU","State":"Sachsen","County":"Dresden","City":"Dresden","District":"Langebrück","Street":"Bergerstraße","HouseNumber":"5","PostalCode":"01465","AdditionalData":[{"value":"Deutschland","key":"CountryName"},{"value":"Sachsen","key":"StateName"},{"value":"Dresden","key":"CountyName"}]},"MapReference":{"ReferenceId":"64982714","Spot":0.82,"SideOfStreet":"right","CountryId":"20147700","StateId":"20191185","CountyId":"20191437","CityId":"20191438","DistrictId":"20371112","AddressId":"169131055","RoadLinkId":"39986735"}}},{"Relevance":1.0,"Distance":57.4,"MatchLevel":"houseNumber","MatchQuality":{"Country":1.0,"State":1.0,"County":1.0,"City":1.0,"District":1.0,"Street":[1.0],"HouseNumber":1.0,"PostalCode":1.0},"MatchType":"interpolated","Location":{"LocationId":"NT_7FIyZCd3R3BoO62Tdy95dB_xUE","LocationType":"point","DisplayPosition":{"Latitude":51.1247,"Longitude":13.84591},"MapView":{"TopLeft":{"Latitude":51.1258242,"Longitude":13.8441189},"BottomRight":{"Latitude":51.1235758,"Longitude":13.8477011}},"Address":{"Label":"Beethovenstraße 1E, 01465 Dresden, Deutschland","Country":"DEU","State":"Sachsen","County":"Dresden","City":"Dresden","District":"Langebrück","Street":"Beethovenstraße","HouseNumber":"1E","PostalCode":"01465","AdditionalData":[{"value":"Deutschland","key":"CountryName"},{"value":"Sachsen","key":"StateName"},{"value":"Dresden","key":"CountyName"}]},"MapReference":{"ReferenceId":"64982706","Spot":0.23,"SideOfStreet":"right","CountryId":"20147700","StateId":"20191185","CountyId":"20191437","CityId":"20191438","DistrictId":"20371112","AddressId":"249706934","RoadLinkId":"39764154"}}},{"Relevance":1.0,"Distance":76.4,"MatchLevel":"houseNumber","MatchQuality":{"Country":1.0,"State":1.0,"County":1.0,"City":1.0,"District":1.0,"Street":[1.0],"HouseNumber":1.0,"PostalCode":1.0},"MatchType":"interpolated","Location":{"LocationId":"NT_bYLsjzglIb7LL5C4dtnCAA_zA","LocationType":"point","DisplayPosition":{"Latitude":51.12483,"Longitude":13.84424},"MapView":{"TopLeft":{"Latitude":51.1259542,"Longitude":13.8424489},"BottomRight":{"Latitude":51.1237058,"Longitude":13.8460311}},"Address":{"Label":"Bergerstraße 3, 01465 Dresden, Deutschland","Country":"DEU","State":"Sachsen","County":"Dresden","City":"Dresden","District":"Langebrück","Street":"Bergerstraße","HouseNumber":"3","PostalCode":"01465","AdditionalData":[{"value":"Deutschland","key":"CountryName"},{"value":"Sachsen","key":"StateName"},{"value":"Dresden","key":"CountyName"}]},"MapReference":{"ReferenceId":"1237434739","Spot":0.8,"SideOfStreet":"right","CountryId":"20147700","StateId":"20191185","CountyId":"20191437","CityId":"20191438","DistrictId":"20371112","AddressId":"170174948","RoadLinkId":"558183507"}}},{"Relevance":1.0,"Distance":101.3,"MatchLevel":"houseNumber","MatchQuality":{"Country":1.0,"State":1.0,"County":1.0,"City":1.0,"District":1.0,"Street":[1.0],"HouseNumber":1.0,"PostalCode":1.0},"MatchType":"interpolated","Location":{"LocationId":"NT_bYLsjzglIb7LL5C4dtnCAA_xA","LocationType":"point","DisplayPosition":{"Latitude":51.12511,"Longitude":13.84425},"MapView":{"TopLeft":{"Latitude":51.1262342,"Longitude":13.8424589},"BottomRight":{"Latitude":51.1239858,"Longitude":13.8460411}},"Address":{"Label":"Bergerstraße 1, 01465 Dresden, Deutschland","Country":"DEU","State":"Sachsen","County":"Dresden","City":"Dresden","District":"Langebrück","Street":"Bergerstraße","HouseNumber":"1","PostalCode":"01465","AdditionalData":[{"value":"Deutschland","key":"CountryName"},{"value":"Sachsen","key":"StateName"},{"value":"Dresden","key":"CountyName"}]},"MapReference":{"ReferenceId":"1237434740","Spot":0.2,"SideOfStreet":"right","CountryId":"20147700","StateId":"20191185","CountyId":"20191437","CityId":"20191438","DistrictId":"20371112","AddressId":"170174949","RoadLinkId":"558183508"}}},{"Relevance":1.0,"Distance":109.2,"MatchLevel":"houseNumber","MatchQuality":{"Country":1.0,"State":1.0,"County":1.0,"City":1.0,"District":1.0,"Street":[1.0],"HouseNumber":1.0,"PostalCode":1.0},"MatchType":"interpolated","Location":{"LocationId":"NT_bYLsjzglIb7LL5C4dtnCAA_xETQ","LocationType":"point","DisplayPosition":{"Latitude":51.12338,"Longitude":13.84418},"MapView":{"TopLeft":{"Latitude":51.1245042,"Longitude":13.8423889},"BottomRight":{"Latitude":51.1222558,"Longitude":13.8459711}},"Address":{"Label":"Bergerstraße 11A, 01465 Dresden, Deutschland","Country":"DEU","State":"Sachsen","County":"Dresden","City":"Dresden","District":"Langebrück","Street":"Bergerstraße","HouseNumber":"11A","PostalCode":"01465","AdditionalData":[{"value":"Deutschland","key":"CountryName"},{"value":"Sachsen","key":"StateName"},{"value":"Dresden","key":"CountyName"}]},"MapReference":{"ReferenceId":"64982713","Spot":0.89,"SideOfStreet":"right","CountryId":"20147700","StateId":"20191185","CountyId":"20191437","CityId":"20191438","DistrictId":"20371112","AddressId":"168378514","RoadLinkId":"39918525"}}},{"Relevance":1.0,"Distance":115.7,"MatchLevel":"houseNumber","MatchQuality":{"Country":1.0,"State":1.0,"County":1.0,"City":1.0,"District":1.0,"Street":[1.0],"HouseNumber":1.0,"PostalCode":1.0},"MatchType":"interpolated","Location":{"LocationId":"NT_7FIyZCd3R3BoO62Tdy95dB_zA","LocationType":"point","DisplayPosition":{"Latitude":51.12461,"Longitude":13.84358},"MapView":{"TopLeft":{"Latitude":51.1257342,"Longitude":13.8417889},"BottomRight":{"Latitude":51.1234858,"Longitude":13.8453711}},"Address":{"Label":"Beethovenstraße 3, 01465 Dresden, Deutschland","Country":"DEU","State":"Sachsen","County":"Dresden","City":"Dresden","District":"Langebrück","Street":"Beethovenstraße","HouseNumber":"3","PostalCode":"01465","AdditionalData":[{"value":"Deutschland","key":"CountryName"},{"value":"Sachsen","key":"StateName"},{"value":"Dresden","key":"CountyName"}]},"MapReference":{"ReferenceId":"867745009","Spot":0.55,"SideOfStreet":"right","CountryId":"20147700","StateId":"20191185","CountyId":"20191437","CityId":"20191438","DistrictId":"20371112","AddressId":"256065202","RoadLinkId":"240381743"}}}]}]}}