{"Response":{"MetaInfo":{"Timestamp":"2020-03-28T10:23:48.072+0000","NextPageInformation":"2"},"View":[{"_type":"SearchResultsViewType","ViewId":0,"Result":[{"Relevance":1.0,"Distance":0.0,"Direction":0.0,"MatchLevel":"district","MatchQuality":{"Country":1.0,"State":1.0,"County":1.0,"City":1.0,"District":1.0,"PostalCode":1.0},"Location":{"LocationId":"NT_DLir01BA.6DRw6Shr8s7cC","LocationType":"point","DisplayPosition":{"Latitude":51.1003577,"Longitude":6.0838651},"MapView":{"TopLeft":{"Latitude":51.11251,"Longitude":6.05766},"BottomRight":{"Latitude":51.0904,"Longitude":6.08681}},"Address":{"Label":"Karken, Heinsberg, Nordrhein-Westfalen, Deutschland","Country":"DEU","State":"Nordrhein-Westfalen","County":"Heinsberg","City":"Heinsberg","District":"Karken","PostalCode":"52525","AdditionalData":[{"value":"Deutschland","key":"CountryName"},{"value":"Nordrhein-Westfalen","key":"StateName"},{"value":"Heinsberg","key":"CountyName"}]},"MapReference":{"ReferenceId":"1206495447","SideOfStreet":"neither","CountryId":"20147700","StateId":"20157369","CountyId":"20158557","CityId":"20158598","DistrictId":"20158603"}}},{"Relevance":1.0,"Distance":4.3,"MatchLevel":"houseNumber","MatchQuality":{"Country":1.0,"State":1.0,"County":1.0,"City":1.0,"District":1.0,"Street":[1.0],"HouseNumber":1.0,"PostalCode":1.0},"MatchType":"interpolated","Location":{"LocationId":"NT_NvJmkFA-vp58bP.CkxzRhB_ygD","LocationType":"point","DisplayPosition":{"Latitude":51.10026,"Longitude":6.08386},"MapView":{"TopLeft":{"Latitude":51.1013842,"Longitude":6.0820698},"BottomRight":{"Latitude":51.0991358,"Longitude":6.0856502}},"Address":{"Label":"Mühlenstraße 28, 52525 Heinsberg, Deutschland","Country":"DEU","State":"Nordrhein-Westfalen","County":"Heinsberg","City":"Heinsberg","District":"Karken","Street":"Mühlenstraße","HouseNumber":"28","PostalCode":"52525","AdditionalData":[{"value":"Deutschland","key":"CountryName"},{"value":"Nordrhein-Westfalen","key":"StateName"},{"value":"Heinsberg","key":"CountyName"}]},"MapReference":{"ReferenceId":"77189652","Spot":0.7,"SideOfStreet":"right","CountryId":"20147700","StateId":"20157369","CountyId":"20158557","CityId":"20158598","DistrictId":"20158603","AddressId":"193366660","RoadLinkId":"39419429"}}},{"Relevance":1.0,"Distance":69.8,"MatchLevel":"street","MatchQuality":{"Country":1.0,"State":1.0,"County":1.0,"City":1.0,"District":1.0,"Street":[1.0],"PostalCode":1.0},"Location":{"LocationId":"NT_NvJmkFA-vp58bP.CkxzRhB_l_77171212_R","LocationType":"point","DisplayPosition":{"Latitude":51.10052,"Longitude":6.0829},"MapView":{"TopLeft":{"Latitude":51.10064,"Longitude":6.08252},"BottomRight":{"Latitude":51.10052,"Longitude":6.0829}},"Address":{"Label":"Mühlenstraße, 52525 Heinsberg, Deutschland","Country":"DEU","State":"Nordrhein-Westfalen","County":"Heinsberg","City":"Heinsberg","District":"Karken","Street":"Mühlenstraße","PostalCode":"52525","AdditionalData":[{"value":"Deutschland","key":"CountryName"},{"value":"Nordrhein-Westfalen","key":"StateName"},{"value":"Heinsberg","key":"CountyName"}]},"MapReference":{"ReferenceId":"77171212","Spot":0.0,"SideOfStreet":"right","CountryId":"20147700","StateId":"20157369","CountyId":"20158557","CityId":"20158598","DistrictId":"20158603"}}},{"Relevance":1.0,"Distance":86.0,"MatchLevel":"houseNumber","MatchQuality":{"Country":1.0,"State":1.0,"County":1.0,"City":1.0,"District":1.0,"Street":[1.0],"HouseNumber":1.0,"PostalCode":1.0},"MatchType":"interpolated","Location":{"LocationId":"NT_NvJmkFA-vp58bP.CkxzRhB_zIzQ","LocationType":"point","DisplayPosition":{"Latitude":51.1013,"Longitude":6.08353},"MapView":{"TopLeft":{"Latitude":51.1024242,"Longitude":6.0817398},"BottomRight":{"Latitude":51.1001758,"Longitude":6.0853202}},"Address":{"Label":"Mühlenstraße 32C, 52525 Heinsberg, Deutschland","Country":"DEU","State":"Nordrhein-Westfalen","County":"Heinsberg","City":"Heinsberg","District":"Karken","Street":"Mühlenstraße","HouseNumber":"32C","PostalCode":"52525","AdditionalData":[{"value":"Deutschland","key":"CountryName"},{"value":"Nordrhein-Westfalen","key":"StateName"},{"value":"Heinsberg","key":"CountyName"}]},"MapReference":{"ReferenceId":"77171362","Spot":0.76,"SideOfStreet":"right","CountryId":"20147700","StateId":"20157369","CountyId":"20158557","CityId":"20158598","DistrictId":"20158603","AddressId":"196540966","RoadLinkId":"39482147"}}},{"Relevance":1.0,"Distance":113.5,"MatchLevel":"houseNumber","MatchQuality":{"Country":1.0,"State":1.0,"County":1.0,"City":1.0,"District":1.0,"Street":[1.0],"HouseNumber":1.0,"PostalCode":1.0},"MatchType":"interpolated","Location":{"LocationId":"NT_Jz6CjmKBCH8Ev8VIIqfTlA_ygD","LocationType":"point","DisplayPosition":{"Latitude":51.10012,"Longitude":6.0822},"MapView":{"TopLeft":{"Latitude":51.1012442,"Longitude":6.0804098},"BottomRight":{"Latitude":51.0989958,"Longitude":6.0839902}},"Address":{"Label":"Kreuzstraße 28, 52525 Heinsberg, Deutschland","Country":"DEU","State":"Nordrhein-Westfalen","County":"Heinsberg","City":"Heinsberg","District":"Karken","Street":"Kreuzstraße","HouseNumber":"28","PostalCode":"52525","AdditionalData":[{"value":"Deutschland","key":"CountryName"},{"value":"Nordrhein-Westfalen","key":"StateName"},{"value":"Heinsberg","key":"CountyName"}]},"MapReference":{"ReferenceId":"77171290","Spot":0.53,"SideOfStreet":"right","CountryId":"20147700","StateId":"20157369","CountyId":"20158557","CityId":"20158598","DistrictId":"20158603","AddressId":"195423020","RoadLinkId":"39244573"}}},{"Relevance":1.0,"Distance":124.8,"MatchLevel":"street","MatchQuality":{"Country":1.0,"State":1.0,"County":1.0,"City":1.0,"PostalCode":1.0},"Location":{"LocationId":"NT_-hQ.O7jYA4Y8k1dGPPQ2tC_l_77171198_R","LocationType":"point","DisplayPosition":{"Latitude":51.10148,"Longitude":6.08386},"MapView":{"TopLeft":{"Latitude":51.10283,"Longitude":6.08386},"BottomRight":{"Latitude":51.10148,"Longitude":6.08779}},"Address":{"Label":"52525 Heinsberg, Deutschland","Country":"DEU","State":"Nordrhein-Westfalen","County":"Heinsberg","City":"Heinsberg","PostalCode":"52525","AdditionalData":[{"value":"Deutschland","key":"CountryName"},{"value":"Nordrhein-Westfalen","key":"StateName"},{"value":"Heinsberg","key":"CountyName"}]},"MapReference":{"ReferenceId":"77171198","Spot":0.0,"SideOfStreet":"right","CountryId":"20147700","StateId":"20157369","CountyId":"20158557","CityId":"20158598"}}},{"Relevance":1.0,"Distance":140.2,"MatchLevel":"houseNumber","MatchQuality":{"Country":1.0,"State":1.0,"County":1.0,"City":1.0,"District":1.0,"Street":[1.0],"HouseNumber":1.0,"PostalCode":1.0},"MatchType":"interpolated","Location":{"LocationId":"NT_NvJmkFA-vp58bP.CkxzRhB_zYD","LocationType":"point","DisplayPosition":{"Latitude":51.1009,"Longitude":6.08204},"MapView":{"TopLeft":{"Latitude":51.1020242,"Longitude":6.0802498},"BottomRight":{"Latitude":51.0997758,"Longitude":6.0838302}},"Address":{"Label":"Mühlenstraße 36, 52525 Heinsberg, Deutschland","Country":"DEU","State":"Nordrhein-Westfalen","County":"Heinsberg","City":"Heinsberg","District":"Karken","Street":"Mühlenstraße","HouseNumber":"36","PostalCode":"52525","AdditionalData":[{"value":"Deutschland","key":"CountryName"},{"value":"Nordrhein-Westfalen","key":"StateName"},{"value":"Heinsberg","key":"CountyName"}]},"MapReference":{"ReferenceId":"1256910859","Spot":0.25,"SideOfStreet":"right","CountryId":"20147700","StateId":"20157369","CountyId":"20158557","CityId":"20158598","DistrictId":"20158603","AddressId":"196179074","RoadLinkId":"580663323"}}},{"Relevance":1.0,"Distance":169.2,"MatchLevel":"houseNumber","MatchQuality":{"Country":1.0,"State":1.0,"County":1.0,"City":1.0,"District":1.0,"Street":[1.0],"HouseNumber":1.0,"PostalCode":1.0},"MatchType":"interpolated","Location":{"LocationId":"NT_K8vK1BEv2JrWXZT5OBIunD_xQD","LocationType":"point","DisplayPosition":{"Latitude":51.09874,"Longitude":6.08277},"MapView":{"TopLeft":{"Latitude":51.0998642,"Longitude":6.0809799},"BottomRight":{"Latitude":51.0976158,"Longitude":6.0845601}},"Address":{"Label":"Erkstraße 14, 52525 Heinsberg, Deutschland","Country":"DEU","State":"Nordrhein-Westfalen","County":"Heinsberg","City":"Heinsberg","District":"Karken","Street":"Erkstraße","HouseNumber":"14","PostalCode":"52525","AdditionalData":[{"value":"Deutschland","key":"CountryName"},{"value":"Nordrhein-Westfalen","key":"StateName"},{"value":"Heinsberg","key":"CountyName"}]},"MapReference":{"ReferenceId":"77171361","Spot":0.36,"SideOfStreet":"right","CountryId":"20147700","StateId":"20157369","CountyId":"20158557","CityId":"20158598","DistrictId":"20158603","AddressId":"194927603","RoadLinkId":"39114731"}}},{"Relevance":1.0,"Distance":185.4,"MatchLevel":"street","MatchQuality":{"Country":1.0,"State":1.0,"County":1.0,"City":1.0,"District":1.0,"Street":[1.0],"PostalCode":1.0},"Location":{"LocationId":"NT_NvJmkFA-vp58bP.CkxzRhB_l_77189653_L","LocationType":"point","DisplayPosition":{"Latitude":51.09931,"Longitude":6.08593},"MapView":{"TopLeft":{"Latitude":51.09931,"Longitude":6.08593},"BottomRight":{"Latitude":51.09928,"Longitude":6.08597}},"Address":{"Label":"Mühlenstraße, 52525 Heinsberg, Deutschland","Country":"DEU","State":"Nordrhein-Westfalen","County":"Heinsberg","City":"Heinsberg","District":"Karken","Street":"Mühlenstraße","PostalCode":"52525","AdditionalData":[{"value":"Deutschland","key":"CountryName"},{"value":"Nordrhein-Westfalen","key":"StateName"},{"value":"Heinsberg","key":"CountyName"}]},"MapReference":{"ReferenceId":"77189653","Spot":1.0,"SideOfStreet":"left","CountryId":"20147700","StateId":"20157369","CountyId":"20158557","CityId":"20158598","DistrictId":"20158603"}}},{"Relevance":1.0,"Distance":185.4,"MatchLevel":"street","MatchQuality":{"Country":1.0,"State":1.0,"County":1.0,"City":1.0,"District":1.0,"PostalCode":1.0},"Location":{"LocationId":"NT_R10uQZGdfJopFg.ZWrW09B_l_77189655_L","LocationType":"point","DisplayPosition":{"Latitude":51.09931,"Longitude":6.08593},"MapView":{"TopLeft":{"Latitude":51.09936,"Longitude":6.08593},"BottomRight":{"Latitude":51.09931,"Longitude":6.08604}},"Address":{"Label":"52525 Heinsberg, Deutschland","Country":"DEU","State":"Nordrhein-Westfalen","County":"Heinsberg","City":"Heinsberg","District":"Karken","PostalCode":"52525","AdditionalData":[{"value":"Deutschland","key":"CountryName"},{"value":"Nordrhein-Westfalen","key":"StateName"},{"value":"Heinsberg","key":"CountyName"}]},"MapReference":{"ReferenceId":"77189655","Spot":0.0,"SideOfStreet":"left","CountryId":"20147700","StateId":"20157369","CountyId":"20158557","CityId":"20158598","DistrictId":"20158603"}}}]}]}}