{"Response":{"MetaInfo":{"Timestamp":"2020-03-28T11:39:31.705+0000","NextPageInformation":"2"},"View":[{"_type":"SearchResultsViewType","ViewId":0,"Result":[{"Relevance":1.0,"Distance":0.0,"Direction":0.0,"MatchLevel":"city","MatchQuality":{"Country":1.0,"State":1.0,"County":1.0,"City":1.0,"PostalCode":1.0},"Location":{"LocationId":"NT_rQ-XErDj8VKdJzutPVTKdA","LocationType":"point","DisplayPosition":{"Latitude":51.1427531,"Longitude":4.8600989},"MapView":{"TopLeft":{"Latitude":51.1972,"Longitude":4.84047},"BottomRight":{"Latitude":51.13568,"Longitude":4.92689}},"Address":{"Label":"Olen, Vlaanderen, België","Country":"BEL","State":"Vlaanderen","County":"Antwerpen","City":"Olen","PostalCode":"2250","AdditionalData":[{"value":"België","key":"CountryName"},{"value":"Vlaanderen","key":"StateName"},{"value":"Antwerpen","key":"CountyName"}]},"MapReference":{"ReferenceId":"1216060516","SideOfStreet":"neither","CountryId":"20128886","StateId":"20204377","CountyId":"20204378","CityId":"20204653"}}},{"Relevance":1.0,"Distance":9.3,"MatchLevel":"street","MatchQuality":{"Country":1.0,"State":1.0,"County":1.0,"City":1.0,"Street":[1.0],"PostalCode":1.0},"Location":{"LocationId":"NT_L0p3MjYuwyBHd6-lD25b0D_l_53688174_L","LocationType":"point","DisplayPosition":{"Latitude":51.1428363,"Longitude":4.8601022},"MapView":{"TopLeft":{"Latitude":51.14285,"Longitude":4.85976},"BottomRight":{"Latitude":51.14283,"Longitude":4.86026}},"Address":{"Label":"Tramstraat, 2250 Olen, België","Country":"BEL","State":"Vlaanderen","County":"Antwerpen","City":"Olen","Street":"Tramstraat","PostalCode":"2250","AdditionalData":[{"value":"België","key":"CountryName"},{"value":"Vlaanderen","key":"StateName"},{"value":"Antwerpen","key":"CountyName"}]},"MapReference":{"ReferenceId":"53688174","Spot":0.32,"SideOfStreet":"left","CountryId":"20128886","StateId":"20204377","CountyId":"20204378","CityId":"20204653"}}},{"Relevance":1.0,"Distance":20.4,"MatchLevel":"houseNumber","MatchQuality":{"Country":1.0,"State":1.0,"County":1.0,"City":1.0,"Street":[1.0],"HouseNumber":1.0,"PostalCode":1.0},"MatchType":"interpolated","Location":{"LocationId":"NT_8G131bpM5lOU236eLT-XEC_yA","LocationType":"point","DisplayPosition":{"Latitude":51.14262,"Longitude":4.86036},"MapView":{"TopLeft":{"Latitude":51.1437442,"Longitude":4.8585682},"BottomRight":{"Latitude":51.1414958,"Longitude":4.8621518}},"Address":{"Label":"Oosterwijkseweg 2, 2250 Olen, België","Country":"BEL","State":"Vlaanderen","County":"Antwerpen","City":"Olen","Street":"Oosterwijkseweg","HouseNumber":"2","PostalCode":"2250","AdditionalData":[{"value":"België","key":"CountryName"},{"value":"Vlaanderen","key":"StateName"},{"value":"Antwerpen","key":"CountyName"}]},"MapReference":{"ReferenceId":"760097689","Spot":0.05,"SideOfStreet":"left","CountryId":"20128886","StateId":"20204377","CountyId":"20204378","CityId":"20204653","AddressId":"400790801","RoadLinkId":"154525827"}}},{"Relevance":1.0,"Distance":23.4,"MatchLevel":"houseNumber","MatchQuality":{"Country":1.0,"State":1.0,"County":1.0,"City":1.0,"Street":[1.0],"HouseNumber":1.0,"PostalCode":1.0},"MatchType":"interpolated","Location":{"LocationId":"NT_dfMEyP0ItFNTVID.9qgnvD_0cD","LocationType":"point","DisplayPosition":{"Latitude":51.14298,"Longitude":4.86018},"MapView":{"TopLeft":{"Latitude":51.1441042,"Longitude":4.8583882},"BottomRight":{"Latitude":51.1418558,"Longitude":4.8619718}},"Address":{"Label":"Dorp 47, 2250 Olen, België","Country":"BEL","State":"Vlaanderen","County":"Antwerpen","City":"Olen","Street":"Dorp","HouseNumber":"47","PostalCode":"2250","AdditionalData":[{"value":"België","key":"CountryName"},{"value":"Vlaanderen","key":"StateName"},{"value":"Antwerpen","key":"CountyName"}]},"MapReference":{"ReferenceId":"1216060535","Spot":0.62,"SideOfStreet":"left","CountryId":"20128886","StateId":"20204377","CountyId":"20204378","CityId":"20204653","AddressId":"401331366","RoadLinkId":"532320865"}}},{"Relevance":1.0,"Distance":37.1,"MatchLevel":"houseNumber","MatchQuality":{"Country":1.0,"State":1.0,"County":1.0,"City":1.0,"Street":[1.0],"HouseNumber":1.0,"PostalCode":1.0},"MatchType":"interpolated","Location":{"LocationId":"NT_8G131bpM5lOU236eLT-XEC_0A","LocationType":"point","DisplayPosition":{"Latitude":51.14248,"Longitude":4.86043},"MapView":{"TopLeft":{"Latitude":51.1436042,"Longitude":4.8586382},"BottomRight":{"Latitude":51.1413558,"Longitude":4.8622218}},"Address":{"Label":"Oosterwijkseweg 4, 2250 Olen, België","Country":"BEL","State":"Vlaanderen","County":"Antwerpen","City":"Olen","Street":"Oosterwijkseweg","HouseNumber":"4","PostalCode":"2250","AdditionalData":[{"value":"België","key":"CountryName"},{"value":"Vlaanderen","key":"StateName"},{"value":"Antwerpen","key":"CountyName"}]},"MapReference":{"ReferenceId":"760097688","Spot":0.84,"SideOfStreet":"left","CountryId":"20128886","StateId":"20204377","CountyId":"20204378","CityId":"20204653","AddressId":"399845604","RoadLinkId":"154525826"}}},{"Relevance":1.0,"Distance":38.7,"MatchLevel":"houseNumber","MatchQuality":{"Country":1.0,"State":1.0,"County":1.0,"City":1.0,"Street":[1.0],"HouseNumber":1.0,"PostalCode":1.0},"MatchType":"interpolated","Location":{"LocationId":"NT_L0p3MjYuwyBHd6-lD25b0D_xA","LocationType":"point","DisplayPosition":{"Latitude":51.14276,"Longitude":4.85952},"MapView":{"TopLeft":{"Latitude":51.1438842,"Longitude":4.8577282},"BottomRight":{"Latitude":51.1416358,"Longitude":4.8613118}},"Address":{"Label":"Tramstraat 1, 2250 Olen, België","Country":"BEL","State":"Vlaanderen","County":"Antwerpen","City":"Olen","Street":"Tramstraat","HouseNumber":"1","PostalCode":"2250","AdditionalData":[{"value":"België","key":"CountryName"},{"value":"Vlaanderen","key":"StateName"},{"value":"Antwerpen","key":"CountyName"}]},"MapReference":{"ReferenceId":"59506071","Spot":0.23,"SideOfStreet":"left","CountryId":"20128886","StateId":"20204377","CountyId":"20204378","CityId":"20204653","AddressId":"400891409","RoadLinkId":"30902442"}}},{"Relevance":1.0,"Distance":40.8,"MatchLevel":"houseNumber","MatchQuality":{"Country":1.0,"State":1.0,"County":1.0,"City":1.0,"Street":[1.0],"HouseNumber":1.0,"PostalCode":1.0},"MatchType":"interpolated","Location":{"LocationId":"NT_L0p3MjYuwyBHd6-lD25b0D_yA","LocationType":"point","DisplayPosition":{"Latitude":51.14288,"Longitude":4.85955},"MapView":{"TopLeft":{"Latitude":51.1440042,"Longitude":4.8577582},"BottomRight":{"Latitude":51.1417558,"Longitude":4.8613418}},"Address":{"Label":"Tramstraat 2, 2250 Olen, België","Country":"BEL","State":"Vlaanderen","County":"Antwerpen","City":"Olen","Street":"Tramstraat","HouseNumber":"2","PostalCode":"2250","AdditionalData":[{"value":"België","key":"CountryName"},{"value":"Vlaanderen","key":"StateName"},{"value":"Antwerpen","key":"CountyName"}]},"MapReference":{"ReferenceId":"59460395","Spot":0.2,"SideOfStreet":"right","CountryId":"20128886","StateId":"20204377","CountyId":"20204378","CityId":"20204653","AddressId":"401138757","RoadLinkId":"30778754"}}},{"Relevance":1.0,"Distance":42.0,"MatchLevel":"houseNumber","MatchQuality":{"Country":1.0,"State":1.0,"County":1.0,"City":1.0,"Street":[1.0],"HouseNumber":1.0,"PostalCode":1.0},"MatchType":"interpolated","Location":{"LocationId":"NT_dfMEyP0ItFNTVID.9qgnvD_0gTQ","LocationType":"point","DisplayPosition":{"Latitude":51.14313,"Longitude":4.86013},"MapView":{"TopLeft":{"Latitude":51.1442542,"Longitude":4.8583382},"BottomRight":{"Latitude":51.1420058,"Longitude":4.8619218}},"Address":{"Label":"Dorp 48A, 2250 Olen, België","Country":"BEL","State":"Vlaanderen","County":"Antwerpen","City":"Olen","Street":"Dorp","HouseNumber":"48A","PostalCode":"2250","AdditionalData":[{"value":"België","key":"CountryName"},{"value":"Vlaanderen","key":"StateName"},{"value":"Antwerpen","key":"CountyName"}]},"MapReference":{"ReferenceId":"1216060536","Spot":0.15,"SideOfStreet":"left","CountryId":"20128886","StateId":"20204377","CountyId":"20204378","CityId":"20204653","AddressId":"401331371","RoadLinkId":"532320866"}}},{"Relevance":1.0,"Distance":70.5,"MatchLevel":"houseNumber","MatchQuality":{"Country":1.0,"State":1.0,"County":1.0,"City":1.0,"Street":[1.0],"HouseNumber":1.0,"PostalCode":1.0},"MatchType":"interpolated","Location":{"LocationId":"NT_bzHdXAyhqVXNinpcRFMx9A_yA","LocationType":"point","DisplayPosition":{"Latitude":51.14342,"Longitude":4.86039},"MapView":{"TopLeft":{"Latitude":51.1445442,"Longitude":4.8585982},"BottomRight":{"Latitude":51.1422958,"Longitude":4.8621818}},"Address":{"Label":"Drogebroodstraat 2, 2250 Olen, België","Country":"BEL","State":"Vlaanderen","County":"Antwerpen","City":"Olen","Street":"Drogebroodstraat","HouseNumber":"2","PostalCode":"2250","AdditionalData":[{"value":"België","key":"CountryName"},{"value":"Vlaanderen","key":"StateName"},{"value":"Antwerpen","key":"CountyName"}]},"MapReference":{"ReferenceId":"53688145","Spot":0.86,"SideOfStreet":"left","CountryId":"20128886","StateId":"20204377","CountyId":"20204378","CityId":"20204653","AddressId":"399625349","RoadLinkId":"30947553"}}},{"Relevance":1.0,"Distance":80.4,"MatchLevel":"houseNumber","MatchQuality":{"Country":1.0,"State":1.0,"County":1.0,"City":1.0,"Street":[1.0],"HouseNumber":1.0,"PostalCode":1.0},"MatchType":"interpolated","Location":{"LocationId":"NT_dfMEyP0ItFNTVID.9qgnvD_l_53688111_R_0UD","LocationType":"point","DisplayPosition":{"Latitude":51.1434761,"Longitude":4.8600949},"MapView":{"TopLeft":{"Latitude":51.1446003,"Longitude":4.8583031},"BottomRight":{"Latitude":51.142352,"Longitude":4.8618867}},"Address":{"Label":"Dorp 45, 2250 Olen, België","Country":"BEL","State":"Vlaanderen","County":"Antwerpen","City":"Olen","Street":"Dorp","HouseNumber":"45","PostalCode":"2250","AdditionalData":[{"value":"België","key":"CountryName"},{"value":"Vlaanderen","key":"StateName"},{"value":"Antwerpen","key":"CountyName"}]},"MapReference":{"ReferenceId":"53688111","Spot":0.51,"SideOfStreet":"right","CountryId":"20128886","StateId":"20204377","CountyId":"20204378","CityId":"20204653"}}}]}]}}