{"Response":{"MetaInfo":{"Timestamp":"2020-03-28T10:45:14.535+0000","NextPageInformation":"2"},"View":[{"_type":"SearchResultsViewType","ViewId":0,"Result":[{"Relevance":1.0,"Distance":0.0,"Direction":0.0,"MatchLevel":"city","MatchQuality":{"Country":1.0,"State":1.0,"County":1.0,"City":1.0,"PostalCode":1.0},"Location":{"LocationId":"NT_tX1CBLaPhfY2yET0ipAiGC","LocationType":"point","DisplayPosition":{"Latitude":51.1925583,"Longitude":6.0033709},"MapView":{"TopLeft":{"Latitude":51.21349,"Longitude":5.97147},"BottomRight":{"Latitude":51.16254,"Longitude":6.06373}},"Address":{"Label":"Roermond, Limburg, Nederland","Country":"NLD","State":"Limburg","County":"Roermond","City":"Roermond","PostalCode":"6041 KZ","AdditionalData":[{"value":"Nederland","key":"CountryName"},{"value":"Limburg","key":"StateName"},{"value":"Roermond","key":"CountyName"}]},"MapReference":{"ReferenceId":"54490777","SideOfStreet":"neither","CountryId":"23055544","StateId":"23055547","CountyId":"23055989","CityId":"20203657"}}},{"Relevance":1.0,"Distance":20.3,"MatchLevel":"street","MatchQuality":{"Country":1.0,"State":1.0,"County":1.0,"City":1.0,"Street":[1.0],"PostalCode":1.0},"Location":{"LocationId":"NT_2CA13u5YWmQ3K6w8.mO1PC_l_877332615_R","LocationType":"point","DisplayPosition":{"Latitude":51.1926139,"Longitude":6.0030928},"MapView":{"TopLeft":{"Latitude":51.19275,"Longitude":6.00309},"BottomRight":{"Latitude":51.1926,"Longitude":6.00312}},"Address":{"Label":"Bredeweg, 6042 Roermond, Nederland","Country":"NLD","State":"Limburg","County":"Roermond","City":"Roermond","Street":"Bredeweg","PostalCode":"6042","AdditionalData":[{"value":"Nederland","key":"CountryName"},{"value":"Limburg","key":"StateName"},{"value":"Roermond","key":"CountyName"}]},"MapReference":{"ReferenceId":"877332615","Spot":0.09,"SideOfStreet":"right","CountryId":"23055544","StateId":"23055547","CountyId":"23055989","CityId":"20203657"}}},{"Relevance":1.0,"Distance":26.5,"MatchLevel":"street","MatchQuality":{"Country":1.0,"State":1.0,"County":1.0,"City":1.0,"PostalCode":1.0},"Location":{"LocationId":"NT_9SxCLhBW7ecIoC7ozEZ2zD_l_591798311_R","LocationType":"point","DisplayPosition":{"Latitude":51.19278,"Longitude":6.00323},"MapView":{"TopLeft":{"Latitude":51.19281,"Longitude":6.00312},"BottomRight":{"Latitude":51.19275,"Longitude":6.00327}},"Address":{"Label":"6042 Roermond, Nederland","Country":"NLD","State":"Limburg","County":"Roermond","City":"Roermond","PostalCode":"6042","AdditionalData":[{"value":"Nederland","key":"CountryName"},{"value":"Limburg","key":"StateName"},{"value":"Roermond","key":"CountyName"}]},"MapReference":{"ReferenceId":"591798311","Spot":0.7,"SideOfStreet":"right","CountryId":"23055544","StateId":"23055547","CountyId":"23055989","CityId":"20203657"}}},{"Relevance":1.0,"Distance":27.6,"MatchLevel":"street","MatchQuality":{"Country":1.0,"State":1.0,"County":1.0,"City":1.0,"PostalCode":1.0},"Location":{"LocationId":"NT_9SxCLhBW7ecIoC7ozEZ2zD_l_591798306_L","LocationType":"point","DisplayPosition":{"Latitude":51.19275,"Longitude":6.00312},"MapView":{"TopLeft":{"Latitude":51.19276,"Longitude":6.00299},"BottomRight":{"Latitude":51.19275,"Longitude":6.00312}},"Address":{"Label":"6042 Roermond, Nederland","Country":"NLD","State":"Limburg","County":"Roermond","City":"Roermond","PostalCode":"6042","AdditionalData":[{"value":"Nederland","key":"CountryName"},{"value":"Limburg","key":"StateName"},{"value":"Roermond","key":"CountyName"}]},"MapReference":{"ReferenceId":"591798306","Spot":0.0,"SideOfStreet":"left","CountryId":"23055544","StateId":"23055547","CountyId":"23055989","CityId":"20203657"}}},{"Relevance":1.0,"Distance":28.0,"MatchLevel":"street","MatchQuality":{"Country":1.0,"State":1.0,"County":1.0,"City":1.0,"Street":[1.0],"PostalCode":1.0},"Location":{"LocationId":"NT_E8WazmcyviZqIUqzQcuOmC_l_877332621_L","LocationType":"point","DisplayPosition":{"Latitude":51.19281,"Longitude":6.0033709},"MapView":{"TopLeft":{"Latitude":51.19281,"Longitude":6.00327},"BottomRight":{"Latitude":51.1928,"Longitude":6.00353}},"Address":{"Label":"Oranjelaan, 6042 Roermond, Nederland","Country":"NLD","State":"Limburg","County":"Roermond","City":"Roermond","Street":"Oranjelaan","PostalCode":"6042","AdditionalData":[{"value":"Nederland","key":"CountryName"},{"value":"Limburg","key":"StateName"},{"value":"Roermond","key":"CountyName"}]},"MapReference":{"ReferenceId":"877332621","Spot":0.61,"SideOfStreet":"left","CountryId":"23055544","StateId":"23055547","CountyId":"23055989","CityId":"20203657"}}},{"Relevance":1.0,"Distance":28.6,"MatchLevel":"landmark","MatchQuality":{"Country":1.0,"State":1.0,"County":1.0,"City":1.0,"Street":[1.0],"HouseNumber":1.0,"PostalCode":1.0,"Name":1.0},"Location":{"LocationId":"NT_HP.8eW7FUJ4ebOpoYHlUiD_p_KV2FqhxwHWFFWFpg29cxwD","LocationType":"hospital","Name":"Sint Laurentiusziekenhuis","DisplayPosition":{"Latitude":51.19179,"Longitude":5.99859},"MapView":{"TopLeft":{"Latitude":51.1929142,"Longitude":5.9967963},"BottomRight":{"Latitude":51.1906658,"Longitude":6.0003837}},"Address":{"Label":"Monseigneur Driessenstraat 6, 6043 CV Roermond, Nederland","Country":"NLD","State":"Limburg","County":"Roermond","City":"Roermond","Street":"Monseigneur Driessenstraat","HouseNumber":"6","PostalCode":"6043 CV","AdditionalData":[{"value":"Nederland","key":"CountryName"},{"value":"Limburg","key":"StateName"},{"value":"Roermond","key":"CountyName"}]},"MapReference":{"CountryId":"23055544","StateId":"23055547","CountyId":"23055989","CityId":"20203657","PlaceId":"50872172"}}},{"Relevance":1.0,"Distance":28.6,"MatchLevel":"street","MatchQuality":{"Country":1.0,"State":1.0,"County":1.0,"City":1.0,"Street":[1.0],"PostalCode":1.0},"Location":{"LocationId":"NT_CuoNyqOkbTezb.IYrN6thA_l_877332616_R","LocationType":"point","DisplayPosition":{"Latitude":51.1926119,"Longitude":6.0029689},"MapView":{"TopLeft":{"Latitude":51.19262,"Longitude":6.00294},"BottomRight":{"Latitude":51.19219,"Longitude":6.00297}},"Address":{"Label":"Bredeweg, 6043 Roermond, Nederland","Country":"NLD","State":"Limburg","County":"Roermond","City":"Roermond","Street":"Bredeweg","PostalCode":"6043","AdditionalData":[{"value":"Nederland","key":"CountryName"},{"value":"Limburg","key":"StateName"},{"value":"Roermond","key":"CountyName"}]},"MapReference":{"ReferenceId":"877332616","Spot":0.98,"SideOfStreet":"right","CountryId":"23055544","StateId":"23055547","CountyId":"23055989","CityId":"20203657"}}},{"Relevance":1.0,"Distance":28.8,"MatchLevel":"street","MatchQuality":{"Country":1.0,"State":1.0,"County":1.0,"City":1.0,"Street":[1.0],"PostalCode":1.0},"Location":{"LocationId":"NT_2CA13u5YWmQ3K6w8.mO1PC_l_877332617_R","LocationType":"point","DisplayPosition":{"Latitude":51.19262,"Longitude":6.00297},"MapView":{"TopLeft":{"Latitude":51.19276,"Longitude":6.00297},"BottomRight":{"Latitude":51.19262,"Longitude":6.00299}},"Address":{"Label":"Bredeweg, 6042 Roermond, Nederland","Country":"NLD","State":"Limburg","County":"Roermond","City":"Roermond","Street":"Bredeweg","PostalCode":"6042","AdditionalData":[{"value":"Nederland","key":"CountryName"},{"value":"Limburg","key":"StateName"},{"value":"Roermond","key":"CountyName"}]},"MapReference":{"ReferenceId":"877332617","Spot":0.0,"SideOfStreet":"right","CountryId":"23055544","StateId":"23055547","CountyId":"23055989","CityId":"20203657"}}},{"Relevance":1.0,"Distance":28.9,"MatchLevel":"street","MatchQuality":{"Country":1.0,"State":1.0,"County":1.0,"City":1.0,"PostalCode":1.0},"Location":{"LocationId":"NT_9SxCLhBW7ecIoC7ozEZ2zD_l_591798307_R","LocationType":"point","DisplayPosition":{"Latitude":51.19281,"Longitude":6.00327},"MapView":{"TopLeft":{"Latitude":51.19289,"Longitude":6.00327},"BottomRight":{"Latitude":51.19281,"Longitude":6.00329}},"Address":{"Label":"6042 Roermond, Nederland","Country":"NLD","State":"Limburg","County":"Roermond","City":"Roermond","PostalCode":"6042","AdditionalData":[{"value":"Nederland","key":"CountryName"},{"value":"Limburg","key":"StateName"},{"value":"Roermond","key":"CountyName"}]},"MapReference":{"ReferenceId":"591798307","Spot":0.0,"SideOfStreet":"right","CountryId":"23055544","StateId":"23055547","CountyId":"23055989","CityId":"20203657"}}},{"Relevance":1.0,"Distance":29.1,"MatchLevel":"street","MatchQuality":{"Country":1.0,"State":1.0,"County":1.0,"City":1.0,"Street":[1.0],"PostalCode":1.0},"Location":{"LocationId":"NT_E8WazmcyviZqIUqzQcuOmC_l_877332620_L","LocationType":"point","DisplayPosition":{"Latitude":51.1928,"Longitude":6.00353},"MapView":{"TopLeft":{"Latitude":51.1928,"Longitude":6.00353},"BottomRight":{"Latitude":51.19277,"Longitude":6.00391}},"Address":{"Label":"Oranjelaan, 6042 Roermond, Nederland","Country":"NLD","State":"Limburg","County":"Roermond","City":"Roermond","Street":"Oranjelaan","PostalCode":"6042","AdditionalData":[{"value":"Nederland","key":"CountryName"},{"value":"Limburg","key":"StateName"},{"value":"Roermond","key":"CountyName"}]},"MapReference":{"ReferenceId":"877332620","Spot":1.0,"SideOfStreet":"left","CountryId":"23055544","StateId":"23055547","CountyId":"23055989","CityId":"20203657"}}}]}]}}