{"Response":{"MetaInfo":{"Timestamp":"2020-03-28T11:41:09.743+0000","NextPageInformation":"2"},"View":[{"_type":"SearchResultsViewType","ViewId":0,"Result":[{"Relevance":1.0,"Distance":0.0,"Direction":0.0,"MatchLevel":"district","MatchQuality":{"Country":1.0,"State":1.0,"County":1.0,"City":1.0,"District":1.0,"PostalCode":1.0},"Location":{"LocationId":"NT_DLir01BA.6DRw6Shr8s7cC","LocationType":"point","DisplayPosition":{"Latitude":51.102936,"Longitude":6.0796006},"MapView":{"TopLeft":{"Latitude":51.11251,"Longitude":6.05766},"BottomRight":{"Latitude":51.0904,"Longitude":6.08681}},"Address":{"Label":"Karken, Heinsberg, Nordrhein-Westfalen, Deutschland","Country":"DEU","State":"Nordrhein-Westfalen","County":"Heinsberg","City":"Heinsberg","District":"Karken","PostalCode":"52525","AdditionalData":[{"value":"Deutschland","key":"CountryName"},{"value":"Nordrhein-Westfalen","key":"StateName"},{"value":"Heinsberg","key":"CountyName"}]},"MapReference":{"ReferenceId":"1206495447","SideOfStreet":"neither","CountryId":"20147700","StateId":"20157369","CountyId":"20158557","CityId":"20158598","DistrictId":"20158603"}}},{"Relevance":1.0,"Distance":7.1,"MatchLevel":"houseNumber","MatchQuality":{"Country":1.0,"State":1.0,"County":1.0,"City":1.0,"District":1.0,"Street":[1.0],"HouseNumber":1.0,"PostalCode":1.0},"MatchType":"interpolated","Location":{"LocationId":"NT_jqawpSfi.vthvQJQ7RuQNA_zgD","LocationType":"point","DisplayPosition":{"Latitude":51.103,"Longitude":6.0796},"MapView":{"TopLeft":{"Latitude":51.1041242,"Longitude":6.0778097},"BottomRight":{"Latitude":51.1018758,"Longitude":6.0813903}},"Address":{"Label":"Holzgraben 38, 52525 Heinsberg, Deutschland","Country":"DEU","State":"Nordrhein-Westfalen","County":"Heinsberg","City":"Heinsberg","District":"Karken","Street":"Holzgraben","HouseNumber":"38","PostalCode":"52525","AdditionalData":[{"value":"Deutschland","key":"CountryName"},{"value":"Nordrhein-Westfalen","key":"StateName"},{"value":"Heinsberg","key":"CountyName"}]},"MapReference":{"ReferenceId":"77171279","Spot":0.73,"SideOfStreet":"right","CountryId":"20147700","StateId":"20157369","CountyId":"20158557","CityId":"20158598","DistrictId":"20158603","AddressId":"192690627","RoadLinkId":"39464656"}}},{"Relevance":1.0,"Distance":25.7,"MatchLevel":"houseNumber","MatchQuality":{"Country":1.0,"State":1.0,"County":1.0,"City":1.0,"District":1.0,"Street":[1.0],"HouseNumber":1.0,"PostalCode":1.0},"MatchType":"interpolated","Location":{"LocationId":"NT_9KidHz-lJ4ki9jWkmSoAdD_1ED","LocationType":"point","DisplayPosition":{"Latitude":51.10269,"Longitude":6.07983},"MapView":{"TopLeft":{"Latitude":51.1038142,"Longitude":6.0780397},"BottomRight":{"Latitude":51.1015658,"Longitude":6.0816203}},"Address":{"Label":"Karkener Straße 51, 52525 Heinsberg, Deutschland","Country":"DEU","State":"Nordrhein-Westfalen","County":"Heinsberg","City":"Heinsberg","District":"Karken","Street":"Karkener Straße","HouseNumber":"51","PostalCode":"52525","AdditionalData":[{"value":"Deutschland","key":"CountryName"},{"value":"Nordrhein-Westfalen","key":"StateName"},{"value":"Heinsberg","key":"CountyName"}]},"MapReference":{"ReferenceId":"1257012216","Spot":0.64,"SideOfStreet":"left","CountryId":"20147700","StateId":"20157369","CountyId":"20158557","CityId":"20158598","DistrictId":"20158603","AddressId":"196302657","RoadLinkId":"580797912"}}},{"Relevance":1.0,"Distance":34.9,"MatchLevel":"houseNumber","MatchQuality":{"Country":1.0,"State":1.0,"County":1.0,"City":1.0,"District":1.0,"Street":[1.0],"HouseNumber":1.0,"PostalCode":1.0},"MatchType":"interpolated","Location":{"LocationId":"NT_GC1MeDmryf3UlUNnQNONmD_xA","LocationType":"point","DisplayPosition":{"Latitude":51.10331,"Longitude":6.07999},"MapView":{"TopLeft":{"Latitude":51.1044342,"Longitude":6.0781997},"BottomRight":{"Latitude":51.1021858,"Longitude":6.0817803}},"Address":{"Label":"Tichelkamp 1, 52525 Heinsberg, Deutschland","Country":"DEU","State":"Nordrhein-Westfalen","County":"Heinsberg","City":"Heinsberg","District":"Karken","Street":"Tichelkamp","HouseNumber":"1","PostalCode":"52525","AdditionalData":[{"value":"Deutschland","key":"CountryName"},{"value":"Nordrhein-Westfalen","key":"StateName"},{"value":"Heinsberg","key":"CountyName"}]},"MapReference":{"ReferenceId":"77171281","Spot":0.66,"SideOfStreet":"left","CountryId":"20147700","StateId":"20157369","CountyId":"20158557","CityId":"20158598","DistrictId":"20158603","AddressId":"196686213","RoadLinkId":"39265357"}}},{"Relevance":1.0,"Distance":43.5,"MatchLevel":"houseNumber","MatchQuality":{"Country":1.0,"State":1.0,"County":1.0,"City":1.0,"District":1.0,"Street":[1.0],"HouseNumber":1.0,"PostalCode":1.0},"MatchType":"interpolated","Location":{"LocationId":"NT_NvJmkFA-vp58bP.CkxzRhB_3ED","LocationType":"point","DisplayPosition":{"Latitude":51.10297,"Longitude":6.08035},"MapView":{"TopLeft":{"Latitude":51.1040942,"Longitude":6.0785597},"BottomRight":{"Latitude":51.1018458,"Longitude":6.0821403}},"Address":{"Label":"Mühlenstraße 71, 52525 Heinsberg, Deutschland","Country":"DEU","State":"Nordrhein-Westfalen","County":"Heinsberg","City":"Heinsberg","District":"Karken","Street":"Mühlenstraße","HouseNumber":"71","PostalCode":"52525","AdditionalData":[{"value":"Deutschland","key":"CountryName"},{"value":"Nordrhein-Westfalen","key":"StateName"},{"value":"Heinsberg","key":"CountyName"}]},"MapReference":{"ReferenceId":"77171293","Spot":0.39,"SideOfStreet":"left","CountryId":"20147700","StateId":"20157369","CountyId":"20158557","CityId":"20158598","DistrictId":"20158603","AddressId":"195814284","RoadLinkId":"39129575"}}},{"Relevance":1.0,"Distance":61.4,"MatchLevel":"houseNumber","MatchQuality":{"Country":1.0,"State":1.0,"County":1.0,"City":1.0,"District":1.0,"Street":[1.0],"HouseNumber":1.0,"PostalCode":1.0},"MatchType":"interpolated","Location":{"LocationId":"NT_NvJmkFA-vp58bP.CkxzRhB_2kD","LocationType":"point","DisplayPosition":{"Latitude":51.10281,"Longitude":6.08059},"MapView":{"TopLeft":{"Latitude":51.1039342,"Longitude":6.0787997},"BottomRight":{"Latitude":51.1016858,"Longitude":6.0823803}},"Address":{"Label":"Mühlenstraße 69, 52525 Heinsberg, Deutschland","Country":"DEU","State":"Nordrhein-Westfalen","County":"Heinsberg","City":"Heinsberg","District":"Karken","Street":"Mühlenstraße","HouseNumber":"69","PostalCode":"52525","AdditionalData":[{"value":"Deutschland","key":"CountryName"},{"value":"Nordrhein-Westfalen","key":"StateName"},{"value":"Heinsberg","key":"CountyName"}]},"MapReference":{"ReferenceId":"1256910860","Spot":0.92,"SideOfStreet":"left","CountryId":"20147700","StateId":"20157369","CountyId":"20158557","CityId":"20158598","DistrictId":"20158603","AddressId":"193517708","RoadLinkId":"580663324"}}},{"Relevance":1.0,"Distance":81.6,"MatchLevel":"houseNumber","MatchQuality":{"Country":1.0,"State":1.0,"County":1.0,"City":1.0,"District":1.0,"Street":[1.0],"HouseNumber":1.0,"PostalCode":1.0},"MatchType":"interpolated","Location":{"LocationId":"NT_GC1MeDmryf3UlUNnQNONmD_zA","LocationType":"point","DisplayPosition":{"Latitude":51.1037,"Longitude":6.07986},"MapView":{"TopLeft":{"Latitude":51.1048242,"Longitude":6.0780697},"BottomRight":{"Latitude":51.1025758,"Longitude":6.0816503}},"Address":{"Label":"Tichelkamp 3, 52525 Heinsberg, Deutschland","Country":"DEU","State":"Nordrhein-Westfalen","County":"Heinsberg","City":"Heinsberg","District":"Karken","Street":"Tichelkamp","HouseNumber":"3","PostalCode":"52525","AdditionalData":[{"value":"Deutschland","key":"CountryName"},{"value":"Nordrhein-Westfalen","key":"StateName"},{"value":"Heinsberg","key":"CountyName"}]},"MapReference":{"ReferenceId":"77171226","Spot":0.21,"SideOfStreet":"left","CountryId":"20147700","StateId":"20157369","CountyId":"20158557","CityId":"20158598","DistrictId":"20158603","AddressId":"194285905","RoadLinkId":"39408274"}}},{"Relevance":1.0,"Distance":84.1,"MatchLevel":"houseNumber","MatchQuality":{"Country":1.0,"State":1.0,"County":1.0,"City":1.0,"District":1.0,"Street":[1.0],"HouseNumber":1.0,"PostalCode":1.0},"MatchType":"interpolated","Location":{"LocationId":"NT_uM61oK0immN3UPpMIUEC2C_xA","LocationType":"point","DisplayPosition":{"Latitude":51.1029,"Longitude":6.08083},"MapView":{"TopLeft":{"Latitude":51.1040242,"Longitude":6.0790397},"BottomRight":{"Latitude":51.1017758,"Longitude":6.0826203}},"Address":{"Label":"Pfarrer-Hencken-Straße 1, 52525 Heinsberg, Deutschland","Country":"DEU","State":"Nordrhein-Westfalen","County":"Heinsberg","City":"Heinsberg","District":"Karken","Street":"Pfarrer-Hencken-Straße","HouseNumber":"1","PostalCode":"52525","AdditionalData":[{"value":"Deutschland","key":"CountryName"},{"value":"Nordrhein-Westfalen","key":"StateName"},{"value":"Heinsberg","key":"CountyName"}]},"MapReference":{"ReferenceId":"77171280","Spot":0.18,"SideOfStreet":"left","CountryId":"20147700","StateId":"20157369","CountyId":"20158557","CityId":"20158598","DistrictId":"20158603","AddressId":"622139199","RoadLinkId":"39340145"}}},{"Relevance":1.0,"Distance":94.6,"MatchLevel":"houseNumber","MatchQuality":{"Country":1.0,"State":1.0,"County":1.0,"City":1.0,"District":1.0,"Street":[1.0],"HouseNumber":1.0,"PostalCode":1.0},"MatchType":"interpolated","Location":{"LocationId":"NT_pXvQyz6XwByHaDEC9R5QnB_yA","LocationType":"point","DisplayPosition":{"Latitude":51.10353,"Longitude":6.08065},"MapView":{"TopLeft":{"Latitude":51.1046542,"Longitude":6.0788597},"BottomRight":{"Latitude":51.1024058,"Longitude":6.0824403}},"Address":{"Label":"Im Brühl 2, 52525 Heinsberg, Deutschland","Country":"DEU","State":"Nordrhein-Westfalen","County":"Heinsberg","City":"Heinsberg","District":"Karken","Street":"Im Brühl","HouseNumber":"2","PostalCode":"52525","AdditionalData":[{"value":"Deutschland","key":"CountryName"},{"value":"Nordrhein-Westfalen","key":"StateName"},{"value":"Heinsberg","key":"CountyName"}]},"MapReference":{"ReferenceId":"77171213","Spot":0.25,"SideOfStreet":"right","CountryId":"20147700","StateId":"20157369","CountyId":"20158557","CityId":"20158598","DistrictId":"20158603","AddressId":"192811094","RoadLinkId":"39183156"}}},{"Relevance":1.0,"Distance":105.8,"MatchLevel":"houseNumber","MatchQuality":{"Country":1.0,"State":1.0,"County":1.0,"City":1.0,"District":1.0,"Street":[1.0],"HouseNumber":1.0,"PostalCode":1.0},"MatchType":"interpolated","Location":{"LocationId":"NT_aLYUQQ3sG68f3i7ZzZ1V.B_yA","LocationType":"point","DisplayPosition":{"Latitude":51.10325,"Longitude":6.07804},"MapView":{"TopLeft":{"Latitude":51.1043742,"Longitude":6.0762497},"BottomRight":{"Latitude":51.1021258,"Longitude":6.0798303}},"Address":{"Label":"Severinsweg 2, 52525 Heinsberg, Deutschland","Country":"DEU","State":"Nordrhein-Westfalen","County":"Heinsberg","City":"Heinsberg","District":"Karken","Street":"Severinsweg","HouseNumber":"2","PostalCode":"52525","AdditionalData":[{"value":"Deutschland","key":"CountryName"},{"value":"Nordrhein-Westfalen","key":"StateName"},{"value":"Heinsberg","key":"CountyName"}]},"MapReference":{"ReferenceId":"1257098292","Spot":0.37,"SideOfStreet":"right","CountryId":"20147700","StateId":"20157369","CountyId":"20158557","CityId":"20158598","DistrictId":"20158603","AddressId":"195115810","RoadLinkId":"580902126"}}}]}]}}