{"Response":{"MetaInfo":{"Timestamp":"2020-03-28T10:52:17.512+0000","NextPageInformation":"2"},"View":[{"_type":"SearchResultsViewType","ViewId":0,"Result":[{"Relevance":1.0,"Distance":0.0,"Direction":0.0,"MatchLevel":"city","MatchQuality":{"Country":1.0,"State":1.0,"County":1.0,"City":1.0,"PostalCode":1.0},"Location":{"LocationId":"NT_9uwELDr4KNIgeUVraW-cQB","LocationType":"point","DisplayPosition":{"Latitude":51.1872262,"Longitude":3.8036132},"MapView":{"TopLeft":{"Latitude":51.21419,"Longitude":3.76531},"BottomRight":{"Latitude":51.1822,"Longitude":3.85606}},"Address":{"Label":"Zelzate, Vlaanderen, België","Country":"BEL","State":"Vlaanderen","County":"Oost-Vlaanderen","City":"Zelzate","PostalCode":"9060","AdditionalData":[{"value":"België","key":"CountryName"},{"value":"Vlaanderen","key":"StateName"},{"value":"Oost-Vlaanderen","key":"CountyName"}]},"MapReference":{"ReferenceId":"59185781","SideOfStreet":"neither","CountryId":"20128886","StateId":"20204377","CountyId":"20205081","CityId":"20205259"}}},{"Relevance":1.0,"Distance":8.9,"MatchLevel":"landmark","MatchQuality":{"Country":1.0,"State":1.0,"County":1.0,"Name":1.0},"Location":{"LocationId":"NT_ClBgWMtWZImJ-b5l9c499C","LocationType":"canalWaterChannel","Name":"Zeekanaal Gent-Terneuzen","DisplayPosition":{"Latitude":51.15782,"Longitude":3.78736},"MapView":{"TopLeft":{"Latitude":51.21055,"Longitude":3.73682},"BottomRight":{"Latitude":51.10509,"Longitude":3.80527}},"Address":{"Label":"België","Country":"BEL","State":"Vlaanderen","County":"Oost-Vlaanderen","AdditionalData":[{"value":"België","key":"CountryName"},{"value":"Vlaanderen","key":"StateName"},{"value":"Oost-Vlaanderen","key":"CountyName"}]},"MapReference":{"CountryId":"20128886","StateId":"20204377","CountyId":"20205081","PlaceId":"50742630"}}},{"Relevance":1.0,"Distance":66.7,"MatchLevel":"street","MatchQuality":{"Country":1.0,"State":1.0,"County":1.0,"City":1.0,"Street":[1.0],"PostalCode":1.0},"Location":{"LocationId":"NT_FKEeMUqr89ck2oVa9JePbC_l_60858168_R","LocationType":"point","DisplayPosition":{"Latitude":51.18663,"Longitude":3.80351},"MapView":{"TopLeft":{"Latitude":51.18663,"Longitude":3.80351},"BottomRight":{"Latitude":51.18229,"Longitude":3.8036}},"Address":{"Label":"Suikerkaai, 9060 Zelzate, België","Country":"BEL","State":"Vlaanderen","County":"Oost-Vlaanderen","City":"Zelzate","Street":"Suikerkaai","PostalCode":"9060","AdditionalData":[{"value":"België","key":"CountryName"},{"value":"Vlaanderen","key":"StateName"},{"value":"Oost-Vlaanderen","key":"CountyName"}]},"MapReference":{"ReferenceId":"60858168","Spot":1.0,"SideOfStreet":"right","CountryId":"20128886","StateId":"20204377","CountyId":"20205081","CityId":"20205259"}}},{"Relevance":1.0,"Distance":203.2,"MatchLevel":"street","MatchQuality":{"Country":1.0,"State":1.0,"County":1.0,"City":1.0,"Street":[1.0],"PostalCode":1.0},"Location":{"LocationId":"NT_Scy9UnJHRzOp2bZ8q4yF6C_l_1119339803_R","LocationType":"point","DisplayPosition":{"Latitude":51.1870997,"Longitude":3.8007048},"MapView":{"TopLeft":{"Latitude":51.18735,"Longitude":3.80069},"BottomRight":{"Latitude":51.18672,"Longitude":3.80073}},"Address":{"Label":"Beneluxlaan, 9060 Zelzate, België","Country":"BEL","State":"Vlaanderen","County":"Oost-Vlaanderen","City":"Zelzate","Street":"Beneluxlaan","PostalCode":"9060","AdditionalData":[{"value":"België","key":"CountryName"},{"value":"Vlaanderen","key":"StateName"},{"value":"Oost-Vlaanderen","key":"CountyName"}]},"MapReference":{"ReferenceId":"1119339803","Spot":0.6,"SideOfStreet":"right","CountryId":"20128886","StateId":"20204377","CountyId":"20205081","CityId":"20205259"}}},{"Relevance":1.0,"Distance":204.2,"MatchLevel":"street","MatchQuality":{"Country":1.0,"State":1.0,"County":1.0,"City":1.0,"Street":[1.0],"PostalCode":1.0},"Location":{"LocationId":"NT_6Tm1Ay3FvmZV3pKOX-siNB_l_1216345182_R","LocationType":"point","DisplayPosition":{"Latitude":51.18735,"Longitude":3.80069},"MapView":{"TopLeft":{"Latitude":51.18757,"Longitude":3.80068},"BottomRight":{"Latitude":51.18735,"Longitude":3.80069}},"Address":{"Label":"Beneluxlaan, 9060 Zelzate, België","Country":"BEL","State":"Vlaanderen","County":"Oost-Vlaanderen","City":"Zelzate","Street":"Beneluxlaan","PostalCode":"9060","AdditionalData":[{"value":"België","key":"CountryName"},{"value":"Vlaanderen","key":"StateName"},{"value":"Oost-Vlaanderen","key":"CountyName"}]},"MapReference":{"ReferenceId":"1216345182","Spot":0.0,"SideOfStreet":"right","CountryId":"20128886","StateId":"20204377","CountyId":"20205081","CityId":"20205259"}}},{"Relevance":1.0,"Distance":208.0,"MatchLevel":"street","MatchQuality":{"Country":1.0,"State":1.0,"County":1.0,"City":1.0,"Street":[1.0],"PostalCode":1.0},"Location":{"LocationId":"NT_6Tm1Ay3FvmZV3pKOX-siNB_l_1216345183_R","LocationType":"point","DisplayPosition":{"Latitude":51.18757,"Longitude":3.80068},"MapView":{"TopLeft":{"Latitude":51.18776,"Longitude":3.80067},"BottomRight":{"Latitude":51.18757,"Longitude":3.80068}},"Address":{"Label":"Beneluxlaan, 9060 Zelzate, België","Country":"BEL","State":"Vlaanderen","County":"Oost-Vlaanderen","City":"Zelzate","Street":"Beneluxlaan","PostalCode":"9060","AdditionalData":[{"value":"België","key":"CountryName"},{"value":"Vlaanderen","key":"StateName"},{"value":"Oost-Vlaanderen","key":"CountyName"}]},"MapReference":{"ReferenceId":"1216345183","Spot":0.0,"SideOfStreet":"right","CountryId":"20128886","StateId":"20204377","CountyId":"20205081","CityId":"20205259"}}},{"Relevance":1.0,"Distance":208.7,"MatchLevel":"street","MatchQuality":{"Country":1.0,"State":1.0,"County":1.0,"City":1.0,"District":1.0,"Street":[1.0],"PostalCode":1.0},"Location":{"LocationId":"NT_1SLFgyosquz-hFDu7sqijA_l_1161686679_R","LocationType":"point","DisplayPosition":{"Latitude":51.18672,"Longitude":3.80073},"MapView":{"TopLeft":{"Latitude":51.18672,"Longitude":3.80073},"BottomRight":{"Latitude":51.18638,"Longitude":3.80075}},"Address":{"Label":"Kuhlmannkaai, 9042 Gent, België","Country":"BEL","State":"Vlaanderen","County":"Oost-Vlaanderen","City":"Gent","District":"Kanaaldorpen en-Zone","Street":"Kuhlmannkaai","PostalCode":"9042","AdditionalData":[{"value":"België","key":"CountryName"},{"value":"Vlaanderen","key":"StateName"},{"value":"Oost-Vlaanderen","key":"CountyName"}]},"MapReference":{"ReferenceId":"1161686679","Spot":1.0,"SideOfStreet":"right","CountryId":"20128886","StateId":"20204377","CountyId":"20205081","CityId":"20205306"}}},{"Relevance":1.0,"Distance":213.5,"MatchLevel":"street","MatchQuality":{"Country":1.0,"State":1.0,"County":1.0,"City":1.0,"Street":[1.0],"PostalCode":1.0},"Location":{"LocationId":"NT_6Tm1Ay3FvmZV3pKOX-siNB_l_1216345193_R","LocationType":"point","DisplayPosition":{"Latitude":51.18776,"Longitude":3.80067},"MapView":{"TopLeft":{"Latitude":51.18849,"Longitude":3.80063},"BottomRight":{"Latitude":51.18776,"Longitude":3.80067}},"Address":{"Label":"Beneluxlaan, 9060 Zelzate, België","Country":"BEL","State":"Vlaanderen","County":"Oost-Vlaanderen","City":"Zelzate","Street":"Beneluxlaan","PostalCode":"9060","AdditionalData":[{"value":"België","key":"CountryName"},{"value":"Vlaanderen","key":"StateName"},{"value":"Oost-Vlaanderen","key":"CountyName"}]},"MapReference":{"ReferenceId":"1216345193","Spot":0.0,"SideOfStreet":"right","CountryId":"20128886","StateId":"20204377","CountyId":"20205081","CityId":"20205259"}}},{"Relevance":1.0,"Distance":217.0,"MatchLevel":"houseNumber","MatchQuality":{"Country":1.0,"State":1.0,"County":1.0,"City":1.0,"Street":[1.0],"HouseNumber":1.0,"PostalCode":1.0},"MatchType":"interpolated","Location":{"LocationId":"NT_FKEeMUqr89ck2oVa9JePbC_4ED","LocationType":"point","DisplayPosition":{"Latitude":51.18889,"Longitude":3.80524},"MapView":{"TopLeft":{"Latitude":51.1900142,"Longitude":3.8034464},"BottomRight":{"Latitude":51.1877658,"Longitude":3.8070336}},"Address":{"Label":"Suikerkaai 81, 9060 Zelzate, België","Country":"BEL","State":"Vlaanderen","County":"Oost-Vlaanderen","City":"Zelzate","Street":"Suikerkaai","HouseNumber":"81","PostalCode":"9060","AdditionalData":[{"value":"België","key":"CountryName"},{"value":"Vlaanderen","key":"StateName"},{"value":"Oost-Vlaanderen","key":"CountyName"}]},"MapReference":{"ReferenceId":"60858169","Spot":0.54,"SideOfStreet":"right","CountryId":"20128886","StateId":"20204377","CountyId":"20205081","CityId":"20205259","AddressId":"399609959","RoadLinkId":"30922765"}}},{"Relevance":1.0,"Distance":220.6,"MatchLevel":"street","MatchQuality":{"Country":1.0,"State":1.0,"County":1.0,"City":1.0,"District":1.0,"Street":[1.0],"PostalCode":1.0},"Location":{"LocationId":"NT_1SLFgyosquz-hFDu7sqijA_l_1216345019_R","LocationType":"point","DisplayPosition":{"Latitude":51.18638,"Longitude":3.80075},"MapView":{"TopLeft":{"Latitude":51.18638,"Longitude":3.80065},"BottomRight":{"Latitude":51.18617,"Longitude":3.80075}},"Address":{"Label":"Kuhlmannkaai, 9042 Gent, België","Country":"BEL","State":"Vlaanderen","County":"Oost-Vlaanderen","City":"Gent","District":"Kanaaldorpen en-Zone","Street":"Kuhlmannkaai","PostalCode":"9042","AdditionalData":[{"value":"België","key":"CountryName"},{"value":"Vlaanderen","key":"StateName"},{"value":"Oost-Vlaanderen","key":"CountyName"}]},"MapReference":{"ReferenceId":"1216345019","Spot":1.0,"SideOfStreet":"right","CountryId":"20128886","StateId":"20204377","CountyId":"20205081","CityId":"20205306"}}}]}]}}