{"Response":{"MetaInfo":{"Timestamp":"2020-03-28T10:03:00.730+0000","NextPageInformation":"2"},"View":[{"_type":"SearchResultsViewType","ViewId":0,"Result":[{"Relevance":1.0,"Distance":0.0,"Direction":0.0,"MatchLevel":"district","MatchQuality":{"Country":1.0,"State":1.0,"County":1.0,"City":1.0,"District":1.0,"PostalCode":1.0},"Location":{"LocationId":"NT_rQScYQF6t.3heQVP34ttXD","LocationType":"point","DisplayPosition":{"Latitude":51.1423794,"Longitude":13.9144873},"MapView":{"TopLeft":{"Latitude":51.143,"Longitude":13.91141},"BottomRight":{"Latitude":51.13542,"Longitude":13.91914}},"Address":{"Label":"Feldschlößchen, Wachau, Sachsen, Deutschland","Country":"DEU","State":"Sachsen","County":"Bautzen","City":"Wachau","District":"Feldschlößchen","PostalCode":"01454","AdditionalData":[{"value":"Deutschland","key":"CountryName"},{"value":"Sachsen","key":"StateName"},{"value":"Bautzen","key":"CountyName"}]},"MapReference":{"ReferenceId":"540712796","SideOfStreet":"neither","CountryId":"20147700","StateId":"20191185","CountyId":"20191587","CityId":"20212632","DistrictId":"20402530"}}},{"Relevance":1.0,"Distance":9.0,"MatchLevel":"houseNumber","MatchQuality":{"Country":1.0,"State":1.0,"County":1.0,"City":1.0,"District":1.0,"Street":[1.0],"HouseNumber":1.0,"PostalCode":1.0},"MatchType":"interpolated","Location":{"LocationId":"NT_L6MeW.HXygWK9XRb6eWOaB_xA","LocationType":"point","DisplayPosition":{"Latitude":51.14222,"Longitude":13.91393},"MapView":{"TopLeft":{"Latitude":51.1433442,"Longitude":13.9121382},"BottomRight":{"Latitude":51.1410958,"Longitude":13.9157218}},"Address":{"Label":"An der Knorpelschänke 1, 01454 Wachau, Deutschland","Country":"DEU","State":"Sachsen","County":"Bautzen","City":"Wachau","District":"Feldschlößchen","Street":"An der Knorpelschänke","HouseNumber":"1","PostalCode":"01454","AdditionalData":[{"value":"Deutschland","key":"CountryName"},{"value":"Sachsen","key":"StateName"},{"value":"Bautzen","key":"CountyName"}]},"MapReference":{"ReferenceId":"536909660","Spot":0.79,"SideOfStreet":"right","CountryId":"20147700","StateId":"20191185","CountyId":"20191587","CityId":"20212632","DistrictId":"20402530","AddressId":"190192831","RoadLinkId":"39947939"}}},{"Relevance":1.0,"Distance":29.8,"MatchLevel":"houseNumber","MatchQuality":{"Country":1.0,"State":1.0,"County":1.0,"City":1.0,"District":1.0,"Street":[1.0],"HouseNumber":1.0,"PostalCode":1.0},"MatchType":"interpolated","Location":{"LocationId":"NT_1U0s0.2JsBsyQ13OZaoWQD_zA","LocationType":"point","DisplayPosition":{"Latitude":51.14264,"Longitude":13.91439},"MapView":{"TopLeft":{"Latitude":51.1437642,"Longitude":13.9125982},"BottomRight":{"Latitude":51.1415158,"Longitude":13.9161818}},"Address":{"Label":"Buchenweg 3, 01454 Wachau, Deutschland","Country":"DEU","State":"Sachsen","County":"Bautzen","City":"Wachau","District":"Feldschlößchen","Street":"Buchenweg","HouseNumber":"3","PostalCode":"01454","AdditionalData":[{"value":"Deutschland","key":"CountryName"},{"value":"Sachsen","key":"StateName"},{"value":"Bautzen","key":"CountyName"}]},"MapReference":{"ReferenceId":"1185247564","Spot":0.37,"SideOfStreet":"left","CountryId":"20147700","StateId":"20191185","CountyId":"20191587","CityId":"20212632","DistrictId":"20402530","AddressId":"622317390","RoadLinkId":"493549736"}}},{"Relevance":1.0,"Distance":37.0,"MatchLevel":"houseNumber","MatchQuality":{"Country":1.0,"State":1.0,"County":1.0,"City":1.0,"District":1.0,"Street":[1.0],"HouseNumber":1.0,"PostalCode":1.0},"MatchType":"interpolated","Location":{"LocationId":"NT_1U0s0.2JsBsyQ13OZaoWQD_xA","LocationType":"point","DisplayPosition":{"Latitude":51.14277,"Longitude":13.91455},"MapView":{"TopLeft":{"Latitude":51.1438942,"Longitude":13.9127582},"BottomRight":{"Latitude":51.1416458,"Longitude":13.9163418}},"Address":{"Label":"Buchenweg 1, 01454 Wachau, Deutschland","Country":"DEU","State":"Sachsen","County":"Bautzen","City":"Wachau","District":"Feldschlößchen","Street":"Buchenweg","HouseNumber":"1","PostalCode":"01454","AdditionalData":[{"value":"Deutschland","key":"CountryName"},{"value":"Sachsen","key":"StateName"},{"value":"Bautzen","key":"CountyName"}]},"MapReference":{"ReferenceId":"1185247562","Spot":0.72,"SideOfStreet":"left","CountryId":"20147700","StateId":"20191185","CountyId":"20191587","CityId":"20212632","DistrictId":"20402530","AddressId":"190376103","RoadLinkId":"493549734"}}},{"Relevance":1.0,"Distance":39.3,"MatchLevel":"street","MatchQuality":{"Country":1.0,"State":1.0,"County":1.0,"City":1.0,"District":1.0,"Street":[1.0],"PostalCode":1.0},"Location":{"LocationId":"NT_HZFr8iN.VMbo6J6.hC-tYB_l_554789530_L","LocationType":"point","DisplayPosition":{"Latitude":51.14237,"Longitude":13.91505},"MapView":{"TopLeft":{"Latitude":51.14237,"Longitude":13.91494},"BottomRight":{"Latitude":51.14184,"Longitude":13.91506}},"Address":{"Label":"Lindenweg, 01454 Wachau, Deutschland","Country":"DEU","State":"Sachsen","County":"Bautzen","City":"Wachau","District":"Feldschlößchen","Street":"Lindenweg","PostalCode":"01454","AdditionalData":[{"value":"Deutschland","key":"CountryName"},{"value":"Sachsen","key":"StateName"},{"value":"Bautzen","key":"CountyName"}]},"MapReference":{"ReferenceId":"554789530","Spot":1.0,"SideOfStreet":"left","CountryId":"20147700","StateId":"20191185","CountyId":"20191587","CityId":"20212632","DistrictId":"20402530"}}},{"Relevance":1.0,"Distance":44.0,"MatchLevel":"houseNumber","MatchQuality":{"Country":1.0,"State":1.0,"County":1.0,"City":1.0,"District":1.0,"Street":[1.0],"HouseNumber":1.0,"PostalCode":1.0},"MatchType":"interpolated","Location":{"LocationId":"NT_HZFr8iN.VMbo6J6.hC-tYB_yA","LocationType":"point","DisplayPosition":{"Latitude":51.14257,"Longitude":13.91504},"MapView":{"TopLeft":{"Latitude":51.1436942,"Longitude":13.9132482},"BottomRight":{"Latitude":51.1414458,"Longitude":13.9168318}},"Address":{"Label":"Lindenweg 2, 01454 Wachau, Deutschland","Country":"DEU","State":"Sachsen","County":"Bautzen","City":"Wachau","District":"Feldschlößchen","Street":"Lindenweg","HouseNumber":"2","PostalCode":"01454","AdditionalData":[{"value":"Deutschland","key":"CountryName"},{"value":"Sachsen","key":"StateName"},{"value":"Bautzen","key":"CountyName"}]},"MapReference":{"ReferenceId":"554789539","Spot":0.5,"SideOfStreet":"right","CountryId":"20147700","StateId":"20191185","CountyId":"20191587","CityId":"20212632","DistrictId":"20402530","AddressId":"189681645","RoadLinkId":"39554400"}}},{"Relevance":1.0,"Distance":45.3,"MatchLevel":"street","MatchQuality":{"Country":1.0,"State":1.0,"County":1.0,"City":1.0,"Street":[1.0],"PostalCode":1.0},"Location":{"LocationId":"NT_j.pjjgweLL-4wxsYKvAzyB_l_554789523_R","LocationType":"point","DisplayPosition":{"Latitude":51.14241,"Longitude":13.91384},"MapView":{"TopLeft":{"Latitude":51.14296,"Longitude":13.91359},"BottomRight":{"Latitude":51.14241,"Longitude":13.91384}},"Address":{"Label":"An der Knorpelschänke, 01454 Wachau, Deutschland","Country":"DEU","State":"Sachsen","County":"Bautzen","City":"Wachau","Street":"An der Knorpelschänke","PostalCode":"01454","AdditionalData":[{"value":"Deutschland","key":"CountryName"},{"value":"Sachsen","key":"StateName"},{"value":"Bautzen","key":"CountyName"}]},"MapReference":{"ReferenceId":"554789523","Spot":0.0,"SideOfStreet":"right","CountryId":"20147700","StateId":"20191185","CountyId":"20191587","CityId":"20212632"}}},{"Relevance":1.0,"Distance":48.6,"MatchLevel":"houseNumber","MatchQuality":{"Country":1.0,"State":1.0,"County":1.0,"City":1.0,"District":1.0,"Street":[1.0],"HouseNumber":1.0,"PostalCode":1.0},"MatchType":"interpolated","Location":{"LocationId":"NT_1U0s0.2JsBsyQ13OZaoWQD_3A","LocationType":"point","DisplayPosition":{"Latitude":51.14282,"Longitude":13.9143},"MapView":{"TopLeft":{"Latitude":51.1439442,"Longitude":13.9125082},"BottomRight":{"Latitude":51.1416958,"Longitude":13.9160918}},"Address":{"Label":"Buchenweg 7, 01454 Wachau, Deutschland","Country":"DEU","State":"Sachsen","County":"Bautzen","City":"Wachau","District":"Feldschlößchen","Street":"Buchenweg","HouseNumber":"7","PostalCode":"01454","AdditionalData":[{"value":"Deutschland","key":"CountryName"},{"value":"Sachsen","key":"StateName"},{"value":"Bautzen","key":"CountyName"}]},"MapReference":{"ReferenceId":"1185247563","Spot":0.29,"SideOfStreet":"left","CountryId":"20147700","StateId":"20191185","CountyId":"20191587","CityId":"20212632","DistrictId":"20402530","AddressId":"622317391","RoadLinkId":"493549735"}}},{"Relevance":1.0,"Distance":67.8,"MatchLevel":"street","MatchQuality":{"Country":1.0,"State":1.0,"County":1.0,"City":1.0,"District":1.0,"Street":[1.0],"PostalCode":1.0},"Location":{"LocationId":"NT_HZFr8iN.VMbo6J6.hC-tYB_l_554789531_L","LocationType":"point","DisplayPosition":{"Latitude":51.14184,"Longitude":13.91494},"MapView":{"TopLeft":{"Latitude":51.14184,"Longitude":13.91486},"BottomRight":{"Latitude":51.14133,"Longitude":13.91494}},"Address":{"Label":"Lindenweg, 01454 Wachau, Deutschland","Country":"DEU","State":"Sachsen","County":"Bautzen","City":"Wachau","District":"Feldschlößchen","Street":"Lindenweg","PostalCode":"01454","AdditionalData":[{"value":"Deutschland","key":"CountryName"},{"value":"Sachsen","key":"StateName"},{"value":"Bautzen","key":"CountyName"}]},"MapReference":{"ReferenceId":"554789531","Spot":1.0,"SideOfStreet":"left","CountryId":"20147700","StateId":"20191185","CountyId":"20191587","CityId":"20212632","DistrictId":"20402530"}}},{"Relevance":1.0,"Distance":72.9,"MatchLevel":"houseNumber","MatchQuality":{"Country":1.0,"State":1.0,"County":1.0,"City":1.0,"District":1.0,"Street":[1.0],"HouseNumber":1.0,"PostalCode":1.0},"MatchType":"interpolated","Location":{"LocationId":"NT_BndRV80wHTe5fphj2hH5PB_xA","LocationType":"point","DisplayPosition":{"Latitude":51.14185,"Longitude":13.91535},"MapView":{"TopLeft":{"Latitude":51.1429742,"Longitude":13.9135582},"BottomRight":{"Latitude":51.1407258,"Longitude":13.9171418}},"Address":{"Label":"Birkenweg 1, 01454 Wachau, Deutschland","Country":"DEU","State":"Sachsen","County":"Bautzen","City":"Wachau","District":"Feldschlößchen","Street":"Birkenweg","HouseNumber":"1","PostalCode":"01454","AdditionalData":[{"value":"Deutschland","key":"CountryName"},{"value":"Sachsen","key":"StateName"},{"value":"Bautzen","key":"CountyName"}]},"MapReference":{"ReferenceId":"554789532","Spot":0.2,"SideOfStreet":"left","CountryId":"20147700","StateId":"20191185","CountyId":"20191587","CityId":"20212632","DistrictId":"20402530","AddressId":"190124094","RoadLinkId":"39673232"}}}]}]}}