{"Response":{"MetaInfo":{"Timestamp":"2020-03-28T10:54:54.973+0000","NextPageInformation":"2"},"View":[{"_type":"SearchResultsViewType","ViewId":0,"Result":[{"Relevance":1.0,"Distance":0.0,"Direction":0.0,"MatchLevel":"district","MatchQuality":{"Country":1.0,"State":1.0,"County":1.0,"City":1.0,"District":1.0,"PostalCode":1.0},"Location":{"LocationId":"NT_wSXMWSgw314BK7CtQQjjkD","LocationType":"point","DisplayPosition":{"Latitude":51.1180614,"Longitude":9.1148564},"MapView":{"TopLeft":{"Latitude":51.13251,"Longitude":9.09911},"BottomRight":{"Latitude":51.10439,"Longitude":9.15725}},"Address":{"Label":"Bad Wildungen, Hessen, Deutschland","Country":"DEU","State":"Hessen","County":"Waldeck-Frankenberg","City":"Bad Wildungen","District":"Bad Wildungen","PostalCode":"34537","AdditionalData":[{"value":"Deutschland","key":"CountryName"},{"value":"Hessen","key":"StateName"},{"value":"Waldeck-Frankenberg","key":"CountyName"}]},"MapReference":{"ReferenceId":"78659680","SideOfStreet":"neither","CountryId":"20147700","StateId":"20160993","CountyId":"20163687","CityId":"20163703","DistrictId":"20163711"}}},{"Relevance":1.0,"Distance":25.3,"MatchLevel":"houseNumber","MatchQuality":{"Country":1.0,"State":1.0,"County":1.0,"City":1.0,"District":1.0,"Street":[1.0],"HouseNumber":1.0,"PostalCode":1.0},"MatchType":"interpolated","Location":{"LocationId":"NT_jH1yKKIEo1DadgIlZ6.2hC_yYD","LocationType":"point","DisplayPosition":{"Latitude":51.11823,"Longitude":9.1151},"MapView":{"TopLeft":{"Latitude":51.1193542,"Longitude":9.1133091},"BottomRight":{"Latitude":51.1171058,"Longitude":9.1168909}},"Address":{"Label":"Laustraße 26, 34537 Bad Wildungen, Deutschland","Country":"DEU","State":"Hessen","County":"Waldeck-Frankenberg","City":"Bad Wildungen","District":"Bad Wildungen","Street":"Laustraße","HouseNumber":"26","PostalCode":"34537","AdditionalData":[{"value":"Deutschland","key":"CountryName"},{"value":"Hessen","key":"StateName"},{"value":"Waldeck-Frankenberg","key":"CountyName"}]},"MapReference":{"ReferenceId":"590222705","Spot":0.54,"SideOfStreet":"right","CountryId":"20147700","StateId":"20160993","CountyId":"20163687","CityId":"20163703","DistrictId":"20163711","AddressId":"187459231","RoadLinkId":"34202691"}}},{"Relevance":1.0,"Distance":64.9,"MatchLevel":"street","MatchQuality":{"Country":1.0,"State":1.0,"County":1.0,"City":1.0,"District":1.0,"PostalCode":1.0},"Location":{"LocationId":"NT_nXb8IJoVNv-otFXUPJlIAB_l_734867648_R","LocationType":"point","DisplayPosition":{"Latitude":51.11857,"Longitude":9.1144},"MapView":{"TopLeft":{"Latitude":51.11857,"Longitude":9.1131},"BottomRight":{"Latitude":51.11754,"Longitude":9.1144}},"Address":{"Label":"34537 Bad Wildungen, Deutschland","Country":"DEU","State":"Hessen","County":"Waldeck-Frankenberg","City":"Bad Wildungen","District":"Bad Wildungen","PostalCode":"34537","AdditionalData":[{"value":"Deutschland","key":"CountryName"},{"value":"Hessen","key":"StateName"},{"value":"Waldeck-Frankenberg","key":"CountyName"}]},"MapReference":{"ReferenceId":"734867648","Spot":1.0,"SideOfStreet":"right","CountryId":"20147700","StateId":"20160993","CountyId":"20163687","CityId":"20163703","DistrictId":"20163711"}}},{"Relevance":1.0,"Distance":91.3,"MatchLevel":"houseNumber","MatchQuality":{"Country":1.0,"State":1.0,"County":1.0,"City":1.0,"District":1.0,"Street":[1.0],"HouseNumber":1.0,"PostalCode":1.0},"MatchType":"interpolated","Location":{"LocationId":"NT_iu3pOCDa1SzEy.0Om1mCuB_xMTQ","LocationType":"point","DisplayPosition":{"Latitude":51.11717,"Longitude":9.1164},"MapView":{"TopLeft":{"Latitude":51.1182942,"Longitude":9.1146092},"BottomRight":{"Latitude":51.1160458,"Longitude":9.1181908}},"Address":{"Label":"Brunnenallee 13A, 34537 Bad Wildungen, Deutschland","Country":"DEU","State":"Hessen","County":"Waldeck-Frankenberg","City":"Bad Wildungen","District":"Bad Wildungen","Street":"Brunnenallee","HouseNumber":"13A","PostalCode":"34537","AdditionalData":[{"value":"Deutschland","key":"CountryName"},{"value":"Hessen","key":"StateName"},{"value":"Waldeck-Frankenberg","key":"CountyName"}]},"MapReference":{"ReferenceId":"78659707","Spot":0.15,"SideOfStreet":"left","CountryId":"20147700","StateId":"20160993","CountyId":"20163687","CityId":"20163703","DistrictId":"20163711","AddressId":"187008375","RoadLinkId":"34150660"}}},{"Relevance":1.0,"Distance":107.9,"MatchLevel":"houseNumber","MatchQuality":{"Country":1.0,"State":1.0,"County":1.0,"City":1.0,"District":1.0,"Street":[1.0],"HouseNumber":1.0,"PostalCode":1.0},"MatchType":"interpolated","Location":{"LocationId":"NT_iu3pOCDa1SzEy.0Om1mCuB_xkD","LocationType":"point","DisplayPosition":{"Latitude":51.11667,"Longitude":9.11503},"MapView":{"TopLeft":{"Latitude":51.1177942,"Longitude":9.1132392},"BottomRight":{"Latitude":51.1155458,"Longitude":9.1168208}},"Address":{"Label":"Brunnenallee 19, 34537 Bad Wildungen, Deutschland","Country":"DEU","State":"Hessen","County":"Waldeck-Frankenberg","City":"Bad Wildungen","District":"Bad Wildungen","Street":"Brunnenallee","HouseNumber":"19","PostalCode":"34537","AdditionalData":[{"value":"Deutschland","key":"CountryName"},{"value":"Hessen","key":"StateName"},{"value":"Waldeck-Frankenberg","key":"CountyName"}]},"MapReference":{"ReferenceId":"61554922","Spot":0.28,"SideOfStreet":"left","CountryId":"20147700","StateId":"20160993","CountyId":"20163687","CityId":"20163703","DistrictId":"20163711","AddressId":"186813798","RoadLinkId":"34312848"}}},{"Relevance":1.0,"Distance":124.0,"MatchLevel":"houseNumber","MatchQuality":{"Country":1.0,"State":1.0,"County":1.0,"City":1.0,"District":1.0,"Street":[1.0],"HouseNumber":1.0,"PostalCode":1.0},"MatchType":"interpolated","Location":{"LocationId":"NT_iu3pOCDa1SzEy.0Om1mCuB_xUD","LocationType":"point","DisplayPosition":{"Latitude":51.11699,"Longitude":9.11593},"MapView":{"TopLeft":{"Latitude":51.1181142,"Longitude":9.1141392},"BottomRight":{"Latitude":51.1158658,"Longitude":9.1177208}},"Address":{"Label":"Brunnenallee 15, 34537 Bad Wildungen, Deutschland","Country":"DEU","State":"Hessen","County":"Waldeck-Frankenberg","City":"Bad Wildungen","District":"Bad Wildungen","Street":"Brunnenallee","HouseNumber":"15","PostalCode":"34537","AdditionalData":[{"value":"Deutschland","key":"CountryName"},{"value":"Hessen","key":"StateName"},{"value":"Waldeck-Frankenberg","key":"CountyName"}]},"MapReference":{"ReferenceId":"61554924","Spot":0.27,"SideOfStreet":"left","CountryId":"20147700","StateId":"20160993","CountyId":"20163687","CityId":"20163703","DistrictId":"20163711","AddressId":"187572294","RoadLinkId":"34591121"}}},{"Relevance":1.0,"Distance":126.8,"MatchLevel":"street","MatchQuality":{"Country":1.0,"State":1.0,"County":1.0,"City":1.0,"District":1.0,"PostalCode":1.0},"Location":{"LocationId":"NT_nXb8IJoVNv-otFXUPJlIAB_l_1000301060_R","LocationType":"point","DisplayPosition":{"Latitude":51.1191749,"Longitude":9.114462},"MapView":{"TopLeft":{"Latitude":51.1195,"Longitude":9.1119},"BottomRight":{"Latitude":51.11798,"Longitude":9.11566}},"Address":{"Label":"34537 Bad Wildungen, Deutschland","Country":"DEU","State":"Hessen","County":"Waldeck-Frankenberg","City":"Bad Wildungen","District":"Bad Wildungen","PostalCode":"34537","AdditionalData":[{"value":"Deutschland","key":"CountryName"},{"value":"Hessen","key":"StateName"},{"value":"Waldeck-Frankenberg","key":"CountyName"}]},"MapReference":{"ReferenceId":"1000301060","Spot":0.7,"SideOfStreet":"right","CountryId":"20147700","StateId":"20160993","CountyId":"20163687","CityId":"20163703","DistrictId":"20163711"}}},{"Relevance":1.0,"Distance":142.5,"MatchLevel":"street","MatchQuality":{"Country":1.0,"State":1.0,"County":1.0,"City":1.0,"District":1.0,"PostalCode":1.0},"Location":{"LocationId":"NT_nXb8IJoVNv-otFXUPJlIAB_l_78659698_L","LocationType":"point","DisplayPosition":{"Latitude":51.11708,"Longitude":9.11617},"MapView":{"TopLeft":{"Latitude":51.11708,"Longitude":9.11617},"BottomRight":{"Latitude":51.11693,"Longitude":9.11633}},"Address":{"Label":"34537 Bad Wildungen, Deutschland","Country":"DEU","State":"Hessen","County":"Waldeck-Frankenberg","City":"Bad Wildungen","District":"Bad Wildungen","PostalCode":"34537","AdditionalData":[{"value":"Deutschland","key":"CountryName"},{"value":"Hessen","key":"StateName"},{"value":"Waldeck-Frankenberg","key":"CountyName"}]},"MapReference":{"ReferenceId":"78659698","Spot":1.0,"SideOfStreet":"left","CountryId":"20147700","StateId":"20160993","CountyId":"20163687","CityId":"20163703","DistrictId":"20163711"}}},{"Relevance":1.0,"Distance":151.7,"MatchLevel":"houseNumber","MatchQuality":{"Country":1.0,"State":1.0,"County":1.0,"City":1.0,"District":1.0,"Street":[1.0],"HouseNumber":1.0,"PostalCode":1.0},"MatchType":"interpolated","Location":{"LocationId":"NT_jH1yKKIEo1DadgIlZ6.2hC_l_61554910_L_zkD","LocationType":"point","DisplayPosition":{"Latitude":51.1173856,"Longitude":9.1129069},"MapView":{"TopLeft":{"Latitude":51.1185098,"Longitude":9.1111161},"BottomRight":{"Latitude":51.1162615,"Longitude":9.1146978}},"Address":{"Label":"Laustraße 39, 34537 Bad Wildungen, Deutschland","Country":"DEU","State":"Hessen","County":"Waldeck-Frankenberg","City":"Bad Wildungen","District":"Bad Wildungen","Street":"Laustraße","HouseNumber":"39","PostalCode":"34537","AdditionalData":[{"value":"Deutschland","key":"CountryName"},{"value":"Hessen","key":"StateName"},{"value":"Waldeck-Frankenberg","key":"CountyName"}]},"MapReference":{"ReferenceId":"61554910","Spot":0.5,"SideOfStreet":"left","CountryId":"20147700","StateId":"20160993","CountyId":"20163687","CityId":"20163703","DistrictId":"20163711"}}},{"Relevance":1.0,"Distance":152.9,"MatchLevel":"houseNumber","MatchQuality":{"Country":1.0,"State":1.0,"County":1.0,"City":1.0,"District":1.0,"Street":[1.0],"HouseNumber":1.0,"PostalCode":1.0},"MatchType":"interpolated","Location":{"LocationId":"NT_SFsH16WDvSngDH0.k6TgBA_0gD","LocationType":"point","DisplayPosition":{"Latitude":51.11941,"Longitude":9.11443},"MapView":{"TopLeft":{"Latitude":51.1205342,"Longitude":9.1126391},"BottomRight":{"Latitude":51.1182858,"Longitude":9.1162209}},"Address":{"Label":"Bornebachstraße 48, 34537 Bad Wildungen, Deutschland","Country":"DEU","State":"Hessen","County":"Waldeck-Frankenberg","City":"Bad Wildungen","District":"Bad Wildungen","Street":"Bornebachstraße","HouseNumber":"48","PostalCode":"34537","AdditionalData":[{"value":"Deutschland","key":"CountryName"},{"value":"Hessen","key":"StateName"},{"value":"Waldeck-Frankenberg","key":"CountyName"}]},"MapReference":{"ReferenceId":"61555234","Spot":0.51,"SideOfStreet":"left","CountryId":"20147700","StateId":"20160993","CountyId":"20163687","CityId":"20163703","DistrictId":"20163711","AddressId":"186785703","RoadLinkId":"34633663"}}}]}]}}