{"Response":{"MetaInfo":{"Timestamp":"2020-03-28T11:19:00.609+0000","NextPageInformation":"2"},"View":[{"_type":"SearchResultsViewType","ViewId":0,"Result":[{"Relevance":1.0,"Distance":0.0,"Direction":0.0,"MatchLevel":"district","MatchQuality":{"Country":1.0,"State":1.0,"County":1.0,"City":1.0,"District":1.0,"PostalCode":1.0},"Location":{"LocationId":"NT_g5g3lZOpFJH.v9p0ipjoLB","LocationType":"point","DisplayPosition":{"Latitude":51.1109403,"Longitude":-2.4571954},"MapView":{"TopLeft":{"Latitude":51.12191,"Longitude":-2.46512},"BottomRight":{"Latitude":51.10399,"Longitude":-2.44495}},"Address":{"Label":"Bruton, England, United Kingdom","Country":"GBR","State":"England","County":"Somerset","City":"Bruton","District":"Bruton","PostalCode":"BA10 0","AdditionalData":[{"value":"United Kingdom","key":"CountryName"},{"value":"England","key":"StateName"},{"value":"Somerset","key":"CountyName"}]},"MapReference":{"ReferenceId":"767384323","SideOfStreet":"neither","StateId":"20248595","CountyId":"20357053","CityId":"20357134","DistrictId":"20357135"}}},{"Relevance":1.0,"Distance":9.3,"MatchLevel":"houseNumber","MatchQuality":{"Country":1.0,"State":1.0,"County":1.0,"City":1.0,"District":1.0,"Street":[1.0],"HouseNumber":1.0,"PostalCode":1.0},"MatchType":"interpolated","Location":{"LocationId":"NT_6Xbbp9cvNa1JFVV.2GcUZB_l_565663710_R_3QD","LocationType":"point","DisplayPosition":{"Latitude":51.1109497,"Longitude":-2.4573277},"MapView":{"TopLeft":{"Latitude":51.1120739,"Longitude":-2.4591183},"BottomRight":{"Latitude":51.1098256,"Longitude":-2.4555371}},"Address":{"Label":"74 High Street, Bruton, BA10 0AJ, United Kingdom","Country":"GBR","State":"England","County":"Somerset","City":"Bruton","District":"Bruton","Street":"High Street","HouseNumber":"74","PostalCode":"BA10 0AJ","AdditionalData":[{"value":"United Kingdom","key":"CountryName"},{"value":"England","key":"StateName"},{"value":"Somerset","key":"CountyName"}]},"MapReference":{"ReferenceId":"565663710","Spot":0.38,"SideOfStreet":"right","StateId":"20248595","CountyId":"20357053","CityId":"20357134","DistrictId":"20357135"}}},{"Relevance":1.0,"Distance":27.0,"MatchLevel":"postalCode","MatchQuality":{"PostalCode":1.0},"MatchType":"interpolated","Location":{"LocationId":"NT_6Xbbp9cvNa1JFVV.2GcUZB_l_565663710_R_3QD","LocationType":"point","DisplayPosition":{"Latitude":51.11088,"Longitude":-2.45757},"MapView":{"TopLeft":{"Latitude":51.1198732,"Longitude":-2.4718946},"BottomRight":{"Latitude":51.1018868,"Longitude":-2.4432454}},"Address":{"Label":"BA10 0AL, Bruton, England, United Kingdom","Country":"GBR","State":"England","County":"Somerset","City":"Bruton","PostalCode":"BA10 0AL","AdditionalData":[{"value":"United Kingdom","key":"CountryName"},{"value":"England","key":"StateName"},{"value":"Somerset","key":"CountyName"}]},"MapReference":{"ReferenceId":"565663710","Spot":0.38,"SideOfStreet":"neither","StateId":"20248595","CountyId":"20357053","CityId":"20357134"}}},{"Relevance":1.0,"Distance":43.7,"MatchLevel":"houseNumber","MatchQuality":{"Country":1.0,"State":1.0,"County":1.0,"City":1.0,"District":1.0,"Street":[1.0],"HouseNumber":1.0,"PostalCode":1.0},"MatchType":"interpolated","Location":{"LocationId":"NT_RDvxS81jEjs0DSWpGTwiJC_l_26703714_L_xA","LocationType":"point","DisplayPosition":{"Latitude":51.11138,"Longitude":-2.45673},"MapView":{"TopLeft":{"Latitude":51.1125042,"Longitude":-2.4585206},"BottomRight":{"Latitude":51.1102559,"Longitude":-2.4549394}},"Address":{"Label":"1 St Catherines Hill, Bruton, BA10 0DG, United Kingdom","Country":"GBR","State":"England","County":"Somerset","City":"Bruton","District":"Bruton","Street":"St Catherines Hill","HouseNumber":"1","PostalCode":"BA10 0DG","AdditionalData":[{"value":"United Kingdom","key":"CountryName"},{"value":"England","key":"StateName"},{"value":"Somerset","key":"CountyName"}]},"MapReference":{"ReferenceId":"26703714","Spot":0.32,"SideOfStreet":"left","StateId":"20248595","CountyId":"20357053","CityId":"20357134","DistrictId":"20357135"}}},{"Relevance":1.0,"Distance":48.0,"MatchLevel":"postalCode","MatchQuality":{"PostalCode":1.0},"Location":{"LocationId":"NT_bHKlMM1-ykHq-eryITo3BC_l_565663712_R","LocationType":"point","DisplayPosition":{"Latitude":51.11064,"Longitude":-2.45769},"MapView":{"TopLeft":{"Latitude":51.1196332,"Longitude":-2.4720145},"BottomRight":{"Latitude":51.1016468,"Longitude":-2.4433655}},"Address":{"Label":"BA10 0AJ, Bruton, England, United Kingdom","Country":"GBR","State":"England","County":"Somerset","City":"Bruton","PostalCode":"BA10 0AJ","AdditionalData":[{"value":"United Kingdom","key":"CountryName"},{"value":"England","key":"StateName"},{"value":"Somerset","key":"CountyName"}]},"MapReference":{"ReferenceId":"565663712","Spot":0.22,"SideOfStreet":"neither","StateId":"20248595","CountyId":"20357053","CityId":"20357134"}}},{"Relevance":1.0,"Distance":48.3,"MatchLevel":"street","MatchQuality":{"Country":1.0,"State":1.0,"County":1.0,"City":1.0,"District":1.0,"Street":[1.0],"PostalCode":1.0},"Location":{"LocationId":"NT_bHKlMM1-ykHq-eryITo3BC_l_565663712_R","LocationType":"point","DisplayPosition":{"Latitude":51.1105456,"Longitude":-2.4574856},"MapView":{"TopLeft":{"Latitude":51.11074,"Longitude":-2.45775},"BottomRight":{"Latitude":51.11049,"Longitude":-2.45741}},"Address":{"Label":"The Square, Bruton, BA10 0, United Kingdom","Country":"GBR","State":"England","County":"Somerset","City":"Bruton","District":"Bruton","Street":"The Square","PostalCode":"BA10 0","AdditionalData":[{"value":"United Kingdom","key":"CountryName"},{"value":"England","key":"StateName"},{"value":"Somerset","key":"CountyName"}]},"MapReference":{"ReferenceId":"565663712","Spot":0.22,"SideOfStreet":"right","StateId":"20248595","CountyId":"20357053","CityId":"20357134","DistrictId":"20357135"}}},{"Relevance":1.0,"Distance":55.8,"MatchLevel":"street","MatchQuality":{"Country":1.0,"State":1.0,"County":1.0,"City":1.0,"District":1.0,"Street":[1.0],"PostalCode":1.0},"Location":{"LocationId":"NT_qlppImfzcKhjQBgCl7zSKC_l_577341496_R","LocationType":"point","DisplayPosition":{"Latitude":51.1114258,"Longitude":-2.4573959},"MapView":{"TopLeft":{"Latitude":51.11161,"Longitude":-2.45741},"BottomRight":{"Latitude":51.11142,"Longitude":-2.45695}},"Address":{"Label":"Cuckold Road, Bruton, BA10 0, United Kingdom","Country":"GBR","State":"England","County":"Somerset","City":"Bruton","District":"Bruton","Street":"Cuckold Road","PostalCode":"BA10 0","AdditionalData":[{"value":"United Kingdom","key":"CountryName"},{"value":"England","key":"StateName"},{"value":"Somerset","key":"CountyName"}]},"MapReference":{"ReferenceId":"577341496","Spot":0.03,"SideOfStreet":"right","StateId":"20248595","CountyId":"20357053","CityId":"20357134","DistrictId":"20357135"}}},{"Relevance":1.0,"Distance":62.9,"MatchLevel":"houseNumber","MatchQuality":{"Country":1.0,"State":1.0,"County":1.0,"City":1.0,"District":1.0,"Street":[1.0],"HouseNumber":1.0,"PostalCode":1.0},"MatchType":"interpolated","Location":{"LocationId":"NT_8oYeeSxg6G9vsmE3UkbBDC_l_577341500_R_1YD","LocationType":"point","DisplayPosition":{"Latitude":51.11133,"Longitude":-2.4564399},"MapView":{"TopLeft":{"Latitude":51.1124542,"Longitude":-2.4582305},"BottomRight":{"Latitude":51.1102059,"Longitude":-2.4546493}},"Address":{"Label":"56 High Street, Bruton, BA10 0, United Kingdom","Country":"GBR","State":"England","County":"Somerset","City":"Bruton","District":"Bruton","Street":"High Street","HouseNumber":"56","PostalCode":"BA10 0","AdditionalData":[{"value":"United Kingdom","key":"CountryName"},{"value":"England","key":"StateName"},{"value":"Somerset","key":"CountyName"}]},"MapReference":{"ReferenceId":"577341500","Spot":0.17,"SideOfStreet":"right","StateId":"20248595","CountyId":"20357053","CityId":"20357134","DistrictId":"20357135"}}},{"Relevance":1.0,"Distance":63.2,"MatchLevel":"postalCode","MatchQuality":{"PostalCode":1.0},"MatchType":"interpolated","Location":{"LocationId":"NT_-M47wfGonoGsHSYCepWL6B_l_868004372_R_xkD","LocationType":"point","DisplayPosition":{"Latitude":51.1115,"Longitude":-2.45735},"MapView":{"TopLeft":{"Latitude":51.1204932,"Longitude":-2.4716748},"BottomRight":{"Latitude":51.1025068,"Longitude":-2.4430252}},"Address":{"Label":"BA10 0DN, Bruton, England, United Kingdom","Country":"GBR","State":"England","County":"Somerset","City":"Bruton","PostalCode":"BA10 0DN","AdditionalData":[{"value":"United Kingdom","key":"CountryName"},{"value":"England","key":"StateName"},{"value":"Somerset","key":"CountyName"}]},"MapReference":{"ReferenceId":"868004372","Spot":0.25,"SideOfStreet":"neither","StateId":"20248595","CountyId":"20357053","CityId":"20357134"}}},{"Relevance":1.0,"Distance":67.3,"MatchLevel":"houseNumber","MatchQuality":{"Country":1.0,"State":1.0,"County":1.0,"City":1.0,"District":1.0,"Street":[1.0],"HouseNumber":1.0,"PostalCode":1.0},"MatchType":"interpolated","Location":{"LocationId":"NT_6Xbbp9cvNa1JFVV.2GcUZB_l_565663711_R_3gD","LocationType":"point","DisplayPosition":{"Latitude":51.1106211,"Longitude":-2.4580145},"MapView":{"TopLeft":{"Latitude":51.1117452,"Longitude":-2.4598051},"BottomRight":{"Latitude":51.1094969,"Longitude":-2.4562239}},"Address":{"Label":"78 High Street, Bruton, BA10 0AJ, United Kingdom","Country":"GBR","State":"England","County":"Somerset","City":"Bruton","District":"Bruton","Street":"High Street","HouseNumber":"78","PostalCode":"BA10 0AJ","AdditionalData":[{"value":"United Kingdom","key":"CountryName"},{"value":"England","key":"StateName"},{"value":"Somerset","key":"CountyName"}]},"MapReference":{"ReferenceId":"565663711","Spot":0.58,"SideOfStreet":"right","StateId":"20248595","CountyId":"20357053","CityId":"20357134","DistrictId":"20357135"}}}]}]}}