{"Response":{"MetaInfo":{"Timestamp":"2020-03-28T10:37:15.477+0000","NextPageInformation":"2"},"View":[{"_type":"SearchResultsViewType","ViewId":0,"Result":[{"Relevance":1.0,"Distance":-31.4,"MatchLevel":"landmark","MatchQuality":{"Country":1.0,"State":1.0,"County":1.0,"City":1.0,"PostalCode":1.0,"Name":1.0},"Location":{"LocationId":"NT_80svHNVzUqQMnqeHzAvknA","LocationType":"golfCourse","Name":"Etchinghill Golf Course","DisplayPosition":{"Latitude":51.11931,"Longitude":1.0948},"MapView":{"TopLeft":{"Latitude":51.12474,"Longitude":1.083},"BottomRight":{"Latitude":51.11388,"Longitude":1.1063}},"Address":{"Label":"Folkestone, CT19 5, United Kingdom","Country":"GBR","State":"England","County":"Kent","City":"Folkestone","PostalCode":"CT19 5","AdditionalData":[{"value":"United Kingdom","key":"CountryName"},{"value":"England","key":"StateName"},{"value":"Kent","key":"CountyName"}]},"MapReference":{"StateId":"20248595","CountyId":"20336836","CityId":"20337118","PlaceId":"546509695"}}},{"Relevance":1.0,"Distance":0.0,"Direction":0.0,"MatchLevel":"postalCode","MatchQuality":{"Country":1.0,"State":1.0,"County":1.0,"PostalCode":1.0},"Location":{"LocationId":"NT_plnwONjB47lMaTW9uE0dVB","LocationType":"point","DisplayPosition":{"Latitude":51.1242329,"Longitude":1.0912568},"MapView":{"TopLeft":{"Latitude":51.50313,"Longitude":0.03353},"BottomRight":{"Latitude":50.9105,"Longitude":1.44975}},"Address":{"Label":"CT18 8, England, United Kingdom","Country":"GBR","State":"England","County":"Kent","PostalCode":"CT18 8","AdditionalData":[{"value":"United Kingdom","key":"CountryName"},{"value":"England","key":"StateName"},{"value":"Kent","key":"CountyName"}]},"MapReference":{"ReferenceId":"25444441","SideOfStreet":"neither","StateId":"20248595","CountyId":"20336836"}}},{"Relevance":1.0,"Distance":24.2,"MatchLevel":"houseNumber","MatchQuality":{"Country":1.0,"State":1.0,"County":1.0,"City":1.0,"District":1.0,"Street":[1.0],"HouseNumber":1.0,"PostalCode":1.0},"MatchType":"interpolated","Location":{"LocationId":"NT_FRTt6XDFudJ.T5bcNyOuOC_l_25661460_R_xA","LocationType":"point","DisplayPosition":{"Latitude":51.12457,"Longitude":1.0913602},"MapView":{"TopLeft":{"Latitude":51.1256942,"Longitude":1.0895691},"BottomRight":{"Latitude":51.1234459,"Longitude":1.0931513}},"Address":{"Label":"1 Greenbanks, Folkestone, CT18 8, United Kingdom","Country":"GBR","State":"England","County":"Kent","City":"Folkestone","District":"Lyminge","Street":"Greenbanks","HouseNumber":"1","PostalCode":"CT18 8","AdditionalData":[{"value":"United Kingdom","key":"CountryName"},{"value":"England","key":"StateName"},{"value":"Kent","key":"CountyName"}]},"MapReference":{"ReferenceId":"25661460","Spot":0.09,"SideOfStreet":"right","StateId":"20248595","CountyId":"20336836","CityId":"20337118","DistrictId":"20337129"}}},{"Relevance":1.0,"Distance":25.8,"MatchLevel":"postalCode","MatchQuality":{"PostalCode":1.0},"Location":{"LocationId":"NT_pxPxXmZ6dj8ufCsK2Bql.B_l_25661479_L","LocationType":"point","DisplayPosition":{"Latitude":51.12446,"Longitude":1.09133},"MapView":{"TopLeft":{"Latitude":51.1334532,"Longitude":1.0770012},"BottomRight":{"Latitude":51.1154668,"Longitude":1.1056588}},"Address":{"Label":"CT18 8NS, Folkestone, England, United Kingdom","Country":"GBR","State":"England","County":"Kent","City":"Folkestone","PostalCode":"CT18 8NS","AdditionalData":[{"value":"United Kingdom","key":"CountryName"},{"value":"England","key":"StateName"},{"value":"Kent","key":"CountyName"}]},"MapReference":{"ReferenceId":"25661479","Spot":0.93,"SideOfStreet":"neither","StateId":"20248595","CountyId":"20336836","CityId":"20337118"}}},{"Relevance":1.0,"Distance":31.5,"MatchLevel":"street","MatchQuality":{"Country":1.0,"State":1.0,"County":1.0,"City":1.0,"District":1.0,"PostalCode":1.0},"Location":{"LocationId":"NT_pxPxXmZ6dj8ufCsK2Bql.B_l_25661479_L","LocationType":"point","DisplayPosition":{"Latitude":51.1245149,"Longitude":1.0912965},"MapView":{"TopLeft":{"Latitude":51.12456,"Longitude":1.09115},"BottomRight":{"Latitude":51.12439,"Longitude":1.09337}},"Address":{"Label":"Folkestone, CT18 8, United Kingdom","Country":"GBR","State":"England","County":"Kent","City":"Folkestone","District":"Lyminge","PostalCode":"CT18 8","AdditionalData":[{"value":"United Kingdom","key":"CountryName"},{"value":"England","key":"StateName"},{"value":"Kent","key":"CountyName"}]},"MapReference":{"ReferenceId":"25661479","Spot":0.93,"SideOfStreet":"left","StateId":"20248595","CountyId":"20336836","CityId":"20337118","DistrictId":"20337129"}}},{"Relevance":1.0,"Distance":36.7,"MatchLevel":"street","MatchQuality":{"Country":1.0,"State":1.0,"County":1.0,"City":1.0,"District":1.0,"PostalCode":1.0},"Location":{"LocationId":"NT_pxPxXmZ6dj8ufCsK2Bql.B_l_25661602_R","LocationType":"point","DisplayPosition":{"Latitude":51.124292,"Longitude":1.0907397},"MapView":{"TopLeft":{"Latitude":51.12472,"Longitude":1.09063},"BottomRight":{"Latitude":51.12363,"Longitude":1.09076}},"Address":{"Label":"Folkestone, CT18 8, United Kingdom","Country":"GBR","State":"England","County":"Kent","City":"Folkestone","District":"Lyminge","PostalCode":"CT18 8","AdditionalData":[{"value":"United Kingdom","key":"CountryName"},{"value":"England","key":"StateName"},{"value":"Kent","key":"CountyName"}]},"MapReference":{"ReferenceId":"25661602","Spot":0.61,"SideOfStreet":"right","StateId":"20248595","CountyId":"20336836","CityId":"20337118","DistrictId":"20337129"}}},{"Relevance":1.0,"Distance":37.1,"MatchLevel":"street","MatchQuality":{"Country":1.0,"State":1.0,"County":1.0,"City":1.0,"District":1.0,"PostalCode":1.0},"Location":{"LocationId":"NT_pxPxXmZ6dj8ufCsK2Bql.B_l_25661461_L","LocationType":"point","DisplayPosition":{"Latitude":51.12456,"Longitude":1.09115},"MapView":{"TopLeft":{"Latitude":51.12472,"Longitude":1.09075},"BottomRight":{"Latitude":51.12456,"Longitude":1.09115}},"Address":{"Label":"Folkestone, CT18 8, United Kingdom","Country":"GBR","State":"England","County":"Kent","City":"Folkestone","District":"Lyminge","PostalCode":"CT18 8","AdditionalData":[{"value":"United Kingdom","key":"CountryName"},{"value":"England","key":"StateName"},{"value":"Kent","key":"CountyName"}]},"MapReference":{"ReferenceId":"25661461","Spot":0.0,"SideOfStreet":"left","StateId":"20248595","CountyId":"20336836","CityId":"20337118","DistrictId":"20337129"}}},{"Relevance":1.0,"Distance":64.7,"MatchLevel":"street","MatchQuality":{"Country":1.0,"State":1.0,"County":1.0,"City":1.0,"District":1.0,"Street":[1.0],"PostalCode":1.0},"Location":{"LocationId":"NT_g05jp51jM.qPOc2tWSeZxB_l_25661432_R","LocationType":"point","DisplayPosition":{"Latitude":51.12472,"Longitude":1.09075},"MapView":{"TopLeft":{"Latitude":51.1249,"Longitude":1.09068},"BottomRight":{"Latitude":51.12472,"Longitude":1.09075}},"Address":{"Label":"Station Road, Folkestone, CT18 8, United Kingdom","Country":"GBR","State":"England","County":"Kent","City":"Folkestone","District":"Lyminge","Street":"Station Road","PostalCode":"CT18 8","AdditionalData":[{"value":"United Kingdom","key":"CountryName"},{"value":"England","key":"StateName"},{"value":"Kent","key":"CountyName"}]},"MapReference":{"ReferenceId":"25661432","Spot":0.0,"SideOfStreet":"right","StateId":"20248595","CountyId":"20336836","CityId":"20337118","DistrictId":"20337129"}}},{"Relevance":1.0,"Distance":80.0,"MatchLevel":"street","MatchQuality":{"Country":1.0,"State":1.0,"County":1.0,"City":1.0,"District":1.0,"PostalCode":1.0},"Location":{"LocationId":"NT_pxPxXmZ6dj8ufCsK2Bql.B_l_25661862_R","LocationType":"point","DisplayPosition":{"Latitude":51.12363,"Longitude":1.09063},"MapView":{"TopLeft":{"Latitude":51.12363,"Longitude":1.08963},"BottomRight":{"Latitude":51.12208,"Longitude":1.09063}},"Address":{"Label":"Folkestone, CT18 8, United Kingdom","Country":"GBR","State":"England","County":"Kent","City":"Folkestone","District":"Lyminge","PostalCode":"CT18 8","AdditionalData":[{"value":"United Kingdom","key":"CountryName"},{"value":"England","key":"StateName"},{"value":"Kent","key":"CountyName"}]},"MapReference":{"ReferenceId":"25661862","Spot":1.0,"SideOfStreet":"right","StateId":"20248595","CountyId":"20336836","CityId":"20337118","DistrictId":"20337129"}}},{"Relevance":1.0,"Distance":87.0,"MatchLevel":"street","MatchQuality":{"Country":1.0,"State":1.0,"County":1.0,"City":1.0,"District":1.0,"PostalCode":1.0},"Location":{"LocationId":"NT_pxPxXmZ6dj8ufCsK2Bql.B_l_25661409_R","LocationType":"point","DisplayPosition":{"Latitude":51.1250025,"Longitude":1.091034},"MapView":{"TopLeft":{"Latitude":51.1253,"Longitude":1.09068},"BottomRight":{"Latitude":51.1249,"Longitude":1.09109}},"Address":{"Label":"Folkestone, CT18 8, United Kingdom","Country":"GBR","State":"England","County":"Kent","City":"Folkestone","District":"Lyminge","PostalCode":"CT18 8","AdditionalData":[{"value":"United Kingdom","key":"CountryName"},{"value":"England","key":"StateName"},{"value":"Kent","key":"CountyName"}]},"MapReference":{"ReferenceId":"25661409","Spot":0.52,"SideOfStreet":"right","StateId":"20248595","CountyId":"20336836","CityId":"20337118","DistrictId":"20337129"}}}]}]}}