{"Response":{"MetaInfo":{"Timestamp":"2020-03-28T11:32:11.893+0000","NextPageInformation":"2"},"View":[{"_type":"SearchResultsViewType","ViewId":0,"Result":[{"Relevance":1.0,"Distance":0.0,"Direction":0.0,"MatchLevel":"district","MatchQuality":{"Country":1.0,"State":1.0,"County":1.0,"City":1.0,"District":1.0,"Subdistrict":1.0,"PostalCode":1.0},"Location":{"LocationId":"NT_fkiXp729cJM5.NMKlAbqzA","LocationType":"point","DisplayPosition":{"Latitude":51.1582036,"Longitude":17.0292403},"MapView":{"TopLeft":{"Latitude":51.16545,"Longitude":17.0123},"BottomRight":{"Latitude":51.1438,"Longitude":17.06281}},"Address":{"Label":"Poświętne, Wrocław, Woj. Dolnośląskie, Polska","Country":"POL","State":"Woj. Dolnośląskie","County":"Wrocław","City":"Wrocław","District":"Wrocław","Subdistrict":"Poświętne","PostalCode":"51-126","AdditionalData":[{"value":"Polska","key":"CountryName"},{"value":"Woj. Dolnośląskie","key":"StateName"},{"value":"Wrocław","key":"CountyName"}]},"MapReference":{"ReferenceId":"589998413","SideOfStreet":"neither","CountryId":"20624059","StateId":"20625002","CountyId":"20625392","CityId":"20625393","DistrictId":"20646839"}}},{"Relevance":1.0,"Distance":30.7,"MatchLevel":"houseNumber","MatchQuality":{"Country":1.0,"State":1.0,"County":1.0,"City":1.0,"District":1.0,"Subdistrict":1.0,"Street":[1.0],"HouseNumber":1.0,"PostalCode":1.0},"MatchType":"interpolated","Location":{"LocationId":"NT_Set9Ft7Gvn6o076BVLkNeA_yQTN","LocationType":"point","DisplayPosition":{"Latitude":51.15783,"Longitude":17.02855},"MapView":{"TopLeft":{"Latitude":51.1589542,"Longitude":17.0267576},"BottomRight":{"Latitude":51.1567058,"Longitude":17.0303424}},"Address":{"Label":"ulica Żmigrodzka 245, 51-129 Wrocław, Polska","Country":"POL","State":"Woj. Dolnośląskie","County":"Wrocław","City":"Wrocław","District":"Wrocław","Subdistrict":"Poświętne","Street":"ulica Żmigrodzka","HouseNumber":"245","PostalCode":"51-129","AdditionalData":[{"value":"Polska","key":"CountryName"},{"value":"Woj. Dolnośląskie","key":"StateName"},{"value":"Wrocław","key":"CountyName"}]},"MapReference":{"ReferenceId":"1180553288","Spot":0.68,"SideOfStreet":"right","CountryId":"20624059","StateId":"20625002","CountyId":"20625392","CityId":"20625393","DistrictId":"20646839","AddressId":"419058394","RoadLinkId":"488486430"}}},{"Relevance":1.0,"Distance":36.3,"MatchLevel":"street","MatchQuality":{"Country":1.0,"State":1.0,"County":1.0,"City":1.0,"District":1.0,"Subdistrict":1.0,"PostalCode":1.0},"Location":{"LocationId":"NT_I6V.HoGRmWO0wWqWaeiSmB_l_1185938453_L","LocationType":"point","DisplayPosition":{"Latitude":51.1578802,"Longitude":17.029311},"MapView":{"TopLeft":{"Latitude":51.15838,"Longitude":17.02931},"BottomRight":{"Latitude":51.15769,"Longitude":17.03207}},"Address":{"Label":"51-134 Wrocław, Polska","Country":"POL","State":"Woj. Dolnośląskie","County":"Wrocław","City":"Wrocław","District":"Wrocław","Subdistrict":"Poświętne","PostalCode":"51-134","AdditionalData":[{"value":"Polska","key":"CountryName"},{"value":"Woj. Dolnośląskie","key":"StateName"},{"value":"Wrocław","key":"CountyName"}]},"MapReference":{"ReferenceId":"1185938453","Spot":0.0,"SideOfStreet":"left","CountryId":"20624059","StateId":"20625002","CountyId":"20625392","CityId":"20625393","DistrictId":"20646839"}}},{"Relevance":1.0,"Distance":58.5,"MatchLevel":"street","MatchQuality":{"Country":1.0,"State":1.0,"County":1.0,"City":1.0,"District":1.0,"Subdistrict":1.0,"Street":[1.0],"PostalCode":1.0},"Location":{"LocationId":"NT_Set9Ft7Gvn6o076BVLkNeA_l_1180553289_R","LocationType":"point","DisplayPosition":{"Latitude":51.15813,"Longitude":17.02841},"MapView":{"TopLeft":{"Latitude":51.1583,"Longitude":17.02831},"BottomRight":{"Latitude":51.15813,"Longitude":17.02841}},"Address":{"Label":"ulica Żmigrodzka, 51-129 Wrocław, Polska","Country":"POL","State":"Woj. Dolnośląskie","County":"Wrocław","City":"Wrocław","District":"Wrocław","Subdistrict":"Poświętne","Street":"ulica Żmigrodzka","PostalCode":"51-129","AdditionalData":[{"value":"Polska","key":"CountryName"},{"value":"Woj. Dolnośląskie","key":"StateName"},{"value":"Wrocław","key":"CountyName"}]},"MapReference":{"ReferenceId":"1180553289","Spot":0.0,"SideOfStreet":"right","CountryId":"20624059","StateId":"20625002","CountyId":"20625392","CityId":"20625393","DistrictId":"20646839"}}},{"Relevance":1.0,"Distance":58.9,"MatchLevel":"houseNumber","MatchQuality":{"Country":1.0,"State":1.0,"County":1.0,"City":1.0,"District":1.0,"Subdistrict":1.0,"Street":[1.0],"HouseNumber":1.0,"PostalCode":1.0},"MatchType":"interpolated","Location":{"LocationId":"NT_VsZmIxLuIDjBlcreawZAuB_xA","LocationType":"point","DisplayPosition":{"Latitude":51.15912,"Longitude":17.02975},"MapView":{"TopLeft":{"Latitude":51.1602442,"Longitude":17.0279576},"BottomRight":{"Latitude":51.1579958,"Longitude":17.0315424}},"Address":{"Label":"ulica Lekarska 1, 51-134 Wrocław, Polska","Country":"POL","State":"Woj. Dolnośląskie","County":"Wrocław","City":"Wrocław","District":"Wrocław","Subdistrict":"Poświętne","Street":"ulica Lekarska","HouseNumber":"1","PostalCode":"51-134","AdditionalData":[{"value":"Polska","key":"CountryName"},{"value":"Woj. Dolnośląskie","key":"StateName"},{"value":"Wrocław","key":"CountyName"}]},"MapReference":{"ReferenceId":"867677701","Spot":0.42,"SideOfStreet":"left","CountryId":"20624059","StateId":"20625002","CountyId":"20625392","CityId":"20625393","DistrictId":"20646839","AddressId":"672234466","RoadLinkId":"240308374"}}},{"Relevance":1.0,"Distance":65.8,"MatchLevel":"street","MatchQuality":{"Country":1.0,"State":1.0,"County":1.0,"City":1.0,"District":1.0,"Subdistrict":1.0,"Street":[1.0],"PostalCode":1.0},"Location":{"LocationId":"NT_Set9Ft7Gvn6o076BVLkNeA_l_847912303_R","LocationType":"point","DisplayPosition":{"Latitude":51.1583,"Longitude":17.02831},"MapView":{"TopLeft":{"Latitude":51.15869,"Longitude":17.02817},"BottomRight":{"Latitude":51.1583,"Longitude":17.02831}},"Address":{"Label":"ulica Żmigrodzka, 51-129 Wrocław, Polska","Country":"POL","State":"Woj. Dolnośląskie","County":"Wrocław","City":"Wrocław","District":"Wrocław","Subdistrict":"Poświętne","Street":"ulica Żmigrodzka","PostalCode":"51-129","AdditionalData":[{"value":"Polska","key":"CountryName"},{"value":"Woj. Dolnośląskie","key":"StateName"},{"value":"Wrocław","key":"CountyName"}]},"MapReference":{"ReferenceId":"847912303","Spot":0.0,"SideOfStreet":"right","CountryId":"20624059","StateId":"20625002","CountyId":"20625392","CityId":"20625393","DistrictId":"20646839"}}},{"Relevance":1.0,"Distance":65.8,"MatchLevel":"street","MatchQuality":{"Country":1.0,"State":1.0,"County":1.0,"City":1.0,"District":1.0,"Subdistrict":1.0,"PostalCode":1.0},"Location":{"LocationId":"NT_5rZyA9Zh4sYebFKnie46BC_l_847897780_R","LocationType":"point","DisplayPosition":{"Latitude":51.1583,"Longitude":17.02831},"MapView":{"TopLeft":{"Latitude":51.15833,"Longitude":17.02786},"BottomRight":{"Latitude":51.1583,"Longitude":17.02831}},"Address":{"Label":"51-129 Wrocław, Polska","Country":"POL","State":"Woj. Dolnośląskie","County":"Wrocław","City":"Wrocław","District":"Wrocław","Subdistrict":"Poświętne","PostalCode":"51-129","AdditionalData":[{"value":"Polska","key":"CountryName"},{"value":"Woj. Dolnośląskie","key":"StateName"},{"value":"Wrocław","key":"CountyName"}]},"MapReference":{"ReferenceId":"847897780","Spot":0.0,"SideOfStreet":"right","CountryId":"20624059","StateId":"20625002","CountyId":"20625392","CityId":"20625393","DistrictId":"20646839"}}},{"Relevance":1.0,"Distance":91.3,"MatchLevel":"street","MatchQuality":{"Country":1.0,"State":1.0,"County":1.0,"City":1.0,"District":1.0,"Subdistrict":1.0,"Street":[1.0],"PostalCode":1.0},"Location":{"LocationId":"NT_Set9Ft7Gvn6o076BVLkNeA_l_1180733157_R","LocationType":"point","DisplayPosition":{"Latitude":51.15794,"Longitude":17.028},"MapView":{"TopLeft":{"Latitude":51.15831,"Longitude":17.02786},"BottomRight":{"Latitude":51.15794,"Longitude":17.028}},"Address":{"Label":"ulica Żmigrodzka, 51-129 Wrocław, Polska","Country":"POL","State":"Woj. Dolnośląskie","County":"Wrocław","City":"Wrocław","District":"Wrocław","Subdistrict":"Poświętne","Street":"ulica Żmigrodzka","PostalCode":"51-129","AdditionalData":[{"value":"Polska","key":"CountryName"},{"value":"Woj. Dolnośląskie","key":"StateName"},{"value":"Wrocław","key":"CountyName"}]},"MapReference":{"ReferenceId":"1180733157","Spot":0.0,"SideOfStreet":"right","CountryId":"20624059","StateId":"20625002","CountyId":"20625392","CityId":"20625393","DistrictId":"20646839"}}},{"Relevance":1.0,"Distance":92.2,"MatchLevel":"street","MatchQuality":{"Country":1.0,"State":1.0,"County":1.0,"City":1.0,"District":1.0,"Subdistrict":1.0,"Street":[1.0],"PostalCode":1.0},"Location":{"LocationId":"NT_Set9Ft7Gvn6o076BVLkNeA_l_847912304_R","LocationType":"point","DisplayPosition":{"Latitude":51.15869,"Longitude":17.02817},"MapView":{"TopLeft":{"Latitude":51.15931,"Longitude":17.02794},"BottomRight":{"Latitude":51.15869,"Longitude":17.02817}},"Address":{"Label":"ulica Żmigrodzka, 51-129 Wrocław, Polska","Country":"POL","State":"Woj. Dolnośląskie","County":"Wrocław","City":"Wrocław","District":"Wrocław","Subdistrict":"Poświętne","Street":"ulica Żmigrodzka","PostalCode":"51-129","AdditionalData":[{"value":"Polska","key":"CountryName"},{"value":"Woj. Dolnośląskie","key":"StateName"},{"value":"Wrocław","key":"CountyName"}]},"MapReference":{"ReferenceId":"847912304","Spot":0.0,"SideOfStreet":"right","CountryId":"20624059","StateId":"20625002","CountyId":"20625392","CityId":"20625393","DistrictId":"20646839"}}},{"Relevance":1.0,"Distance":98.3,"MatchLevel":"street","MatchQuality":{"Country":1.0,"State":1.0,"County":1.0,"City":1.0,"District":1.0,"Subdistrict":1.0,"Street":[1.0],"PostalCode":1.0},"Location":{"LocationId":"NT_Set9Ft7Gvn6o076BVLkNeA_l_1180733156_R","LocationType":"point","DisplayPosition":{"Latitude":51.1576528,"Longitude":17.0281386},"MapView":{"TopLeft":{"Latitude":51.15794,"Longitude":17.028},"BottomRight":{"Latitude":51.15721,"Longitude":17.02836}},"Address":{"Label":"ulica Żmigrodzka, 51-129 Wrocław, Polska","Country":"POL","State":"Woj. Dolnośląskie","County":"Wrocław","City":"Wrocław","District":"Wrocław","Subdistrict":"Poświętne","Street":"ulica Żmigrodzka","PostalCode":"51-129","AdditionalData":[{"value":"Polska","key":"CountryName"},{"value":"Woj. Dolnośląskie","key":"StateName"},{"value":"Wrocław","key":"CountyName"}]},"MapReference":{"ReferenceId":"1180733156","Spot":0.61,"SideOfStreet":"right","CountryId":"20624059","StateId":"20625002","CountyId":"20625392","CityId":"20625393","DistrictId":"20646839"}}}]}]}}