{"Response":{"MetaInfo":{"Timestamp":"2020-03-28T10:39:04.214+0000","NextPageInformation":"2"},"View":[{"_type":"SearchResultsViewType","ViewId":0,"Result":[{"Relevance":1.0,"Distance":0.0,"Direction":0.0,"MatchLevel":"district","MatchQuality":{"Country":1.0,"State":1.0,"County":1.0,"City":1.0,"District":1.0,"PostalCode":1.0},"Location":{"LocationId":"NT_.R4bS8RnCQZgplEG2moh9C","LocationType":"point","DisplayPosition":{"Latitude":51.1223033,"Longitude":-0.0095265},"MapView":{"TopLeft":{"Latitude":51.14757,"Longitude":-0.04424},"BottomRight":{"Latitude":51.11088,"Longitude":0.0144}},"Address":{"Label":"East Grinstead, England, United Kingdom","Country":"GBR","State":"England","County":"West Sussex","City":"East Grinstead","District":"East Grinstead","PostalCode":"RH19 1","AdditionalData":[{"value":"United Kingdom","key":"CountryName"},{"value":"England","key":"StateName"},{"value":"West Sussex","key":"CountyName"}]},"MapReference":{"ReferenceId":"25560789","SideOfStreet":"neither","StateId":"20248595","CountyId":"20338671","CityId":"20338800","DistrictId":"20338801"}}},{"Relevance":1.0,"Distance":24.6,"MatchLevel":"houseNumber","MatchQuality":{"Country":1.0,"State":1.0,"County":1.0,"City":1.0,"District":1.0,"Street":[1.0],"HouseNumber":1.0,"PostalCode":1.0},"MatchType":"interpolated","Location":{"LocationId":"NT_Bz6M-RNSAE5-LDCnrRc.OD_l_25561166_L_yED","LocationType":"point","DisplayPosition":{"Latitude":51.1221429,"Longitude":-0.0091567},"MapView":{"TopLeft":{"Latitude":51.123267,"Longitude":-0.0109477},"BottomRight":{"Latitude":51.1210187,"Longitude":-0.0073657}},"Address":{"Label":"21 Ship Street, East Grinstead, RH19 4ED, United Kingdom","Country":"GBR","State":"England","County":"West Sussex","City":"East Grinstead","District":"East Grinstead","Street":"Ship Street","HouseNumber":"21","PostalCode":"RH19 4ED","AdditionalData":[{"value":"United Kingdom","key":"CountryName"},{"value":"England","key":"StateName"},{"value":"West Sussex","key":"CountyName"}]},"MapReference":{"ReferenceId":"25561166","Spot":0.5,"SideOfStreet":"left","StateId":"20248595","CountyId":"20338671","CityId":"20338800","DistrictId":"20338801"}}},{"Relevance":1.0,"Distance":48.0,"MatchLevel":"postalCode","MatchQuality":{"PostalCode":1.0},"MatchType":"interpolated","Location":{"LocationId":"NT_Bz6M-RNSAE5-LDCnrRc.OD_l_25561166_L_yED","LocationType":"point","DisplayPosition":{"Latitude":51.12198,"Longitude":-0.00907},"MapView":{"TopLeft":{"Latitude":51.1309732,"Longitude":-0.0233981},"BottomRight":{"Latitude":51.1129868,"Longitude":0.0052581}},"Address":{"Label":"RH19 4ED, East Grinstead, England, United Kingdom","Country":"GBR","State":"England","County":"West Sussex","City":"East Grinstead","PostalCode":"RH19 4ED","AdditionalData":[{"value":"United Kingdom","key":"CountryName"},{"value":"England","key":"StateName"},{"value":"West Sussex","key":"CountyName"}]},"MapReference":{"ReferenceId":"25561166","Spot":0.5,"SideOfStreet":"neither","StateId":"20248595","CountyId":"20338671","CityId":"20338800"}}},{"Relevance":1.0,"Distance":65.5,"MatchLevel":"houseNumber","MatchQuality":{"Country":1.0,"State":1.0,"County":1.0,"City":1.0,"District":1.0,"Street":[1.0],"HouseNumber":1.0,"PostalCode":1.0},"MatchType":"interpolated","Location":{"LocationId":"NT_LPUDAtNeXlpcOjbUO0mhnD_l_25561243_L_xID","LocationType":"point","DisplayPosition":{"Latitude":51.1216293,"Longitude":-0.0098369},"MapView":{"TopLeft":{"Latitude":51.1227534,"Longitude":-0.0116279},"BottomRight":{"Latitude":51.1205051,"Longitude":-0.0080459}},"Address":{"Label":"12 Clays Close, East Grinstead, RH19 4DJ, United Kingdom","Country":"GBR","State":"England","County":"West Sussex","City":"East Grinstead","District":"East Grinstead","Street":"Clays Close","HouseNumber":"12","PostalCode":"RH19 4DJ","AdditionalData":[{"value":"United Kingdom","key":"CountryName"},{"value":"England","key":"StateName"},{"value":"West Sussex","key":"CountyName"}]},"MapReference":{"ReferenceId":"25561243","Spot":0.77,"SideOfStreet":"left","StateId":"20248595","CountyId":"20338671","CityId":"20338800","DistrictId":"20338801"}}},{"Relevance":1.0,"Distance":68.2,"MatchLevel":"street","MatchQuality":{"Country":1.0,"State":1.0,"County":1.0,"City":1.0,"District":1.0,"Street":[1.0],"PostalCode":1.0},"Location":{"LocationId":"NT_ESvD-i67h30TXn4DppG4CB_l_25560948_R","LocationType":"point","DisplayPosition":{"Latitude":51.1229,"Longitude":-0.0093},"MapView":{"TopLeft":{"Latitude":51.12295,"Longitude":-0.0093},"BottomRight":{"Latitude":51.1229,"Longitude":-0.00845}},"Address":{"Label":"Bell Hammer, East Grinstead, RH19 4, United Kingdom","Country":"GBR","State":"England","County":"West Sussex","City":"East Grinstead","District":"East Grinstead","Street":"Bell Hammer","PostalCode":"RH19 4","AdditionalData":[{"value":"United Kingdom","key":"CountryName"},{"value":"England","key":"StateName"},{"value":"West Sussex","key":"CountyName"}]},"MapReference":{"ReferenceId":"25560948","Spot":0.0,"SideOfStreet":"right","StateId":"20248595","CountyId":"20338671","CityId":"20338800","DistrictId":"20338801"}}},{"Relevance":1.0,"Distance":77.7,"MatchLevel":"houseNumber","MatchQuality":{"Country":1.0,"State":1.0,"County":1.0,"City":1.0,"District":1.0,"Street":[1.0],"HouseNumber":1.0,"PostalCode":1.0},"MatchType":"interpolated","Location":{"LocationId":"NT_Bz6M-RNSAE5-LDCnrRc.OD_l_25560949_L_xkD","LocationType":"point","DisplayPosition":{"Latitude":51.1230522,"Longitude":-0.0093456},"MapView":{"TopLeft":{"Latitude":51.1241764,"Longitude":-0.0111366},"BottomRight":{"Latitude":51.1219281,"Longitude":-0.0075545}},"Address":{"Label":"19 Ship Street, East Grinstead, RH19 4, United Kingdom","Country":"GBR","State":"England","County":"West Sussex","City":"East Grinstead","District":"East Grinstead","Street":"Ship Street","HouseNumber":"19","PostalCode":"RH19 4","AdditionalData":[{"value":"United Kingdom","key":"CountryName"},{"value":"England","key":"StateName"},{"value":"West Sussex","key":"CountyName"}]},"MapReference":{"ReferenceId":"25560949","Spot":0.49,"SideOfStreet":"left","StateId":"20248595","CountyId":"20338671","CityId":"20338800","DistrictId":"20338801"}}},{"Relevance":1.0,"Distance":79.7,"MatchLevel":"houseNumber","MatchQuality":{"Country":1.0,"State":1.0,"County":1.0,"City":1.0,"District":1.0,"Street":[1.0],"HouseNumber":1.0,"PostalCode":1.0},"MatchType":"interpolated","Location":{"LocationId":"NT_uCg4O494FB1dmpzmA2CeIB_l_25560952_L_xA","LocationType":"point","DisplayPosition":{"Latitude":51.12306,"Longitude":-0.0101202},"MapView":{"TopLeft":{"Latitude":51.1241841,"Longitude":-0.0119112},"BottomRight":{"Latitude":51.1219358,"Longitude":-0.0083291}},"Address":{"Label":"1 West View Gardens, East Grinstead, RH19 4EH, United Kingdom","Country":"GBR","State":"England","County":"West Sussex","City":"East Grinstead","District":"East Grinstead","Street":"West View Gardens","HouseNumber":"1","PostalCode":"RH19 4EH","AdditionalData":[{"value":"United Kingdom","key":"CountryName"},{"value":"England","key":"StateName"},{"value":"West Sussex","key":"CountyName"}]},"MapReference":{"ReferenceId":"25560952","Spot":0.11,"SideOfStreet":"left","StateId":"20248595","CountyId":"20338671","CityId":"20338800","DistrictId":"20338801"}}},{"Relevance":1.0,"Distance":93.8,"MatchLevel":"street","MatchQuality":{"Country":1.0,"State":1.0,"County":1.0,"City":1.0,"District":1.0,"Street":[1.0],"PostalCode":1.0},"Location":{"LocationId":"NT_uCg4O494FB1dmpzmA2CeIB_l_25560913_L","LocationType":"point","DisplayPosition":{"Latitude":51.12311,"Longitude":-0.00992},"MapView":{"TopLeft":{"Latitude":51.12361,"Longitude":-0.01021},"BottomRight":{"Latitude":51.12311,"Longitude":-0.00992}},"Address":{"Label":"West View Gardens, East Grinstead, RH19 4, United Kingdom","Country":"GBR","State":"England","County":"West Sussex","City":"East Grinstead","District":"East Grinstead","Street":"West View Gardens","PostalCode":"RH19 4","AdditionalData":[{"value":"United Kingdom","key":"CountryName"},{"value":"England","key":"StateName"},{"value":"West Sussex","key":"CountyName"}]},"MapReference":{"ReferenceId":"25560913","Spot":0.0,"SideOfStreet":"left","StateId":"20248595","CountyId":"20338671","CityId":"20338800","DistrictId":"20338801"}}},{"Relevance":1.0,"Distance":95.2,"MatchLevel":"street","MatchQuality":{"Country":1.0,"State":1.0,"County":1.0,"City":1.0,"District":1.0,"Street":[1.0],"PostalCode":1.0},"Location":{"LocationId":"NT_uCg4O494FB1dmpzmA2CeIB_l_25560912_R","LocationType":"point","DisplayPosition":{"Latitude":51.1231537,"Longitude":-0.009684},"MapView":{"TopLeft":{"Latitude":51.12321,"Longitude":-0.00992},"BottomRight":{"Latitude":51.12311,"Longitude":-0.00938}},"Address":{"Label":"West View Gardens, East Grinstead, RH19 4, United Kingdom","Country":"GBR","State":"England","County":"West Sussex","City":"East Grinstead","District":"East Grinstead","Street":"West View Gardens","PostalCode":"RH19 4","AdditionalData":[{"value":"United Kingdom","key":"CountryName"},{"value":"England","key":"StateName"},{"value":"West Sussex","key":"CountyName"}]},"MapReference":{"ReferenceId":"25560912","Spot":0.44,"SideOfStreet":"right","StateId":"20248595","CountyId":"20338671","CityId":"20338800","DistrictId":"20338801"}}},{"Relevance":1.0,"Distance":98.8,"MatchLevel":"houseNumber","MatchQuality":{"Country":1.0,"State":1.0,"County":1.0,"City":1.0,"District":1.0,"Street":[1.0],"HouseNumber":1.0,"PostalCode":1.0},"MatchType":"interpolated","Location":{"LocationId":"NT_RID4lq1HA9L8cKXTJRAiwC_l_25561165_L_xA","LocationType":"point","DisplayPosition":{"Latitude":51.1214,"Longitude":-0.0087998},"MapView":{"TopLeft":{"Latitude":51.1225242,"Longitude":-0.0105908},"BottomRight":{"Latitude":51.1202759,"Longitude":-0.0070088}},"Address":{"Label":"1 Portland Road, East Grinstead, RH19 4EB, United Kingdom","Country":"GBR","State":"England","County":"West Sussex","City":"East Grinstead","District":"East Grinstead","Street":"Portland Road","HouseNumber":"1","PostalCode":"RH19 4EB","AdditionalData":[{"value":"United Kingdom","key":"CountryName"},{"value":"England","key":"StateName"},{"value":"West Sussex","key":"CountyName"}]},"MapReference":{"ReferenceId":"25561165","Spot":0.05,"SideOfStreet":"left","StateId":"20248595","CountyId":"20338671","CityId":"20338800","DistrictId":"20338801"}}}]}]}}