{"Response":{"MetaInfo":{"Timestamp":"2020-03-28T10:16:08.753+0000","NextPageInformation":"2"},"View":[{"_type":"SearchResultsViewType","ViewId":0,"Result":[{"Relevance":1.0,"Distance":0.0,"Direction":0.0,"MatchLevel":"city","MatchQuality":{"Country":1.0,"State":1.0,"County":1.0,"City":1.0,"PostalCode":1.0},"Location":{"LocationId":"NT_E9ltNcGGPasqGVAKnEWvYB","LocationType":"point","DisplayPosition":{"Latitude":51.1652529,"Longitude":4.4259525},"MapView":{"TopLeft":{"Latitude":51.17223,"Longitude":4.397},"BottomRight":{"Latitude":51.14483,"Longitude":4.46382}},"Address":{"Label":"Edegem, Vlaanderen, België","Country":"BEL","State":"Vlaanderen","County":"Antwerpen","City":"Edegem","PostalCode":"2650","AdditionalData":[{"value":"België","key":"CountryName"},{"value":"Vlaanderen","key":"StateName"},{"value":"Antwerpen","key":"CountyName"}]},"MapReference":{"ReferenceId":"873566522","SideOfStreet":"neither","CountryId":"20128886","StateId":"20204377","CountyId":"20204378","CityId":"20204411"}}},{"Relevance":1.0,"Distance":13.4,"MatchLevel":"houseNumber","MatchQuality":{"Country":1.0,"State":1.0,"County":1.0,"City":1.0,"Street":[1.0],"HouseNumber":1.0,"PostalCode":1.0},"MatchType":"interpolated","Location":{"LocationId":"NT_E6h2Y3asLezD1f4IdaL6XB_yA","LocationType":"point","DisplayPosition":{"Latitude":51.16536,"Longitude":4.42604},"MapView":{"TopLeft":{"Latitude":51.1664842,"Longitude":4.4242473},"BottomRight":{"Latitude":51.1642358,"Longitude":4.4278327}},"Address":{"Label":"Hazeschransstraat 2, 2650 Edegem, België","Country":"BEL","State":"Vlaanderen","County":"Antwerpen","City":"Edegem","Street":"Hazeschransstraat","HouseNumber":"2","PostalCode":"2650","AdditionalData":[{"value":"België","key":"CountryName"},{"value":"Vlaanderen","key":"StateName"},{"value":"Antwerpen","key":"CountyName"}]},"MapReference":{"ReferenceId":"53841857","Spot":0.49,"SideOfStreet":"right","CountryId":"20128886","StateId":"20204377","CountyId":"20204378","CityId":"20204411","AddressId":"401331597","RoadLinkId":"30996855"}}},{"Relevance":1.0,"Distance":35.4,"MatchLevel":"houseNumber","MatchQuality":{"Country":1.0,"State":1.0,"County":1.0,"City":1.0,"Street":[1.0],"HouseNumber":1.0,"PostalCode":1.0},"MatchType":"interpolated","Location":{"LocationId":"NT_pd0kKIJjkxOn7WInJzmysB_zQDM","LocationType":"point","DisplayPosition":{"Latitude":51.16533,"Longitude":4.42678},"MapView":{"TopLeft":{"Latitude":51.1664542,"Longitude":4.4249873},"BottomRight":{"Latitude":51.1642058,"Longitude":4.4285727}},"Address":{"Label":"Prins Boudewijnlaan 340, 2650 Edegem, België","Country":"BEL","State":"Vlaanderen","County":"Antwerpen","City":"Edegem","Street":"Prins Boudewijnlaan","HouseNumber":"340","PostalCode":"2650","AdditionalData":[{"value":"België","key":"CountryName"},{"value":"Vlaanderen","key":"StateName"},{"value":"Antwerpen","key":"CountyName"}]},"MapReference":{"ReferenceId":"53850975","Spot":0.91,"SideOfStreet":"left","CountryId":"20128886","StateId":"20204377","CountyId":"20204378","CityId":"20204411","AddressId":"400241378","RoadLinkId":"30327628"}}},{"Relevance":1.0,"Distance":36.6,"MatchLevel":"houseNumber","MatchQuality":{"Country":1.0,"State":1.0,"County":1.0,"City":1.0,"Street":[1.0],"HouseNumber":1.0,"PostalCode":1.0},"MatchType":"interpolated","Location":{"LocationId":"NT_ZFbbsTofvP9zoUyOgSqEmC_zED","LocationType":"point","DisplayPosition":{"Latitude":51.16495,"Longitude":4.42549},"MapView":{"TopLeft":{"Latitude":51.1660742,"Longitude":4.4236973},"BottomRight":{"Latitude":51.1638258,"Longitude":4.4272827}},"Address":{"Label":"Cronckenroystraat 31, 2650 Edegem, België","Country":"BEL","State":"Vlaanderen","County":"Antwerpen","City":"Edegem","Street":"Cronckenroystraat","HouseNumber":"31","PostalCode":"2650","AdditionalData":[{"value":"België","key":"CountryName"},{"value":"Vlaanderen","key":"StateName"},{"value":"Antwerpen","key":"CountyName"}]},"MapReference":{"ReferenceId":"53841860","Spot":0.8,"SideOfStreet":"right","CountryId":"20128886","StateId":"20204377","CountyId":"20204378","CityId":"20204411","AddressId":"400114853","RoadLinkId":"30873701"}}},{"Relevance":1.0,"Distance":41.9,"MatchLevel":"houseNumber","MatchQuality":{"Country":1.0,"State":1.0,"County":1.0,"City":1.0,"Street":[1.0],"HouseNumber":1.0,"PostalCode":1.0},"MatchType":"interpolated","Location":{"LocationId":"NT_pd0kKIJjkxOn7WInJzmysB_zQjM","LocationType":"point","DisplayPosition":{"Latitude":51.16558,"Longitude":4.42666},"MapView":{"TopLeft":{"Latitude":51.1667042,"Longitude":4.4248673},"BottomRight":{"Latitude":51.1644558,"Longitude":4.4284527}},"Address":{"Label":"Prins Boudewijnlaan 342, 2650 Edegem, België","Country":"BEL","State":"Vlaanderen","County":"Antwerpen","City":"Edegem","Street":"Prins Boudewijnlaan","HouseNumber":"342","PostalCode":"2650","AdditionalData":[{"value":"België","key":"CountryName"},{"value":"Vlaanderen","key":"StateName"},{"value":"Antwerpen","key":"CountyName"}]},"MapReference":{"ReferenceId":"1246908312","Spot":0.08,"SideOfStreet":"left","CountryId":"20128886","StateId":"20204377","CountyId":"20204378","CityId":"20204411","AddressId":"400557791","RoadLinkId":"568601718"}}},{"Relevance":1.0,"Distance":57.5,"MatchLevel":"houseNumber","MatchQuality":{"Country":1.0,"State":1.0,"County":1.0,"City":1.0,"Street":[1.0],"HouseNumber":1.0,"PostalCode":1.0},"MatchType":"interpolated","Location":{"LocationId":"NT_E6h2Y3asLezD1f4IdaL6XB_xQD","LocationType":"point","DisplayPosition":{"Latitude":51.16525,"Longitude":4.42512},"MapView":{"TopLeft":{"Latitude":51.1663742,"Longitude":4.4233273},"BottomRight":{"Latitude":51.1641258,"Longitude":4.4269127}},"Address":{"Label":"Hazeschransstraat 14, 2650 Edegem, België","Country":"BEL","State":"Vlaanderen","County":"Antwerpen","City":"Edegem","Street":"Hazeschransstraat","HouseNumber":"14","PostalCode":"2650","AdditionalData":[{"value":"België","key":"CountryName"},{"value":"Vlaanderen","key":"StateName"},{"value":"Antwerpen","key":"CountyName"}]},"MapReference":{"ReferenceId":"53841856","Spot":0.74,"SideOfStreet":"right","CountryId":"20128886","StateId":"20204377","CountyId":"20204378","CityId":"20204411","AddressId":"401293075","RoadLinkId":"30706032"}}},{"Relevance":1.0,"Distance":58.1,"MatchLevel":"street","MatchQuality":{"Country":1.0,"State":1.0,"County":1.0,"City":1.0,"Street":[1.0],"PostalCode":1.0},"Location":{"LocationId":"NT_E6h2Y3asLezD1f4IdaL6XB_l_53909965_R","LocationType":"point","DisplayPosition":{"Latitude":51.16547,"Longitude":4.42671},"MapView":{"TopLeft":{"Latitude":51.16553,"Longitude":4.42671},"BottomRight":{"Latitude":51.16547,"Longitude":4.42697}},"Address":{"Label":"Hazeschransstraat, 2650 Edegem, België","Country":"BEL","State":"Vlaanderen","County":"Antwerpen","City":"Edegem","Street":"Hazeschransstraat","PostalCode":"2650","AdditionalData":[{"value":"België","key":"CountryName"},{"value":"Vlaanderen","key":"StateName"},{"value":"Antwerpen","key":"CountyName"}]},"MapReference":{"ReferenceId":"53909965","Spot":0.0,"SideOfStreet":"right","CountryId":"20128886","StateId":"20204377","CountyId":"20204378","CityId":"20204411"}}},{"Relevance":1.0,"Distance":77.0,"MatchLevel":"houseNumber","MatchQuality":{"Country":1.0,"State":1.0,"County":1.0,"City":1.0,"Street":[1.0],"HouseNumber":1.0,"PostalCode":1.0},"MatchType":"interpolated","Location":{"LocationId":"NT_pd0kKIJjkxOn7WInJzmysB_zQzM","LocationType":"point","DisplayPosition":{"Latitude":51.16543,"Longitude":4.42702},"MapView":{"TopLeft":{"Latitude":51.1665542,"Longitude":4.4252273},"BottomRight":{"Latitude":51.1643058,"Longitude":4.4288127}},"Address":{"Label":"Prins Boudewijnlaan 343, 2650 Edegem, België","Country":"BEL","State":"Vlaanderen","County":"Antwerpen","City":"Edegem","Street":"Prins Boudewijnlaan","HouseNumber":"343","PostalCode":"2650","AdditionalData":[{"value":"België","key":"CountryName"},{"value":"Vlaanderen","key":"StateName"},{"value":"Antwerpen","key":"CountyName"}]},"MapReference":{"ReferenceId":"53909962","Spot":0.93,"SideOfStreet":"right","CountryId":"20128886","StateId":"20204377","CountyId":"20204378","CityId":"20204411","AddressId":"399788031","RoadLinkId":"30762837"}}},{"Relevance":1.0,"Distance":81.5,"MatchLevel":"houseNumber","MatchQuality":{"Country":1.0,"State":1.0,"County":1.0,"City":1.0,"Street":[1.0],"HouseNumber":1.0,"PostalCode":1.0},"MatchType":"interpolated","Location":{"LocationId":"NT_pd0kKIJjkxOn7WInJzmysB_zQzN","LocationType":"point","DisplayPosition":{"Latitude":51.16569,"Longitude":4.42689},"MapView":{"TopLeft":{"Latitude":51.1668142,"Longitude":4.4250973},"BottomRight":{"Latitude":51.1645658,"Longitude":4.4286827}},"Address":{"Label":"Prins Boudewijnlaan 347, 2650 Edegem, België","Country":"BEL","State":"Vlaanderen","County":"Antwerpen","City":"Edegem","Street":"Prins Boudewijnlaan","HouseNumber":"347","PostalCode":"2650","AdditionalData":[{"value":"België","key":"CountryName"},{"value":"Vlaanderen","key":"StateName"},{"value":"Antwerpen","key":"CountyName"}]},"MapReference":{"ReferenceId":"53909963","Spot":0.11,"SideOfStreet":"right","CountryId":"20128886","StateId":"20204377","CountyId":"20204378","CityId":"20204411","AddressId":"401604375","RoadLinkId":"30346310"}}},{"Relevance":1.0,"Distance":104.5,"MatchLevel":"houseNumber","MatchQuality":{"Country":1.0,"State":1.0,"County":1.0,"City":1.0,"Street":[1.0],"HouseNumber":1.0,"PostalCode":1.0},"MatchType":"interpolated","Location":{"LocationId":"NT_ddfFttmyeo-Xk.xqkWj-RB_ycD","LocationType":"point","DisplayPosition":{"Latitude":51.16468,"Longitude":4.42452},"MapView":{"TopLeft":{"Latitude":51.1658042,"Longitude":4.4227273},"BottomRight":{"Latitude":51.1635558,"Longitude":4.4263127}},"Address":{"Label":"Te Nijverdoncklaan 27, 2650 Edegem, België","Country":"BEL","State":"Vlaanderen","County":"Antwerpen","City":"Edegem","Street":"Te Nijverdoncklaan","HouseNumber":"27","PostalCode":"2650","AdditionalData":[{"value":"België","key":"CountryName"},{"value":"Vlaanderen","key":"StateName"},{"value":"Antwerpen","key":"CountyName"}]},"MapReference":{"ReferenceId":"53841852","Spot":0.73,"SideOfStreet":"right","CountryId":"20128886","StateId":"20204377","CountyId":"20204378","CityId":"20204411","AddressId":"399666827","RoadLinkId":"30305409"}}}]}]}}