{"Response":{"MetaInfo":{"Timestamp":"2020-03-28T11:31:12.255+0000","NextPageInformation":"2"},"View":[{"_type":"SearchResultsViewType","ViewId":0,"Result":[{"Relevance":1.0,"Distance":0.0,"Direction":0.0,"MatchLevel":"district","MatchQuality":{"Country":1.0,"State":1.0,"County":1.0,"City":1.0,"District":1.0,"Subdistrict":1.0,"PostalCode":1.0},"Location":{"LocationId":"NT_L77E48dn307gJ33HHfY2RC","LocationType":"point","DisplayPosition":{"Latitude":51.1020157,"Longitude":17.0069466},"MapView":{"TopLeft":{"Latitude":51.1146,"Longitude":16.96674},"BottomRight":{"Latitude":51.07703,"Longitude":17.01446}},"Address":{"Label":"Grabiszyn, Wrocław, Woj. Dolnośląskie, Polska","Country":"POL","State":"Woj. Dolnośląskie","County":"Wrocław","City":"Wrocław","District":"Wrocław","Subdistrict":"Grabiszyn","PostalCode":"53-229","AdditionalData":[{"value":"Polska","key":"CountryName"},{"value":"Woj. Dolnośląskie","key":"StateName"},{"value":"Wrocław","key":"CountyName"}]},"MapReference":{"ReferenceId":"589975937","SideOfStreet":"neither","CountryId":"20624059","StateId":"20625002","CountyId":"20625392","CityId":"20625393","DistrictId":"20646839"}}},{"Relevance":1.0,"Distance":10.9,"MatchLevel":"street","MatchQuality":{"Country":1.0,"State":1.0,"County":1.0,"City":1.0,"District":1.0,"Subdistrict":1.0,"Street":[1.0],"PostalCode":1.0},"Location":{"LocationId":"NT_MQM0K3jaQXb85JnzZ47HOA_l_812456813_L","LocationType":"point","DisplayPosition":{"Latitude":51.1021126,"Longitude":17.0069727},"MapView":{"TopLeft":{"Latitude":51.10317,"Longitude":17.00287},"BottomRight":{"Latitude":51.10149,"Longitude":17.00928}},"Address":{"Label":"ulica Manganowa, 53-441 Wrocław, Polska","Country":"POL","State":"Woj. Dolnośląskie","County":"Wrocław","City":"Wrocław","District":"Wrocław","Subdistrict":"Grabiszyn","Street":"ulica Manganowa","PostalCode":"53-441","AdditionalData":[{"value":"Polska","key":"CountryName"},{"value":"Woj. Dolnośląskie","key":"StateName"},{"value":"Wrocław","key":"CountyName"}]},"MapReference":{"ReferenceId":"812456813","Spot":0.36,"SideOfStreet":"left","CountryId":"20624059","StateId":"20625002","CountyId":"20625392","CityId":"20625393","DistrictId":"20646839"}}},{"Relevance":1.0,"Distance":89.0,"MatchLevel":"houseNumber","MatchQuality":{"Country":1.0,"State":1.0,"County":1.0,"City":1.0,"District":1.0,"Subdistrict":1.0,"Street":[1.0],"HouseNumber":1.0,"PostalCode":1.0},"MatchType":"interpolated","Location":{"LocationId":"NT_p4Yhl-1T86MQoxD3nh5uwB_xgzLzID","LocationType":"point","DisplayPosition":{"Latitude":51.10252,"Longitude":17.00765},"MapView":{"TopLeft":{"Latitude":51.1036442,"Longitude":17.0058597},"BottomRight":{"Latitude":51.1013958,"Longitude":17.0094403}},"Address":{"Label":"ulica Pochyła 18/32, 53-512 Wrocław, Polska","Country":"POL","State":"Woj. Dolnośląskie","County":"Wrocław","City":"Wrocław","District":"Wrocław","Subdistrict":"Stare Miasto","Street":"ulica Pochyła","HouseNumber":"18/32","PostalCode":"53-512","AdditionalData":[{"value":"Polska","key":"CountryName"},{"value":"Woj. Dolnośląskie","key":"StateName"},{"value":"Wrocław","key":"CountyName"}]},"MapReference":{"ReferenceId":"589975563","Spot":0.0,"SideOfStreet":"left","CountryId":"20624059","StateId":"20625002","CountyId":"20625392","CityId":"20625393","DistrictId":"20646839","AddressId":"732092852","RoadLinkId":"96533514"}}},{"Relevance":1.0,"Distance":99.6,"MatchLevel":"houseNumber","MatchQuality":{"Country":1.0,"State":1.0,"County":1.0,"City":1.0,"District":1.0,"Subdistrict":1.0,"Street":[1.0],"HouseNumber":1.0,"PostalCode":1.0},"MatchType":"interpolated","Location":{"LocationId":"NT_3tbiN5Tvg3sxyRTwTPDklB_xATMBB","LocationType":"point","DisplayPosition":{"Latitude":51.10102,"Longitude":17.00705},"MapView":{"TopLeft":{"Latitude":51.1021442,"Longitude":17.0052598},"BottomRight":{"Latitude":51.0998958,"Longitude":17.0088402}},"Address":{"Label":"ulica Grabiszyńska 101A, 53-439 Wrocław, Polska","Country":"POL","State":"Woj. Dolnośląskie","County":"Wrocław","City":"Wrocław","District":"Wrocław","Subdistrict":"Grabiszyn","Street":"ulica Grabiszyńska","HouseNumber":"101A","PostalCode":"53-439","AdditionalData":[{"value":"Polska","key":"CountryName"},{"value":"Woj. Dolnośląskie","key":"StateName"},{"value":"Wrocław","key":"CountyName"}]},"MapReference":{"ReferenceId":"907404552","Spot":0.61,"SideOfStreet":"left","CountryId":"20624059","StateId":"20625002","CountyId":"20625392","CityId":"20625393","DistrictId":"20646839","AddressId":"211315215","RoadLinkId":"268107947"}}},{"Relevance":1.0,"Distance":107.2,"MatchLevel":"houseNumber","MatchQuality":{"Country":1.0,"State":1.0,"County":1.0,"City":1.0,"District":1.0,"Subdistrict":1.0,"Street":[1.0],"HouseNumber":1.0,"PostalCode":1.0},"MatchType":"interpolated","Location":{"LocationId":"NT_RayCXz6Qypuq07ocGqHF-D_4QjQ","LocationType":"point","DisplayPosition":{"Latitude":51.10307,"Longitude":17.00661},"MapView":{"TopLeft":{"Latitude":51.1041942,"Longitude":17.0048197},"BottomRight":{"Latitude":51.1019458,"Longitude":17.0084003}},"Address":{"Label":"ulica Tęczowa 84B, 53-601 Wrocław, Polska","Country":"POL","State":"Woj. Dolnośląskie","County":"Wrocław","City":"Wrocław","District":"Wrocław","Subdistrict":"Stare Miasto","Street":"ulica Tęczowa","HouseNumber":"84B","PostalCode":"53-601","AdditionalData":[{"value":"Polska","key":"CountryName"},{"value":"Woj. Dolnośląskie","key":"StateName"},{"value":"Wrocław","key":"CountyName"}]},"MapReference":{"ReferenceId":"915080519","Spot":0.49,"SideOfStreet":"left","CountryId":"20624059","StateId":"20625002","CountyId":"20625392","CityId":"20625393","DistrictId":"20646839","AddressId":"419057542","RoadLinkId":"272868533"}}},{"Relevance":1.0,"Distance":120.9,"MatchLevel":"street","MatchQuality":{"Country":1.0,"State":1.0,"County":1.0,"City":1.0,"District":1.0,"Subdistrict":1.0,"Street":[1.0],"PostalCode":1.0},"Location":{"LocationId":"NT_3tbiN5Tvg3sxyRTwTPDklB_l_907404553_L","LocationType":"point","DisplayPosition":{"Latitude":51.1013,"Longitude":17.00825},"MapView":{"TopLeft":{"Latitude":51.10138,"Longitude":17.00825},"BottomRight":{"Latitude":51.1013,"Longitude":17.00861}},"Address":{"Label":"ulica Grabiszyńska, 53-439 Wrocław, Polska","Country":"POL","State":"Woj. Dolnośląskie","County":"Wrocław","City":"Wrocław","District":"Wrocław","Subdistrict":"Grabiszyn","Street":"ulica Grabiszyńska","PostalCode":"53-439","AdditionalData":[{"value":"Polska","key":"CountryName"},{"value":"Woj. Dolnośląskie","key":"StateName"},{"value":"Wrocław","key":"CountyName"}]},"MapReference":{"ReferenceId":"907404553","Spot":0.0,"SideOfStreet":"left","CountryId":"20624059","StateId":"20625002","CountyId":"20625392","CityId":"20625393","DistrictId":"20646839"}}},{"Relevance":1.0,"Distance":122.7,"MatchLevel":"houseNumber","MatchQuality":{"Country":1.0,"State":1.0,"County":1.0,"City":1.0,"District":1.0,"Subdistrict":1.0,"Street":[1.0],"HouseNumber":1.0,"PostalCode":1.0},"MatchType":"interpolated","Location":{"LocationId":"NT_UA-Iklo0rzGOxuH-dET.HA_5ITQ","LocationType":"point","DisplayPosition":{"Latitude":51.10093,"Longitude":17.00726},"MapView":{"TopLeft":{"Latitude":51.1020542,"Longitude":17.0054698},"BottomRight":{"Latitude":51.0998058,"Longitude":17.0090502}},"Address":{"Label":"ulica Grabiszyńska 92A, 53-437 Wrocław, Polska","Country":"POL","State":"Woj. Dolnośląskie","County":"Wrocław","City":"Wrocław","District":"Wrocław","Subdistrict":"Grabiszyn","Street":"ulica Grabiszyńska","HouseNumber":"92A","PostalCode":"53-437","AdditionalData":[{"value":"Polska","key":"CountryName"},{"value":"Woj. Dolnośląskie","key":"StateName"},{"value":"Wrocław","key":"CountyName"}]},"MapReference":{"ReferenceId":"907325104","Spot":0.7,"SideOfStreet":"right","CountryId":"20624059","StateId":"20625002","CountyId":"20625392","CityId":"20625393","DistrictId":"20646839","AddressId":"731792165","RoadLinkId":"268021723"}}},{"Relevance":1.0,"Distance":129.7,"MatchLevel":"houseNumber","MatchQuality":{"Country":1.0,"State":1.0,"County":1.0,"City":1.0,"District":1.0,"Subdistrict":1.0,"Street":[1.0],"HouseNumber":1.0,"PostalCode":1.0},"MatchType":"interpolated","Location":{"LocationId":"NT_3tbiN5Tvg3sxyRTwTPDklB_xATN","LocationType":"point","DisplayPosition":{"Latitude":51.10137,"Longitude":17.0054},"MapView":{"TopLeft":{"Latitude":51.1024942,"Longitude":17.0036098},"BottomRight":{"Latitude":51.1002458,"Longitude":17.0071902}},"Address":{"Label":"ulica Grabiszyńska 105, 53-439 Wrocław, Polska","Country":"POL","State":"Woj. Dolnośląskie","County":"Wrocław","City":"Wrocław","District":"Wrocław","Subdistrict":"Grabiszyn","Street":"ulica Grabiszyńska","HouseNumber":"105","PostalCode":"53-439","AdditionalData":[{"value":"Polska","key":"CountryName"},{"value":"Woj. Dolnośląskie","key":"StateName"},{"value":"Wrocław","key":"CountyName"}]},"MapReference":{"ReferenceId":"812455891","Spot":0.72,"SideOfStreet":"left","CountryId":"20624059","StateId":"20625002","CountyId":"20625392","CityId":"20625393","DistrictId":"20646839","AddressId":"211139943","RoadLinkId":"199798518"}}},{"Relevance":1.0,"Distance":130.3,"MatchLevel":"street","MatchQuality":{"Country":1.0,"State":1.0,"County":1.0,"City":1.0,"District":1.0,"Subdistrict":1.0,"Street":[1.0],"PostalCode":1.0},"Location":{"LocationId":"NT_UA-Iklo0rzGOxuH-dET.HA_l_1149386982_L","LocationType":"point","DisplayPosition":{"Latitude":51.10112,"Longitude":17.00815},"MapView":{"TopLeft":{"Latitude":51.10113,"Longitude":17.00815},"BottomRight":{"Latitude":51.10112,"Longitude":17.00819}},"Address":{"Label":"ulica Grabiszyńska, 53-437 Wrocław, Polska","Country":"POL","State":"Woj. Dolnośląskie","County":"Wrocław","City":"Wrocław","District":"Wrocław","Subdistrict":"Grabiszyn","Street":"ulica Grabiszyńska","PostalCode":"53-437","AdditionalData":[{"value":"Polska","key":"CountryName"},{"value":"Woj. Dolnośląskie","key":"StateName"},{"value":"Wrocław","key":"CountyName"}]},"MapReference":{"ReferenceId":"1149386982","Spot":0.0,"SideOfStreet":"left","CountryId":"20624059","StateId":"20625002","CountyId":"20625392","CityId":"20625393","DistrictId":"20646839"}}},{"Relevance":1.0,"Distance":131.3,"MatchLevel":"street","MatchQuality":{"Country":1.0,"State":1.0,"County":1.0,"City":1.0,"District":1.0,"Subdistrict":1.0,"Street":[1.0],"PostalCode":1.0},"Location":{"LocationId":"NT_UA-Iklo0rzGOxuH-dET.HA_l_1149386983_L","LocationType":"point","DisplayPosition":{"Latitude":51.10113,"Longitude":17.00819},"MapView":{"TopLeft":{"Latitude":51.10122,"Longitude":17.00819},"BottomRight":{"Latitude":51.10113,"Longitude":17.00855}},"Address":{"Label":"ulica Grabiszyńska, 53-437 Wrocław, Polska","Country":"POL","State":"Woj. Dolnośląskie","County":"Wrocław","City":"Wrocław","District":"Wrocław","Subdistrict":"Grabiszyn","Street":"ulica Grabiszyńska","PostalCode":"53-437","AdditionalData":[{"value":"Polska","key":"CountryName"},{"value":"Woj. Dolnośląskie","key":"StateName"},{"value":"Wrocław","key":"CountyName"}]},"MapReference":{"ReferenceId":"1149386983","Spot":0.0,"SideOfStreet":"left","CountryId":"20624059","StateId":"20625002","CountyId":"20625392","CityId":"20625393","DistrictId":"20646839"}}}]}]}}