{"Response":{"MetaInfo":{"Timestamp":"2020-03-28T11:54:55.591+0000","NextPageInformation":"2"},"View":[{"_type":"SearchResultsViewType","ViewId":0,"Result":[{"Relevance":1.0,"Distance":0.0,"Direction":0.0,"MatchLevel":"district","MatchQuality":{"Country":1.0,"State":1.0,"County":1.0,"City":1.0,"District":1.0,"PostalCode":1.0},"Location":{"LocationId":"NT_of7cOKeFwAxBuKR0YRV.fC","LocationType":"point","DisplayPosition":{"Latitude":51.196122,"Longitude":-0.60491},"MapView":{"TopLeft":{"Latitude":51.20456,"Longitude":-0.61557},"BottomRight":{"Latitude":51.18735,"Longitude":-0.58657}},"Address":{"Label":"Farncombe, Godalming, England, United Kingdom","Country":"GBR","State":"England","County":"Surrey","City":"Godalming","District":"Farncombe","PostalCode":"GU7 3","AdditionalData":[{"value":"United Kingdom","key":"CountryName"},{"value":"England","key":"StateName"},{"value":"Surrey","key":"CountyName"}]},"MapReference":{"ReferenceId":"840184258","SideOfStreet":"neither","StateId":"20248595","CountyId":"20338357","CityId":"20338472","DistrictId":"20338481"}}},{"Relevance":1.0,"Distance":0.7,"MatchLevel":"postalCode","MatchQuality":{"PostalCode":1.0},"MatchType":"interpolated","Location":{"LocationId":"NT_LmSUgWCw8Nx2CpasfF4sXB_l_30486973_R_xA","LocationType":"point","DisplayPosition":{"Latitude":51.19612,"Longitude":-0.6049},"MapView":{"TopLeft":{"Latitude":51.2051132,"Longitude":-0.6192511},"BottomRight":{"Latitude":51.1871268,"Longitude":-0.5905489}},"Address":{"Label":"GU7 3AZ, Godalming, England, United Kingdom","Country":"GBR","State":"England","County":"Surrey","City":"Godalming","PostalCode":"GU7 3AZ","AdditionalData":[{"value":"United Kingdom","key":"CountryName"},{"value":"England","key":"StateName"},{"value":"Surrey","key":"CountyName"}]},"MapReference":{"ReferenceId":"30486973","Spot":0.0,"SideOfStreet":"neither","StateId":"20248595","CountyId":"20338357","CityId":"20338472"}}},{"Relevance":1.0,"Distance":5.2,"MatchLevel":"street","MatchQuality":{"Country":1.0,"State":1.0,"County":1.0,"City":1.0,"District":1.0,"Street":[1.0],"PostalCode":1.0},"Location":{"LocationId":"NT_LmSUgWCw8Nx2CpasfF4sXB_l_1022759509_L","LocationType":"point","DisplayPosition":{"Latitude":51.196075,"Longitude":-0.6049052},"MapView":{"TopLeft":{"Latitude":51.19619,"Longitude":-0.60562},"BottomRight":{"Latitude":51.19603,"Longitude":-0.60433}},"Address":{"Label":"Farncombe Street, Godalming, GU7 3, United Kingdom","Country":"GBR","State":"England","County":"Surrey","City":"Godalming","District":"Farncombe","Street":"Farncombe Street","PostalCode":"GU7 3","AdditionalData":[{"value":"United Kingdom","key":"CountryName"},{"value":"England","key":"StateName"},{"value":"Surrey","key":"CountyName"}]},"MapReference":{"ReferenceId":"1022759509","Spot":0.55,"SideOfStreet":"left","StateId":"20248595","CountyId":"20338357","CityId":"20338472","DistrictId":"20338481"}}},{"Relevance":1.0,"Distance":41.1,"MatchLevel":"street","MatchQuality":{"Country":1.0,"State":1.0,"County":1.0,"City":1.0,"District":1.0,"Street":[1.0],"PostalCode":1.0},"Location":{"LocationId":"NT_O9T0xaTP-uOAa7OeJDD6QD_l_25553253_L","LocationType":"point","DisplayPosition":{"Latitude":51.19619,"Longitude":-0.60433},"MapView":{"TopLeft":{"Latitude":51.19637,"Longitude":-0.60433},"BottomRight":{"Latitude":51.19619,"Longitude":-0.60412}},"Address":{"Label":"Summers Road, Godalming, GU7 3, United Kingdom","Country":"GBR","State":"England","County":"Surrey","City":"Godalming","District":"Farncombe","Street":"Summers Road","PostalCode":"GU7 3","AdditionalData":[{"value":"United Kingdom","key":"CountryName"},{"value":"England","key":"StateName"},{"value":"Surrey","key":"CountyName"}]},"MapReference":{"ReferenceId":"25553253","Spot":0.0,"SideOfStreet":"left","StateId":"20248595","CountyId":"20338357","CityId":"20338472","DistrictId":"20338481"}}},{"Relevance":1.0,"Distance":46.2,"MatchLevel":"houseNumber","MatchQuality":{"Country":1.0,"State":1.0,"County":1.0,"City":1.0,"District":1.0,"Street":[1.0],"HouseNumber":1.0,"PostalCode":1.0},"MatchType":"interpolated","Location":{"LocationId":"NT_XYKNmzyVdWe4lDSZagcjkC_l_1022768819_L_2cD","LocationType":"point","DisplayPosition":{"Latitude":51.1960275,"Longitude":-0.60413},"MapView":{"TopLeft":{"Latitude":51.1971516,"Longitude":-0.6059239},"BottomRight":{"Latitude":51.1949033,"Longitude":-0.6023361}},"Address":{"Label":"67 St John's Street, Godalming, GU7 3EH, United Kingdom","Country":"GBR","State":"England","County":"Surrey","City":"Godalming","District":"Farncombe","Street":"St John's Street","HouseNumber":"67","PostalCode":"GU7 3EH","AdditionalData":[{"value":"United Kingdom","key":"CountryName"},{"value":"England","key":"StateName"},{"value":"Surrey","key":"CountyName"}]},"MapReference":{"ReferenceId":"1022768819","Spot":0.43,"SideOfStreet":"left","StateId":"20248595","CountyId":"20338357","CityId":"20338472","DistrictId":"20338481"}}},{"Relevance":1.0,"Distance":50.0,"MatchLevel":"street","MatchQuality":{"Country":1.0,"State":1.0,"County":1.0,"City":1.0,"District":1.0,"Street":[1.0],"PostalCode":1.0},"Location":{"LocationId":"NT_LmSUgWCw8Nx2CpasfF4sXB_l_1022759508_L","LocationType":"point","DisplayPosition":{"Latitude":51.19606,"Longitude":-0.60562},"MapView":{"TopLeft":{"Latitude":51.19606,"Longitude":-0.60577},"BottomRight":{"Latitude":51.19606,"Longitude":-0.60562}},"Address":{"Label":"Farncombe Street, Godalming, GU7 3, United Kingdom","Country":"GBR","State":"England","County":"Surrey","City":"Godalming","District":"Farncombe","Street":"Farncombe Street","PostalCode":"GU7 3","AdditionalData":[{"value":"United Kingdom","key":"CountryName"},{"value":"England","key":"StateName"},{"value":"Surrey","key":"CountyName"}]},"MapReference":{"ReferenceId":"1022759508","Spot":1.0,"SideOfStreet":"left","StateId":"20248595","CountyId":"20338357","CityId":"20338472","DistrictId":"20338481"}}},{"Relevance":1.0,"Distance":50.0,"MatchLevel":"street","MatchQuality":{"Country":1.0,"State":1.0,"County":1.0,"City":1.0,"District":1.0,"PostalCode":1.0},"Location":{"LocationId":"NT_MEIomIcnhCOncKWmCQqyWD_l_1022759510_R","LocationType":"point","DisplayPosition":{"Latitude":51.19606,"Longitude":-0.60562},"MapView":{"TopLeft":{"Latitude":51.19606,"Longitude":-0.60646},"BottomRight":{"Latitude":51.19525,"Longitude":-0.60562}},"Address":{"Label":"Godalming, GU7 3, United Kingdom","Country":"GBR","State":"England","County":"Surrey","City":"Godalming","District":"Farncombe","PostalCode":"GU7 3","AdditionalData":[{"value":"United Kingdom","key":"CountryName"},{"value":"England","key":"StateName"},{"value":"Surrey","key":"CountyName"}]},"MapReference":{"ReferenceId":"1022759510","Spot":1.0,"SideOfStreet":"right","StateId":"20248595","CountyId":"20338357","CityId":"20338472","DistrictId":"20338481"}}},{"Relevance":1.0,"Distance":50.9,"MatchLevel":"houseNumber","MatchQuality":{"Country":1.0,"State":1.0,"County":1.0,"City":1.0,"District":1.0,"Street":[1.0],"HouseNumber":1.0,"PostalCode":1.0},"MatchType":"interpolated","Location":{"LocationId":"NT_1zV7qdijjTZv6iFI6sc63C_l_25553360_R_5A","LocationType":"point","DisplayPosition":{"Latitude":51.1955301,"Longitude":-0.6048736},"MapView":{"TopLeft":{"Latitude":51.1966542,"Longitude":-0.6066675},"BottomRight":{"Latitude":51.1944059,"Longitude":-0.6030797}},"Address":{"Label":"9 Owen Road, Godalming, GU7 3EN, United Kingdom","Country":"GBR","State":"England","County":"Surrey","City":"Godalming","District":"Farncombe","Street":"Owen Road","HouseNumber":"9","PostalCode":"GU7 3EN","AdditionalData":[{"value":"United Kingdom","key":"CountryName"},{"value":"England","key":"StateName"},{"value":"Surrey","key":"CountyName"}]},"MapReference":{"ReferenceId":"25553360","Spot":0.5,"SideOfStreet":"right","StateId":"20248595","CountyId":"20338357","CityId":"20338472","DistrictId":"20338481"}}},{"Relevance":1.0,"Distance":59.8,"MatchLevel":"houseNumber","MatchQuality":{"Country":1.0,"State":1.0,"County":1.0,"City":1.0,"District":1.0,"Street":[1.0],"HouseNumber":1.0,"PostalCode":1.0},"MatchType":"interpolated","Location":{"LocationId":"NT_LmSUgWCw8Nx2CpasfF4sXB_l_30486973_R_xA","LocationType":"point","DisplayPosition":{"Latitude":51.19606,"Longitude":-0.6057701},"MapView":{"TopLeft":{"Latitude":51.1971842,"Longitude":-0.607564},"BottomRight":{"Latitude":51.1949359,"Longitude":-0.6039763}},"Address":{"Label":"1 Farncombe Street, Godalming, GU7 3AZ, United Kingdom","Country":"GBR","State":"England","County":"Surrey","City":"Godalming","District":"Farncombe","Street":"Farncombe Street","HouseNumber":"1","PostalCode":"GU7 3AZ","AdditionalData":[{"value":"United Kingdom","key":"CountryName"},{"value":"England","key":"StateName"},{"value":"Surrey","key":"CountyName"}]},"MapReference":{"ReferenceId":"30486973","Spot":0.0,"SideOfStreet":"right","StateId":"20248595","CountyId":"20338357","CityId":"20338472","DistrictId":"20338481"}}},{"Relevance":1.0,"Distance":61.6,"MatchLevel":"street","MatchQuality":{"Country":1.0,"State":1.0,"County":1.0,"City":1.0,"District":1.0,"PostalCode":1.0},"Location":{"LocationId":"NT_MEIomIcnhCOncKWmCQqyWD_l_25553289_L","LocationType":"point","DisplayPosition":{"Latitude":51.19637,"Longitude":-0.60412},"MapView":{"TopLeft":{"Latitude":51.19637,"Longitude":-0.60412},"BottomRight":{"Latitude":51.19593,"Longitude":-0.60344}},"Address":{"Label":"Godalming, GU7 3, United Kingdom","Country":"GBR","State":"England","County":"Surrey","City":"Godalming","District":"Farncombe","PostalCode":"GU7 3","AdditionalData":[{"value":"United Kingdom","key":"CountryName"},{"value":"England","key":"StateName"},{"value":"Surrey","key":"CountyName"}]},"MapReference":{"ReferenceId":"25553289","Spot":1.0,"SideOfStreet":"left","StateId":"20248595","CountyId":"20338357","CityId":"20338472","DistrictId":"20338481"}}}]}]}}