{"Response":{"MetaInfo":{"Timestamp":"2020-03-28T10:08:44.820+0000","NextPageInformation":"2"},"View":[{"_type":"SearchResultsViewType","ViewId":0,"Result":[{"Relevance":1.0,"Distance":0.0,"Direction":0.0,"MatchLevel":"district","MatchQuality":{"Country":1.0,"State":1.0,"County":1.0,"City":1.0,"District":1.0,"PostalCode":1.0},"Location":{"LocationId":"NT_2hShrAA6Xexpppdu9u6JYD","LocationType":"point","DisplayPosition":{"Latitude":51.2124345,"Longitude":-0.7928134},"MapView":{"TopLeft":{"Latitude":51.22876,"Longitude":-0.84701},"BottomRight":{"Latitude":51.17742,"Longitude":-0.76806}},"Address":{"Label":"Farnham, England, United Kingdom","Country":"GBR","State":"England","County":"Surrey","City":"Farnham","District":"Farnham","PostalCode":"GU9 7","AdditionalData":[{"value":"United Kingdom","key":"CountryName"},{"value":"England","key":"StateName"},{"value":"Surrey","key":"CountyName"}]},"MapReference":{"ReferenceId":"956763333","SideOfStreet":"neither","StateId":"20248595","CountyId":"20338357","CityId":"20338450","DistrictId":"20338451"}}},{"Relevance":1.0,"Distance":13.6,"MatchLevel":"street","MatchQuality":{"Country":1.0,"State":1.0,"County":1.0,"City":1.0,"District":1.0,"Street":[1.0],"PostalCode":1.0},"Location":{"LocationId":"NT_Nwycgn7klb9.HtejNxA1cD_l_1032950503_R","LocationType":"point","DisplayPosition":{"Latitude":51.21232,"Longitude":-0.79288},"MapView":{"TopLeft":{"Latitude":51.21256,"Longitude":-0.79358},"BottomRight":{"Latitude":51.21232,"Longitude":-0.79288}},"Address":{"Label":"Station Hill, Farnham, GU9 8, United Kingdom","Country":"GBR","State":"England","County":"Surrey","City":"Farnham","District":"Farnham","Street":"Station Hill","PostalCode":"GU9 8","AdditionalData":[{"value":"United Kingdom","key":"CountryName"},{"value":"England","key":"StateName"},{"value":"Surrey","key":"CountyName"}]},"MapReference":{"ReferenceId":"1032950503","Spot":0.0,"SideOfStreet":"right","StateId":"20248595","CountyId":"20338357","CityId":"20338450","DistrictId":"20338451"}}},{"Relevance":1.0,"Distance":13.6,"MatchLevel":"street","MatchQuality":{"Country":1.0,"State":1.0,"County":1.0,"City":1.0,"District":1.0,"Street":[1.0],"PostalCode":1.0},"Location":{"LocationId":"NT_ZJhMgvbiMnCUiFco8Mqh0B_l_77750570_R","LocationType":"point","DisplayPosition":{"Latitude":51.21232,"Longitude":-0.79288},"MapView":{"TopLeft":{"Latitude":51.21232,"Longitude":-0.79288},"BottomRight":{"Latitude":51.21215,"Longitude":-0.79285}},"Address":{"Label":"Approach Road, Farnham, GU9 8, United Kingdom","Country":"GBR","State":"England","County":"Surrey","City":"Farnham","District":"Farnham","Street":"Approach Road","PostalCode":"GU9 8","AdditionalData":[{"value":"United Kingdom","key":"CountryName"},{"value":"England","key":"StateName"},{"value":"Surrey","key":"CountyName"}]},"MapReference":{"ReferenceId":"77750570","Spot":1.0,"SideOfStreet":"right","StateId":"20248595","CountyId":"20338357","CityId":"20338450","DistrictId":"20338451"}}},{"Relevance":1.0,"Distance":20.0,"MatchLevel":"postalCode","MatchQuality":{"PostalCode":1.0},"Location":{"LocationId":"NT_Nwycgn7klb9.HtejNxA1cD_l_1032950503_R","LocationType":"point","DisplayPosition":{"Latitude":51.21244,"Longitude":-0.7931},"MapView":{"TopLeft":{"Latitude":51.2214332,"Longitude":-0.8074562},"BottomRight":{"Latitude":51.2034468,"Longitude":-0.7787438}},"Address":{"Label":"GU9 8AA, Farnham, England, United Kingdom","Country":"GBR","State":"England","County":"Surrey","City":"Farnham","PostalCode":"GU9 8AA","AdditionalData":[{"value":"United Kingdom","key":"CountryName"},{"value":"England","key":"StateName"},{"value":"Surrey","key":"CountyName"}]},"MapReference":{"ReferenceId":"1032950503","Spot":0.0,"SideOfStreet":"neither","StateId":"20248595","CountyId":"20338357","CityId":"20338450"}}},{"Relevance":1.0,"Distance":20.1,"MatchLevel":"houseNumber","MatchQuality":{"Country":1.0,"State":1.0,"County":1.0,"City":1.0,"District":1.0,"Street":[1.0],"HouseNumber":1.0,"PostalCode":1.0},"MatchType":"interpolated","Location":{"LocationId":"NT_Nwycgn7klb9.HtejNxA1cD_l_25551789_R_3A","LocationType":"point","DisplayPosition":{"Latitude":51.2122508,"Longitude":-0.7925593},"MapView":{"TopLeft":{"Latitude":51.2133749,"Longitude":-0.7943539},"BottomRight":{"Latitude":51.2111266,"Longitude":-0.7907648}},"Address":{"Label":"7 Station Hill, Farnham, GU9 8AA, United Kingdom","Country":"GBR","State":"England","County":"Surrey","City":"Farnham","District":"Farnham","Street":"Station Hill","HouseNumber":"7","PostalCode":"GU9 8AA","AdditionalData":[{"value":"United Kingdom","key":"CountryName"},{"value":"England","key":"StateName"},{"value":"Surrey","key":"CountyName"}]},"MapReference":{"ReferenceId":"25551789","Spot":0.5,"SideOfStreet":"right","StateId":"20248595","CountyId":"20338357","CityId":"20338450","DistrictId":"20338451"}}},{"Relevance":1.0,"Distance":27.7,"MatchLevel":"houseNumber","MatchQuality":{"Country":1.0,"State":1.0,"County":1.0,"City":1.0,"District":1.0,"Street":[1.0],"HouseNumber":1.0,"PostalCode":1.0},"MatchType":"interpolated","Location":{"LocationId":"NT_ehbk0PcLJfAUzrnzRIRh5D_l_1032950505_L_3A","LocationType":"point","DisplayPosition":{"Latitude":51.2127656,"Longitude":-0.792536},"MapView":{"TopLeft":{"Latitude":51.2138898,"Longitude":-0.7943306},"BottomRight":{"Latitude":51.2116415,"Longitude":-0.7907415}},"Address":{"Label":"7 The Fairfield, Farnham, GU9 8, United Kingdom","Country":"GBR","State":"England","County":"Surrey","City":"Farnham","District":"Farnham","Street":"The Fairfield","HouseNumber":"7","PostalCode":"GU9 8","AdditionalData":[{"value":"United Kingdom","key":"CountryName"},{"value":"England","key":"StateName"},{"value":"Surrey","key":"CountyName"}]},"MapReference":{"ReferenceId":"1032950505","Spot":0.65,"SideOfStreet":"left","StateId":"20248595","CountyId":"20338357","CityId":"20338450","DistrictId":"20338451"}}},{"Relevance":1.0,"Distance":31.7,"MatchLevel":"street","MatchQuality":{"Country":1.0,"State":1.0,"County":1.0,"City":1.0,"District":1.0,"Street":[1.0],"PostalCode":1.0},"Location":{"LocationId":"NT_ZJhMgvbiMnCUiFco8Mqh0B_l_77750569_L","LocationType":"point","DisplayPosition":{"Latitude":51.21215,"Longitude":-0.79285},"MapView":{"TopLeft":{"Latitude":51.21215,"Longitude":-0.79293},"BottomRight":{"Latitude":51.21179,"Longitude":-0.79285}},"Address":{"Label":"Approach Road, Farnham, GU9 8, United Kingdom","Country":"GBR","State":"England","County":"Surrey","City":"Farnham","District":"Farnham","Street":"Approach Road","PostalCode":"GU9 8","AdditionalData":[{"value":"United Kingdom","key":"CountryName"},{"value":"England","key":"StateName"},{"value":"Surrey","key":"CountyName"}]},"MapReference":{"ReferenceId":"77750569","Spot":1.0,"SideOfStreet":"left","StateId":"20248595","CountyId":"20338357","CityId":"20338450","DistrictId":"20338451"}}},{"Relevance":1.0,"Distance":31.7,"MatchLevel":"street","MatchQuality":{"Country":1.0,"State":1.0,"County":1.0,"City":1.0,"District":1.0,"PostalCode":1.0},"Location":{"LocationId":"NT_yCWjU5CtwdLjV84si4lCyC_l_77750571_R","LocationType":"point","DisplayPosition":{"Latitude":51.2121499,"Longitude":-0.792849},"MapView":{"TopLeft":{"Latitude":51.21215,"Longitude":-0.79285},"BottomRight":{"Latitude":51.21204,"Longitude":-0.79256}},"Address":{"Label":"Farnham, GU9 8, United Kingdom","Country":"GBR","State":"England","County":"Surrey","City":"Farnham","District":"Farnham","PostalCode":"GU9 8","AdditionalData":[{"value":"United Kingdom","key":"CountryName"},{"value":"England","key":"StateName"},{"value":"Surrey","key":"CountyName"}]},"MapReference":{"ReferenceId":"77750571","Spot":1.0,"SideOfStreet":"right","StateId":"20248595","CountyId":"20338357","CityId":"20338450","DistrictId":"20338451"}}},{"Relevance":1.0,"Distance":45.5,"MatchLevel":"street","MatchQuality":{"Country":1.0,"State":1.0,"County":1.0,"City":1.0,"District":1.0,"PostalCode":1.0},"Location":{"LocationId":"NT_yCWjU5CtwdLjV84si4lCyC_l_1032950507_R","LocationType":"point","DisplayPosition":{"Latitude":51.2128297,"Longitude":-0.7929816},"MapView":{"TopLeft":{"Latitude":51.21289,"Longitude":-0.79358},"BottomRight":{"Latitude":51.21256,"Longitude":-0.79284}},"Address":{"Label":"Farnham, GU9 8, United Kingdom","Country":"GBR","State":"England","County":"Surrey","City":"Farnham","District":"Farnham","PostalCode":"GU9 8","AdditionalData":[{"value":"United Kingdom","key":"CountryName"},{"value":"England","key":"StateName"},{"value":"Surrey","key":"CountyName"}]},"MapReference":{"ReferenceId":"1032950507","Spot":0.81,"SideOfStreet":"right","StateId":"20248595","CountyId":"20338357","CityId":"20338450","DistrictId":"20338451"}}},{"Relevance":1.0,"Distance":46.9,"MatchLevel":"houseNumber","MatchQuality":{"Country":1.0,"State":1.0,"County":1.0,"City":1.0,"District":1.0,"Street":[1.0],"HouseNumber":1.0,"PostalCode":1.0},"MatchType":"interpolated","Location":{"LocationId":"NT_ehbk0PcLJfAUzrnzRIRh5D_l_25551788_R_0UD","LocationType":"point","DisplayPosition":{"Latitude":51.21231,"Longitude":-0.79217},"MapView":{"TopLeft":{"Latitude":51.2134342,"Longitude":-0.7939645},"BottomRight":{"Latitude":51.2111859,"Longitude":-0.7903755}},"Address":{"Label":"45 The Fairfield, Farnham, GU9 8, United Kingdom","Country":"GBR","State":"England","County":"Surrey","City":"Farnham","District":"Farnham","Street":"The Fairfield","HouseNumber":"45","PostalCode":"GU9 8","AdditionalData":[{"value":"United Kingdom","key":"CountryName"},{"value":"England","key":"StateName"},{"value":"Surrey","key":"CountyName"}]},"MapReference":{"ReferenceId":"25551788","Spot":0.27,"SideOfStreet":"right","StateId":"20248595","CountyId":"20338357","CityId":"20338450","DistrictId":"20338451"}}}]}]}}