{"Response":{"MetaInfo":{"Timestamp":"2020-03-28T10:31:43.956+0000","NextPageInformation":"2"},"View":[{"_type":"SearchResultsViewType","ViewId":0,"Result":[{"Relevance":1.0,"Distance":0.0,"Direction":0.0,"MatchLevel":"city","MatchQuality":{"Country":1.0,"State":1.0,"County":1.0,"City":1.0,"PostalCode":1.0},"Location":{"LocationId":"NT_N4roP5o50qsTBFPPJeYryB","LocationType":"point","DisplayPosition":{"Latitude":51.2753728,"Longitude":0.1064731},"MapView":{"TopLeft":{"Latitude":51.41797,"Longitude":0.03353},"BottomRight":{"Latitude":51.13178,"Longitude":0.34478}},"Address":{"Label":"Sevenoaks, England, United Kingdom","Country":"GBR","State":"England","County":"Kent","City":"Sevenoaks","PostalCode":"TN13 1","AdditionalData":[{"value":"United Kingdom","key":"CountryName"},{"value":"England","key":"StateName"},{"value":"Kent","key":"CountyName"}]},"MapReference":{"ReferenceId":"25648904","SideOfStreet":"neither","StateId":"20248595","CountyId":"20336836","CityId":"20337298"}}},{"Relevance":1.0,"Distance":52.2,"MatchLevel":"street","MatchQuality":{"Country":1.0,"State":1.0,"County":1.0,"City":1.0,"District":1.0,"Street":[1.0],"PostalCode":1.0},"Location":{"LocationId":"NT_L1kvAi9Uv9uP9Lpef7SlqA_l_781743931_R","LocationType":"point","DisplayPosition":{"Latitude":51.2758403,"Longitude":0.106402},"MapView":{"TopLeft":{"Latitude":51.27591,"Longitude":0.10548},"BottomRight":{"Latitude":51.27576,"Longitude":0.10686}},"Address":{"Label":"High Street, Westerham, TN16 1, United Kingdom","Country":"GBR","State":"England","County":"Kent","City":"Westerham","District":"Brasted","Street":"High Street","PostalCode":"TN16 1","AdditionalData":[{"value":"United Kingdom","key":"CountryName"},{"value":"England","key":"StateName"},{"value":"Kent","key":"CountyName"}]},"MapReference":{"ReferenceId":"781743931","Spot":0.67,"SideOfStreet":"right","StateId":"20248595","CountyId":"20336836","CityId":"20337438","DistrictId":"20337442"}}},{"Relevance":1.0,"Distance":65.5,"MatchLevel":"street","MatchQuality":{"Country":1.0,"State":1.0,"County":1.0,"City":1.0,"District":1.0,"Street":[1.0],"PostalCode":1.0},"Location":{"LocationId":"NT_ytXhlk0dhCfyExeTPEuljD_l_833577405_L","LocationType":"point","DisplayPosition":{"Latitude":51.27591,"Longitude":0.10686},"MapView":{"TopLeft":{"Latitude":51.27679,"Longitude":0.10655},"BottomRight":{"Latitude":51.27591,"Longitude":0.10702}},"Address":{"Label":"Watermill Close, Westerham, TN16 1, United Kingdom","Country":"GBR","State":"England","County":"Kent","City":"Westerham","District":"Brasted","Street":"Watermill Close","PostalCode":"TN16 1","AdditionalData":[{"value":"United Kingdom","key":"CountryName"},{"value":"England","key":"StateName"},{"value":"Kent","key":"CountyName"}]},"MapReference":{"ReferenceId":"833577405","Spot":0.0,"SideOfStreet":"left","StateId":"20248595","CountyId":"20336836","CityId":"20337438","DistrictId":"20337442"}}},{"Relevance":1.0,"Distance":65.5,"MatchLevel":"street","MatchQuality":{"Country":1.0,"State":1.0,"County":1.0,"City":1.0,"District":1.0,"Street":[1.0],"PostalCode":1.0},"Location":{"LocationId":"NT_L1kvAi9Uv9uP9Lpef7SlqA_l_839314835_R","LocationType":"point","DisplayPosition":{"Latitude":51.27591,"Longitude":0.10686},"MapView":{"TopLeft":{"Latitude":51.27595,"Longitude":0.10686},"BottomRight":{"Latitude":51.27591,"Longitude":0.10705}},"Address":{"Label":"High Street, Westerham, TN16 1, United Kingdom","Country":"GBR","State":"England","County":"Kent","City":"Westerham","District":"Brasted","Street":"High Street","PostalCode":"TN16 1","AdditionalData":[{"value":"United Kingdom","key":"CountryName"},{"value":"England","key":"StateName"},{"value":"Kent","key":"CountyName"}]},"MapReference":{"ReferenceId":"839314835","Spot":0.0,"SideOfStreet":"right","StateId":"20248595","CountyId":"20336836","CityId":"20337438","DistrictId":"20337442"}}},{"Relevance":1.0,"Distance":65.5,"MatchLevel":"houseNumber","MatchQuality":{"Country":1.0,"State":1.0,"County":1.0,"City":1.0,"District":1.0,"Street":[1.0],"HouseNumber":1.0,"PostalCode":1.0},"MatchType":"interpolated","Location":{"LocationId":"NT_zoZEUPTdVUUbP9dpINz58C_l_25648290_L_yA","LocationType":"point","DisplayPosition":{"Latitude":51.2754844,"Longitude":0.1076167},"MapView":{"TopLeft":{"Latitude":51.2766085,"Longitude":0.1058197},"BottomRight":{"Latitude":51.2743602,"Longitude":0.1094137}},"Address":{"Label":"2 Chart Lane, Westerham, TN16 1LN, United Kingdom","Country":"GBR","State":"England","County":"Kent","City":"Westerham","District":"Brasted","Street":"Chart Lane","HouseNumber":"2","PostalCode":"TN16 1LN","AdditionalData":[{"value":"United Kingdom","key":"CountryName"},{"value":"England","key":"StateName"},{"value":"Kent","key":"CountyName"}]},"MapReference":{"ReferenceId":"25648290","Spot":0.37,"SideOfStreet":"left","StateId":"20248595","CountyId":"20336836","CityId":"20337438","DistrictId":"20337442"}}},{"Relevance":1.0,"Distance":69.6,"MatchLevel":"postalCode","MatchQuality":{"PostalCode":1.0},"Location":{"LocationId":"NT_L1kvAi9Uv9uP9Lpef7SlqA_l_781743931_R","LocationType":"point","DisplayPosition":{"Latitude":51.27572,"Longitude":0.10564},"MapView":{"TopLeft":{"Latitude":51.2847132,"Longitude":0.091264},"BottomRight":{"Latitude":51.2667268,"Longitude":0.120016}},"Address":{"Label":"TN16 1HU, Westerham, England, United Kingdom","Country":"GBR","State":"England","County":"Kent","City":"Westerham","PostalCode":"TN16 1HU","AdditionalData":[{"value":"United Kingdom","key":"CountryName"},{"value":"England","key":"StateName"},{"value":"Kent","key":"CountyName"}]},"MapReference":{"ReferenceId":"781743931","Spot":0.67,"SideOfStreet":"neither","StateId":"20248595","CountyId":"20336836","CityId":"20337438"}}},{"Relevance":1.0,"Distance":75.7,"MatchLevel":"street","MatchQuality":{"Country":1.0,"State":1.0,"County":1.0,"City":1.0,"District":1.0,"Street":[1.0],"PostalCode":1.0},"Location":{"LocationId":"NT_L1kvAi9Uv9uP9Lpef7SlqA_l_839314836_R","LocationType":"point","DisplayPosition":{"Latitude":51.27595,"Longitude":0.10705},"MapView":{"TopLeft":{"Latitude":51.27603,"Longitude":0.10705},"BottomRight":{"Latitude":51.27595,"Longitude":0.10751}},"Address":{"Label":"High Street, Westerham, TN16 1, United Kingdom","Country":"GBR","State":"England","County":"Kent","City":"Westerham","District":"Brasted","Street":"High Street","PostalCode":"TN16 1","AdditionalData":[{"value":"United Kingdom","key":"CountryName"},{"value":"England","key":"StateName"},{"value":"Kent","key":"CountyName"}]},"MapReference":{"ReferenceId":"839314836","Spot":0.0,"SideOfStreet":"right","StateId":"20248595","CountyId":"20336836","CityId":"20337438","DistrictId":"20337442"}}},{"Relevance":1.0,"Distance":80.0,"MatchLevel":"postalCode","MatchQuality":{"PostalCode":1.0},"MatchType":"interpolated","Location":{"LocationId":"NT_zoZEUPTdVUUbP9dpINz58C_l_25648290_L_yA","LocationType":"point","DisplayPosition":{"Latitude":51.2752,"Longitude":0.10759},"MapView":{"TopLeft":{"Latitude":51.2841932,"Longitude":0.0932142},"BottomRight":{"Latitude":51.2662068,"Longitude":0.1219658}},"Address":{"Label":"TN16 1LN, Westerham, England, United Kingdom","Country":"GBR","State":"England","County":"Kent","City":"Westerham","PostalCode":"TN16 1LN","AdditionalData":[{"value":"United Kingdom","key":"CountryName"},{"value":"England","key":"StateName"},{"value":"Kent","key":"CountyName"}]},"MapReference":{"ReferenceId":"25648290","Spot":0.37,"SideOfStreet":"neither","StateId":"20248595","CountyId":"20336836","CityId":"20337438"}}},{"Relevance":1.0,"Distance":81.4,"MatchLevel":"street","MatchQuality":{"Country":1.0,"State":1.0,"County":1.0,"City":1.0,"District":1.0,"Street":[1.0],"PostalCode":1.0},"Location":{"LocationId":"NT_jpqZU8iaMKUcdblSXZy38C_l_565977952_R","LocationType":"point","DisplayPosition":{"Latitude":51.27576,"Longitude":0.10548},"MapView":{"TopLeft":{"Latitude":51.27576,"Longitude":0.10458},"BottomRight":{"Latitude":51.27553,"Longitude":0.10548}},"Address":{"Label":"High Street, Westerham, TN16 1, United Kingdom","Country":"GBR","State":"England","County":"Kent","City":"Westerham","District":"Brasted","Street":"High Street","PostalCode":"TN16 1","AdditionalData":[{"value":"United Kingdom","key":"CountryName"},{"value":"England","key":"StateName"},{"value":"Kent","key":"CountyName"}]},"MapReference":{"ReferenceId":"565977952","Spot":1.0,"SideOfStreet":"right","StateId":"20248595","CountyId":"20336836","CityId":"20337438","DistrictId":"20337442"}}},{"Relevance":1.0,"Distance":84.0,"MatchLevel":"street","MatchQuality":{"Country":1.0,"State":1.0,"County":1.0,"City":1.0,"District":1.0,"Street":[1.0],"PostalCode":1.0},"Location":{"LocationId":"NT_4QVthZt3a-9qtYY2fFg0-C_l_565977954_R","LocationType":"point","DisplayPosition":{"Latitude":51.27592,"Longitude":0.10564},"MapView":{"TopLeft":{"Latitude":51.27592,"Longitude":0.10546},"BottomRight":{"Latitude":51.27576,"Longitude":0.10564}},"Address":{"Label":"Wilkins Way, Westerham, TN16 1, United Kingdom","Country":"GBR","State":"England","County":"Kent","City":"Westerham","District":"Brasted","Street":"Wilkins Way","PostalCode":"TN16 1","AdditionalData":[{"value":"United Kingdom","key":"CountryName"},{"value":"England","key":"StateName"},{"value":"Kent","key":"CountyName"}]},"MapReference":{"ReferenceId":"565977954","Spot":1.0,"SideOfStreet":"right","StateId":"20248595","CountyId":"20336836","CityId":"20337438","DistrictId":"20337442"}}}]}]}}