{"Response":{"MetaInfo":{"Timestamp":"2020-03-28T10:15:44.966+0000","NextPageInformation":"2"},"View":[{"_type":"SearchResultsViewType","ViewId":0,"Result":[{"Relevance":1.0,"Distance":0.0,"Direction":0.0,"MatchLevel":"district","MatchQuality":{"Country":1.0,"State":1.0,"County":1.0,"City":1.0,"District":1.0,"PostalCode":1.0},"Location":{"LocationId":"NT_-VT4rA6cQNyboAvGBSw7dD","LocationType":"point","DisplayPosition":{"Latitude":51.2302673,"Longitude":3.2075731},"MapView":{"TopLeft":{"Latitude":51.23889,"Longitude":3.18803},"BottomRight":{"Latitude":51.21724,"Longitude":3.22179}},"Address":{"Label":"Sint-Pieters-op-de-Dijk, Brugge, Vlaanderen, België","Country":"BEL","State":"Vlaanderen","County":"West-Vlaanderen","City":"Brugge","District":"Sint-Pieters-op-de-Dijk","PostalCode":"8000","AdditionalData":[{"value":"België","key":"CountryName"},{"value":"Vlaanderen","key":"StateName"},{"value":"West-Vlaanderen","key":"CountyName"}]},"MapReference":{"ReferenceId":"781530826","SideOfStreet":"neither","CountryId":"20128886","StateId":"20204377","CountyId":"20204694","CityId":"20204703","DistrictId":"20204714"}}},{"Relevance":1.0,"Distance":5.4,"MatchLevel":"houseNumber","MatchQuality":{"Country":1.0,"State":1.0,"County":1.0,"City":1.0,"District":1.0,"Street":[1.0],"HouseNumber":1.0,"PostalCode":1.0},"MatchType":"interpolated","Location":{"LocationId":"NT_xyBKUisLePDYfGpH.jMHrB_zA","LocationType":"point","DisplayPosition":{"Latitude":51.23012,"Longitude":3.20774},"MapView":{"TopLeft":{"Latitude":51.2312442,"Longitude":3.2059448},"BottomRight":{"Latitude":51.2289958,"Longitude":3.2095352}},"Address":{"Label":"Sint-Pieterskerklaan 3, 8000 Brugge, België","Country":"BEL","State":"Vlaanderen","County":"West-Vlaanderen","City":"Brugge","District":"Sint-Pieters-op-de-Dijk","Street":"Sint-Pieterskerklaan","HouseNumber":"3","PostalCode":"8000","AdditionalData":[{"value":"België","key":"CountryName"},{"value":"Vlaanderen","key":"StateName"},{"value":"West-Vlaanderen","key":"CountyName"}]},"MapReference":{"ReferenceId":"53971741","Spot":0.77,"SideOfStreet":"left","CountryId":"20128886","StateId":"20204377","CountyId":"20204694","CityId":"20204703","DistrictId":"20204714","AddressId":"400356292","RoadLinkId":"30905497"}}},{"Relevance":1.0,"Distance":20.5,"MatchLevel":"houseNumber","MatchQuality":{"Country":1.0,"State":1.0,"County":1.0,"City":1.0,"District":1.0,"Street":[1.0],"HouseNumber":1.0,"PostalCode":1.0},"MatchType":"interpolated","Location":{"LocationId":"NT_xyBKUisLePDYfGpH.jMHrB_3A","LocationType":"point","DisplayPosition":{"Latitude":51.23018,"Longitude":3.20797},"MapView":{"TopLeft":{"Latitude":51.2313042,"Longitude":3.2061748},"BottomRight":{"Latitude":51.2290558,"Longitude":3.2097652}},"Address":{"Label":"Sint-Pieterskerklaan 7, 8000 Brugge, België","Country":"BEL","State":"Vlaanderen","County":"West-Vlaanderen","City":"Brugge","District":"Sint-Pieters-op-de-Dijk","Street":"Sint-Pieterskerklaan","HouseNumber":"7","PostalCode":"8000","AdditionalData":[{"value":"België","key":"CountryName"},{"value":"Vlaanderen","key":"StateName"},{"value":"West-Vlaanderen","key":"CountyName"}]},"MapReference":{"ReferenceId":"544991248","Spot":0.02,"SideOfStreet":"left","CountryId":"20128886","StateId":"20204377","CountyId":"20204694","CityId":"20204703","DistrictId":"20204714","AddressId":"400636189","RoadLinkId":"30590690"}}},{"Relevance":1.0,"Distance":39.1,"MatchLevel":"houseNumber","MatchQuality":{"Country":1.0,"State":1.0,"County":1.0,"City":1.0,"District":1.0,"Street":[1.0],"HouseNumber":1.0,"PostalCode":1.0},"MatchType":"interpolated","Location":{"LocationId":"NT_p.hL3088Gg8EoSdpfOh7fA_yA","LocationType":"point","DisplayPosition":{"Latitude":51.23003,"Longitude":3.20696},"MapView":{"TopLeft":{"Latitude":51.2311542,"Longitude":3.2051648},"BottomRight":{"Latitude":51.2289058,"Longitude":3.2087552}},"Address":{"Label":"Palingstraat 2, 8000 Brugge, België","Country":"BEL","State":"Vlaanderen","County":"West-Vlaanderen","City":"Brugge","District":"Sint-Pieters-op-de-Dijk","Street":"Palingstraat","HouseNumber":"2","PostalCode":"8000","AdditionalData":[{"value":"België","key":"CountryName"},{"value":"Vlaanderen","key":"StateName"},{"value":"West-Vlaanderen","key":"CountyName"}]},"MapReference":{"ReferenceId":"53971752","Spot":0.35,"SideOfStreet":"right","CountryId":"20128886","StateId":"20204377","CountyId":"20204694","CityId":"20204703","DistrictId":"20204714","AddressId":"400246559","RoadLinkId":"30244547"}}},{"Relevance":1.0,"Distance":45.5,"MatchLevel":"houseNumber","MatchQuality":{"Country":1.0,"State":1.0,"County":1.0,"City":1.0,"District":1.0,"Street":[1.0],"HouseNumber":1.0,"PostalCode":1.0},"MatchType":"interpolated","Location":{"LocationId":"NT_p.hL3088Gg8EoSdpfOh7fA_4A","LocationType":"point","DisplayPosition":{"Latitude":51.23024,"Longitude":3.2067},"MapView":{"TopLeft":{"Latitude":51.2313642,"Longitude":3.2049048},"BottomRight":{"Latitude":51.2291158,"Longitude":3.2084952}},"Address":{"Label":"Palingstraat 10, 8000 Brugge, België","Country":"BEL","State":"Vlaanderen","County":"West-Vlaanderen","City":"Brugge","District":"Sint-Pieters-op-de-Dijk","Street":"Palingstraat","HouseNumber":"10","PostalCode":"8000","AdditionalData":[{"value":"België","key":"CountryName"},{"value":"Vlaanderen","key":"StateName"},{"value":"West-Vlaanderen","key":"CountyName"}]},"MapReference":{"ReferenceId":"53971762","Spot":0.03,"SideOfStreet":"right","CountryId":"20128886","StateId":"20204377","CountyId":"20204694","CityId":"20204703","DistrictId":"20204714","AddressId":"399977562","RoadLinkId":"30561600"}}},{"Relevance":1.0,"Distance":52.8,"MatchLevel":"houseNumber","MatchQuality":{"Country":1.0,"State":1.0,"County":1.0,"City":1.0,"District":1.0,"Street":[1.0],"HouseNumber":1.0,"PostalCode":1.0},"MatchType":"interpolated","Location":{"LocationId":"NT_xyBKUisLePDYfGpH.jMHrB_xAD","LocationType":"point","DisplayPosition":{"Latitude":51.22993,"Longitude":3.20704},"MapView":{"TopLeft":{"Latitude":51.2310542,"Longitude":3.2052448},"BottomRight":{"Latitude":51.2288058,"Longitude":3.2088352}},"Address":{"Label":"Sint-Pieterskerklaan 10, 8000 Brugge, België","Country":"BEL","State":"Vlaanderen","County":"West-Vlaanderen","City":"Brugge","District":"Sint-Pieters-op-de-Dijk","Street":"Sint-Pieterskerklaan","HouseNumber":"10","PostalCode":"8000","AdditionalData":[{"value":"België","key":"CountryName"},{"value":"Vlaanderen","key":"StateName"},{"value":"West-Vlaanderen","key":"CountyName"}]},"MapReference":{"ReferenceId":"53971725","Spot":0.8,"SideOfStreet":"right","CountryId":"20128886","StateId":"20204377","CountyId":"20204694","CityId":"20204703","DistrictId":"20204714","AddressId":"399361837","RoadLinkId":"30324343"}}},{"Relevance":1.0,"Distance":59.9,"MatchLevel":"street","MatchQuality":{"Country":1.0,"State":1.0,"County":1.0,"City":1.0,"District":1.0,"PostalCode":1.0},"Location":{"LocationId":"NT_jd6rHkOF7kjSHmzMZRPE0D_l_1209197134_R","LocationType":"point","DisplayPosition":{"Latitude":51.2302,"Longitude":3.20672},"MapView":{"TopLeft":{"Latitude":51.23107,"Longitude":3.20595},"BottomRight":{"Latitude":51.2302,"Longitude":3.20672}},"Address":{"Label":"8000 Brugge, België","Country":"BEL","State":"Vlaanderen","County":"West-Vlaanderen","City":"Brugge","District":"Sint-Pieters-op-de-Dijk","PostalCode":"8000","AdditionalData":[{"value":"België","key":"CountryName"},{"value":"Vlaanderen","key":"StateName"},{"value":"West-Vlaanderen","key":"CountyName"}]},"MapReference":{"ReferenceId":"1209197134","Spot":0.0,"SideOfStreet":"right","CountryId":"20128886","StateId":"20204377","CountyId":"20204694","CityId":"20204703","DistrictId":"20204714"}}},{"Relevance":1.0,"Distance":61.1,"MatchLevel":"houseNumber","MatchQuality":{"Country":1.0,"State":1.0,"County":1.0,"City":1.0,"District":1.0,"Street":[1.0],"HouseNumber":1.0,"PostalCode":1.0},"MatchType":"interpolated","Location":{"LocationId":"NT_5x1.MFRVK0LrtGFU127y7B_1A","LocationType":"point","DisplayPosition":{"Latitude":51.22989,"Longitude":3.20824},"MapView":{"TopLeft":{"Latitude":51.2310142,"Longitude":3.2064448},"BottomRight":{"Latitude":51.2287658,"Longitude":3.2100352}},"Address":{"Label":"Korte Eriestraat 5, 8000 Brugge, België","Country":"BEL","State":"Vlaanderen","County":"West-Vlaanderen","City":"Brugge","District":"Sint-Pieters-op-de-Dijk","Street":"Korte Eriestraat","HouseNumber":"5","PostalCode":"8000","AdditionalData":[{"value":"België","key":"CountryName"},{"value":"Vlaanderen","key":"StateName"},{"value":"West-Vlaanderen","key":"CountyName"}]},"MapReference":{"ReferenceId":"53971740","Spot":0.55,"SideOfStreet":"left","CountryId":"20128886","StateId":"20204377","CountyId":"20204694","CityId":"20204703","DistrictId":"20204714","AddressId":"399999181","RoadLinkId":"30594572"}}},{"Relevance":1.0,"Distance":62.4,"MatchLevel":"street","MatchQuality":{"Country":1.0,"State":1.0,"County":1.0,"City":1.0,"District":1.0,"Street":[1.0],"PostalCode":1.0},"Location":{"LocationId":"NT_p.hL3088Gg8EoSdpfOh7fA_l_53971728_R","LocationType":"point","DisplayPosition":{"Latitude":51.2299855,"Longitude":3.206798},"MapView":{"TopLeft":{"Latitude":51.2302,"Longitude":3.20672},"BottomRight":{"Latitude":51.22987,"Longitude":3.20684}},"Address":{"Label":"Palingstraat, 8000 Brugge, België","Country":"BEL","State":"Vlaanderen","County":"West-Vlaanderen","City":"Brugge","District":"Sint-Pieters-op-de-Dijk","Street":"Palingstraat","PostalCode":"8000","AdditionalData":[{"value":"België","key":"CountryName"},{"value":"Vlaanderen","key":"StateName"},{"value":"West-Vlaanderen","key":"CountyName"}]},"MapReference":{"ReferenceId":"53971728","Spot":0.35,"SideOfStreet":"right","CountryId":"20128886","StateId":"20204377","CountyId":"20204694","CityId":"20204703","DistrictId":"20204714"}}},{"Relevance":1.0,"Distance":89.1,"MatchLevel":"houseNumber","MatchQuality":{"Country":1.0,"State":1.0,"County":1.0,"City":1.0,"District":1.0,"Street":[1.0],"HouseNumber":1.0,"PostalCode":1.0},"MatchType":"interpolated","Location":{"LocationId":"NT_NQhHtdu5OvDB4UKx5J4q8D_5A","LocationType":"point","DisplayPosition":{"Latitude":51.22932,"Longitude":3.20794},"MapView":{"TopLeft":{"Latitude":51.2304442,"Longitude":3.2061448},"BottomRight":{"Latitude":51.2281958,"Longitude":3.2097352}},"Address":{"Label":"Eriestraat 9, 8000 Brugge, België","Country":"BEL","State":"Vlaanderen","County":"West-Vlaanderen","City":"Brugge","District":"Sint-Pieters-op-de-Dijk","Street":"Eriestraat","HouseNumber":"9","PostalCode":"8000","AdditionalData":[{"value":"België","key":"CountryName"},{"value":"Vlaanderen","key":"StateName"},{"value":"West-Vlaanderen","key":"CountyName"}]},"MapReference":{"ReferenceId":"53971739","Spot":0.34,"SideOfStreet":"left","CountryId":"20128886","StateId":"20204377","CountyId":"20204694","CityId":"20204703","DistrictId":"20204714","AddressId":"400873465","RoadLinkId":"30625684"}}}]}]}}