{"Response":{"MetaInfo":{"Timestamp":"2020-03-28T11:38:43.559+0000","NextPageInformation":"2"},"View":[{"_type":"SearchResultsViewType","ViewId":0,"Result":[{"Relevance":1.0,"Distance":0.0,"Direction":0.0,"MatchLevel":"district","MatchQuality":{"Country":1.0,"State":1.0,"County":1.0,"City":1.0,"District":1.0,"PostalCode":1.0},"Location":{"LocationId":"NT_-VT4rA6cQNyboAvGBSw7dD","LocationType":"point","DisplayPosition":{"Latitude":51.2280895,"Longitude":3.2064691},"MapView":{"TopLeft":{"Latitude":51.23889,"Longitude":3.18803},"BottomRight":{"Latitude":51.21724,"Longitude":3.22179}},"Address":{"Label":"Sint-Pieters-op-de-Dijk, Brugge, Vlaanderen, België","Country":"BEL","State":"Vlaanderen","County":"West-Vlaanderen","City":"Brugge","District":"Sint-Pieters-op-de-Dijk","PostalCode":"8000","AdditionalData":[{"value":"België","key":"CountryName"},{"value":"Vlaanderen","key":"StateName"},{"value":"West-Vlaanderen","key":"CountyName"}]},"MapReference":{"ReferenceId":"781530826","SideOfStreet":"neither","CountryId":"20128886","StateId":"20204377","CountyId":"20204694","CityId":"20204703","DistrictId":"20204714"}}},{"Relevance":1.0,"Distance":9.0,"MatchLevel":"houseNumber","MatchQuality":{"Country":1.0,"State":1.0,"County":1.0,"City":1.0,"District":1.0,"Street":[1.0],"HouseNumber":1.0,"PostalCode":1.0},"MatchType":"interpolated","Location":{"LocationId":"NT_Jbbyjs9G33JEbJj9l.GGdD_xcjM","LocationType":"point","DisplayPosition":{"Latitude":51.22811,"Longitude":3.20626},"MapView":{"TopLeft":{"Latitude":51.2292342,"Longitude":3.2044649},"BottomRight":{"Latitude":51.2269858,"Longitude":3.2080551}},"Address":{"Label":"Blankenbergse Steenweg 172, 8000 Brugge, België","Country":"BEL","State":"Vlaanderen","County":"West-Vlaanderen","City":"Brugge","District":"Sint-Pieters-op-de-Dijk","Street":"Blankenbergse Steenweg","HouseNumber":"172","PostalCode":"8000","AdditionalData":[{"value":"België","key":"CountryName"},{"value":"Vlaanderen","key":"StateName"},{"value":"West-Vlaanderen","key":"CountyName"}]},"MapReference":{"ReferenceId":"1132023592","Spot":0.0,"SideOfStreet":"right","CountryId":"20128886","StateId":"20204377","CountyId":"20204694","CityId":"20204703","DistrictId":"20204714","AddressId":"399949768","RoadLinkId":"441859733"}}},{"Relevance":1.0,"Distance":10.4,"MatchLevel":"houseNumber","MatchQuality":{"Country":1.0,"State":1.0,"County":1.0,"City":1.0,"District":1.0,"Street":[1.0],"HouseNumber":1.0,"PostalCode":1.0},"MatchType":"interpolated","Location":{"LocationId":"NT_Jbbyjs9G33JEbJj9l.GGdD_xcDM","LocationType":"point","DisplayPosition":{"Latitude":51.22801,"Longitude":3.20628},"MapView":{"TopLeft":{"Latitude":51.2291342,"Longitude":3.2044849},"BottomRight":{"Latitude":51.2268858,"Longitude":3.2080751}},"Address":{"Label":"Blankenbergse Steenweg 170, 8000 Brugge, België","Country":"BEL","State":"Vlaanderen","County":"West-Vlaanderen","City":"Brugge","District":"Sint-Pieters-op-de-Dijk","Street":"Blankenbergse Steenweg","HouseNumber":"170","PostalCode":"8000","AdditionalData":[{"value":"België","key":"CountryName"},{"value":"Vlaanderen","key":"StateName"},{"value":"West-Vlaanderen","key":"CountyName"}]},"MapReference":{"ReferenceId":"781530830","Spot":0.61,"SideOfStreet":"right","CountryId":"20128886","StateId":"20204377","CountyId":"20204694","CityId":"20204703","DistrictId":"20204714","AddressId":"400907610","RoadLinkId":"174439051"}}},{"Relevance":1.0,"Distance":29.2,"MatchLevel":"houseNumber","MatchQuality":{"Country":1.0,"State":1.0,"County":1.0,"City":1.0,"District":1.0,"Street":[1.0],"HouseNumber":1.0,"PostalCode":1.0},"MatchType":"interpolated","Location":{"LocationId":"NT_Jbbyjs9G33JEbJj9l.GGdD_xYjN","LocationType":"point","DisplayPosition":{"Latitude":51.22783,"Longitude":3.20628},"MapView":{"TopLeft":{"Latitude":51.2289542,"Longitude":3.2044849},"BottomRight":{"Latitude":51.2267058,"Longitude":3.2080751}},"Address":{"Label":"Blankenbergse Steenweg 166, 8000 Brugge, België","Country":"BEL","State":"Vlaanderen","County":"West-Vlaanderen","City":"Brugge","District":"Sint-Pieters-op-de-Dijk","Street":"Blankenbergse Steenweg","HouseNumber":"166","PostalCode":"8000","AdditionalData":[{"value":"België","key":"CountryName"},{"value":"Vlaanderen","key":"StateName"},{"value":"West-Vlaanderen","key":"CountyName"}]},"MapReference":{"ReferenceId":"781530829","Spot":0.96,"SideOfStreet":"right","CountryId":"20128886","StateId":"20204377","CountyId":"20204694","CityId":"20204703","DistrictId":"20204714","AddressId":"399462676","RoadLinkId":"174439050"}}},{"Relevance":1.0,"Distance":50.1,"MatchLevel":"houseNumber","MatchQuality":{"Country":1.0,"State":1.0,"County":1.0,"City":1.0,"District":1.0,"Street":[1.0],"HouseNumber":1.0,"PostalCode":1.0},"MatchType":"interpolated","Location":{"LocationId":"NT_Jbbyjs9G33JEbJj9l.GGdD_xgjM","LocationType":"point","DisplayPosition":{"Latitude":51.22851,"Longitude":3.20619},"MapView":{"TopLeft":{"Latitude":51.2296342,"Longitude":3.2043948},"BottomRight":{"Latitude":51.2273858,"Longitude":3.2079852}},"Address":{"Label":"Blankenbergse Steenweg 182, 8000 Brugge, België","Country":"BEL","State":"Vlaanderen","County":"West-Vlaanderen","City":"Brugge","District":"Sint-Pieters-op-de-Dijk","Street":"Blankenbergse Steenweg","HouseNumber":"182","PostalCode":"8000","AdditionalData":[{"value":"België","key":"CountryName"},{"value":"Vlaanderen","key":"StateName"},{"value":"West-Vlaanderen","key":"CountyName"}]},"MapReference":{"ReferenceId":"1205334561","Spot":0.12,"SideOfStreet":"right","CountryId":"20128886","StateId":"20204377","CountyId":"20204694","CityId":"20204703","DistrictId":"20204714","AddressId":"399949769","RoadLinkId":"518937824"}}},{"Relevance":1.0,"Distance":61.8,"MatchLevel":"houseNumber","MatchQuality":{"Country":1.0,"State":1.0,"County":1.0,"City":1.0,"District":1.0,"Street":[1.0],"HouseNumber":1.0,"PostalCode":1.0},"MatchType":"interpolated","Location":{"LocationId":"NT_oUvtO234Xwn32HfPNjn84A_xgzM","LocationType":"point","DisplayPosition":{"Latitude":51.22859,"Longitude":3.20717},"MapView":{"TopLeft":{"Latitude":51.2297142,"Longitude":3.2053748},"BottomRight":{"Latitude":51.2274658,"Longitude":3.2089652}},"Address":{"Label":"Sint-Pietersgroenestraat 183, 8000 Brugge, België","Country":"BEL","State":"Vlaanderen","County":"West-Vlaanderen","City":"Brugge","District":"Sint-Pieters-op-de-Dijk","Street":"Sint-Pietersgroenestraat","HouseNumber":"183","PostalCode":"8000","AdditionalData":[{"value":"België","key":"CountryName"},{"value":"Vlaanderen","key":"StateName"},{"value":"West-Vlaanderen","key":"CountyName"}]},"MapReference":{"ReferenceId":"1111871974","Spot":0.76,"SideOfStreet":"left","CountryId":"20128886","StateId":"20204377","CountyId":"20204694","CityId":"20204703","DistrictId":"20204714","AddressId":"399961817","RoadLinkId":"421998126"}}},{"Relevance":1.0,"Distance":97.7,"MatchLevel":"houseNumber","MatchQuality":{"Country":1.0,"State":1.0,"County":1.0,"City":1.0,"District":1.0,"Street":[1.0],"HouseNumber":1.0,"PostalCode":1.0},"MatchType":"interpolated","Location":{"LocationId":"NT_EImCUCximWZjdOGLGLhTTD_xgTN","LocationType":"point","DisplayPosition":{"Latitude":51.22722,"Longitude":3.20627},"MapView":{"TopLeft":{"Latitude":51.2283442,"Longitude":3.2044749},"BottomRight":{"Latitude":51.2260958,"Longitude":3.2080651}},"Address":{"Label":"Blankenbergse Steenweg 185, 8000 Brugge, België","Country":"BEL","State":"Vlaanderen","County":"West-Vlaanderen","City":"Brugge","District":"Sint-Pieters-op-de-Dijk","Street":"Blankenbergse Steenweg","HouseNumber":"185","PostalCode":"8000","AdditionalData":[{"value":"België","key":"CountryName"},{"value":"Vlaanderen","key":"StateName"},{"value":"West-Vlaanderen","key":"CountyName"}]},"MapReference":{"ReferenceId":"781530832","Spot":0.65,"SideOfStreet":"left","CountryId":"20128886","StateId":"20204377","CountyId":"20204694","CityId":"20204703","DistrictId":"20204714","AddressId":"399839348","RoadLinkId":"174439053"}}},{"Relevance":1.0,"Distance":103.6,"MatchLevel":"houseNumber","MatchQuality":{"Country":1.0,"State":1.0,"County":1.0,"City":1.0,"District":1.0,"Street":[1.0],"HouseNumber":1.0,"PostalCode":1.0},"MatchType":"interpolated","Location":{"LocationId":"NT_Jbbyjs9G33JEbJj9l.GGdD_xgDO","LocationType":"point","DisplayPosition":{"Latitude":51.22898,"Longitude":3.20609},"MapView":{"TopLeft":{"Latitude":51.2301042,"Longitude":3.2042948},"BottomRight":{"Latitude":51.2278558,"Longitude":3.2078852}},"Address":{"Label":"Blankenbergse Steenweg 188, 8000 Brugge, België","Country":"BEL","State":"Vlaanderen","County":"West-Vlaanderen","City":"Brugge","District":"Sint-Pieters-op-de-Dijk","Street":"Blankenbergse Steenweg","HouseNumber":"188","PostalCode":"8000","AdditionalData":[{"value":"België","key":"CountryName"},{"value":"Vlaanderen","key":"StateName"},{"value":"West-Vlaanderen","key":"CountyName"}]},"MapReference":{"ReferenceId":"1205334562","Spot":0.58,"SideOfStreet":"right","CountryId":"20128886","StateId":"20204377","CountyId":"20204694","CityId":"20204703","DistrictId":"20204714","AddressId":"399949781","RoadLinkId":"518937825"}}},{"Relevance":1.0,"Distance":112.3,"MatchLevel":"houseNumber","MatchQuality":{"Country":1.0,"State":1.0,"County":1.0,"City":1.0,"District":1.0,"Street":[1.0],"HouseNumber":1.0,"PostalCode":1.0},"MatchType":"interpolated","Location":{"LocationId":"NT_EImCUCximWZjdOGLGLhTTD_xgzM","LocationType":"point","DisplayPosition":{"Latitude":51.22709,"Longitude":3.20624},"MapView":{"TopLeft":{"Latitude":51.2282142,"Longitude":3.2044449},"BottomRight":{"Latitude":51.2259658,"Longitude":3.2080351}},"Address":{"Label":"Blankenbergse Steenweg 183, 8000 Brugge, België","Country":"BEL","State":"Vlaanderen","County":"West-Vlaanderen","City":"Brugge","District":"Sint-Pieters-op-de-Dijk","Street":"Blankenbergse Steenweg","HouseNumber":"183","PostalCode":"8000","AdditionalData":[{"value":"België","key":"CountryName"},{"value":"Vlaanderen","key":"StateName"},{"value":"West-Vlaanderen","key":"CountyName"}]},"MapReference":{"ReferenceId":"819288224","Spot":0.9,"SideOfStreet":"left","CountryId":"20128886","StateId":"20204377","CountyId":"20204694","CityId":"20204703","DistrictId":"20204714","AddressId":"400704653","RoadLinkId":"206418381"}}},{"Relevance":1.0,"Distance":114.9,"MatchLevel":"houseNumber","MatchQuality":{"Country":1.0,"State":1.0,"County":1.0,"City":1.0,"District":1.0,"Street":[1.0],"HouseNumber":1.0,"PostalCode":1.0},"MatchType":"interpolated","Location":{"LocationId":"NT_Jbbyjs9G33JEbJj9l.GGdD_xMDN","LocationType":"point","DisplayPosition":{"Latitude":51.22706,"Longitude":3.20633},"MapView":{"TopLeft":{"Latitude":51.2281842,"Longitude":3.2045349},"BottomRight":{"Latitude":51.2259358,"Longitude":3.2081251}},"Address":{"Label":"Blankenbergse Steenweg 134, 8000 Brugge, België","Country":"BEL","State":"Vlaanderen","County":"West-Vlaanderen","City":"Brugge","District":"Sint-Pieters-op-de-Dijk","Street":"Blankenbergse Steenweg","HouseNumber":"134","PostalCode":"8000","AdditionalData":[{"value":"België","key":"CountryName"},{"value":"Vlaanderen","key":"StateName"},{"value":"West-Vlaanderen","key":"CountyName"}]},"MapReference":{"ReferenceId":"722609532","Spot":0.24,"SideOfStreet":"right","CountryId":"20128886","StateId":"20204377","CountyId":"20204694","CityId":"20204703","DistrictId":"20204714","AddressId":"399343097","RoadLinkId":"126236463"}}}]}]}}