{"Response":{"MetaInfo":{"Timestamp":"2020-03-28T11:56:46.316+0000","NextPageInformation":"2"},"View":[{"_type":"SearchResultsViewType","ViewId":0,"Result":[{"Relevance":1.0,"Distance":0.0,"Direction":0.0,"MatchLevel":"district","MatchQuality":{"Country":1.0,"State":1.0,"County":1.0,"City":1.0,"District":1.0,"PostalCode":1.0},"Location":{"LocationId":"NT_muYoJTeI1pNaNd3djf46ZB","LocationType":"point","DisplayPosition":{"Latitude":51.2477741,"Longitude":1.1234701},"MapView":{"TopLeft":{"Latitude":51.25118,"Longitude":1.11777},"BottomRight":{"Latitude":51.23826,"Longitude":1.13662}},"Address":{"Label":"Bridge, Canterbury, England, United Kingdom","Country":"GBR","State":"England","County":"Kent","City":"Canterbury","District":"Bridge","PostalCode":"CT4 5","AdditionalData":[{"value":"United Kingdom","key":"CountryName"},{"value":"England","key":"StateName"},{"value":"Kent","key":"CountyName"}]},"MapReference":{"ReferenceId":"25649163","SideOfStreet":"neither","StateId":"20248595","CountyId":"20336836","CityId":"20336921","DistrictId":"20336934"}}},{"Relevance":1.0,"Distance":3.2,"MatchLevel":"postalCode","MatchQuality":{"PostalCode":1.0},"MatchType":"interpolated","Location":{"LocationId":"NT_zfAfcXuWc3aN2yfSuRahUD_l_781652483_L_xID","LocationType":"point","DisplayPosition":{"Latitude":51.24776,"Longitude":1.12351},"MapView":{"TopLeft":{"Latitude":51.2567532,"Longitude":1.1091428},"BottomRight":{"Latitude":51.2387668,"Longitude":1.1378772}},"Address":{"Label":"CT4 5JY, Canterbury, England, United Kingdom","Country":"GBR","State":"England","County":"Kent","City":"Canterbury","PostalCode":"CT4 5JY","AdditionalData":[{"value":"United Kingdom","key":"CountryName"},{"value":"England","key":"StateName"},{"value":"Kent","key":"CountyName"}]},"MapReference":{"ReferenceId":"781652483","Spot":0.66,"SideOfStreet":"neither","StateId":"20248595","CountyId":"20336836","CityId":"20336921"}}},{"Relevance":1.0,"Distance":5.9,"MatchLevel":"houseNumber","MatchQuality":{"Country":1.0,"State":1.0,"County":1.0,"City":1.0,"District":1.0,"Street":[1.0],"HouseNumber":1.0,"PostalCode":1.0},"MatchType":"interpolated","Location":{"LocationId":"NT_zfAfcXuWc3aN2yfSuRahUD_l_781652483_L_xID","LocationType":"point","DisplayPosition":{"Latitude":51.2478093,"Longitude":1.1235333},"MapView":{"TopLeft":{"Latitude":51.2489335,"Longitude":1.1217374},"BottomRight":{"Latitude":51.2466852,"Longitude":1.1253292}},"Address":{"Label":"12 High Street, Canterbury, CT4 5JY, United Kingdom","Country":"GBR","State":"England","County":"Kent","City":"Canterbury","District":"Bridge","Street":"High Street","HouseNumber":"12","PostalCode":"CT4 5JY","AdditionalData":[{"value":"United Kingdom","key":"CountryName"},{"value":"England","key":"StateName"},{"value":"Kent","key":"CountyName"}]},"MapReference":{"ReferenceId":"781652483","Spot":0.66,"SideOfStreet":"left","StateId":"20248595","CountyId":"20336836","CityId":"20336921","DistrictId":"20336934"}}},{"Relevance":1.0,"Distance":17.3,"MatchLevel":"houseNumber","MatchQuality":{"Country":1.0,"State":1.0,"County":1.0,"City":1.0,"District":1.0,"Street":[1.0],"HouseNumber":1.0,"PostalCode":1.0},"MatchType":"interpolated","Location":{"LocationId":"NT_zfAfcXuWc3aN2yfSuRahUD_l_25648937_L_xAD","LocationType":"point","DisplayPosition":{"Latitude":51.24797,"Longitude":1.12335},"MapView":{"TopLeft":{"Latitude":51.2490942,"Longitude":1.1215541},"BottomRight":{"Latitude":51.2468459,"Longitude":1.1251459}},"Address":{"Label":"10 High Street, Canterbury, CT4 5JY, United Kingdom","Country":"GBR","State":"England","County":"Kent","City":"Canterbury","District":"Bridge","Street":"High Street","HouseNumber":"10","PostalCode":"CT4 5JY","AdditionalData":[{"value":"United Kingdom","key":"CountryName"},{"value":"England","key":"StateName"},{"value":"Kent","key":"CountyName"}]},"MapReference":{"ReferenceId":"25648937","Spot":0.0,"SideOfStreet":"left","StateId":"20248595","CountyId":"20336836","CityId":"20336921","DistrictId":"20336934"}}},{"Relevance":1.0,"Distance":23.3,"MatchLevel":"street","MatchQuality":{"Country":1.0,"State":1.0,"County":1.0,"City":1.0,"District":1.0,"Street":[1.0],"PostalCode":1.0},"Location":{"LocationId":"NT_t3pj2PD6l2wmaEkOJgjZiC_l_1253503738_R","LocationType":"point","DisplayPosition":{"Latitude":51.24797,"Longitude":1.12335},"MapView":{"TopLeft":{"Latitude":51.24873,"Longitude":1.12335},"BottomRight":{"Latitude":51.24797,"Longitude":1.124}},"Address":{"Label":"Conyngham Lane, Canterbury, CT4 5, United Kingdom","Country":"GBR","State":"England","County":"Kent","City":"Canterbury","District":"Bridge","Street":"Conyngham Lane","PostalCode":"CT4 5","AdditionalData":[{"value":"United Kingdom","key":"CountryName"},{"value":"England","key":"StateName"},{"value":"Kent","key":"CountyName"}]},"MapReference":{"ReferenceId":"1253503738","Spot":0.0,"SideOfStreet":"right","StateId":"20248595","CountyId":"20336836","CityId":"20336921","DistrictId":"20336934"}}},{"Relevance":1.0,"Distance":41.0,"MatchLevel":"houseNumber","MatchQuality":{"Country":1.0,"State":1.0,"County":1.0,"City":1.0,"District":1.0,"Street":[1.0],"HouseNumber":1.0,"PostalCode":1.0},"MatchType":"interpolated","Location":{"LocationId":"NT_WKhDpDugqe-fwZ.NyW2d1D_l_25648975_R_xA","LocationType":"point","DisplayPosition":{"Latitude":51.248022,"Longitude":1.122836},"MapView":{"TopLeft":{"Latitude":51.2491462,"Longitude":1.1210401},"BottomRight":{"Latitude":51.2468979,"Longitude":1.1246319}},"Address":{"Label":"1 Dering Road, Canterbury, CT4 5NA, United Kingdom","Country":"GBR","State":"England","County":"Kent","City":"Canterbury","District":"Bridge","Street":"Dering Road","HouseNumber":"1","PostalCode":"CT4 5NA","AdditionalData":[{"value":"United Kingdom","key":"CountryName"},{"value":"England","key":"StateName"},{"value":"Kent","key":"CountyName"}]},"MapReference":{"ReferenceId":"25648975","Spot":0.67,"SideOfStreet":"right","StateId":"20248595","CountyId":"20336836","CityId":"20336921","DistrictId":"20336934"}}},{"Relevance":1.0,"Distance":52.3,"MatchLevel":"street","MatchQuality":{"Country":1.0,"State":1.0,"County":1.0,"City":1.0,"District":1.0,"Street":[1.0],"PostalCode":1.0},"Location":{"LocationId":"NT_zfAfcXuWc3aN2yfSuRahUD_l_781768323_L","LocationType":"point","DisplayPosition":{"Latitude":51.24818,"Longitude":1.12309},"MapView":{"TopLeft":{"Latitude":51.24897,"Longitude":1.12213},"BottomRight":{"Latitude":51.24818,"Longitude":1.12309}},"Address":{"Label":"High Street, Canterbury, CT4 5, United Kingdom","Country":"GBR","State":"England","County":"Kent","City":"Canterbury","District":"Bridge","Street":"High Street","PostalCode":"CT4 5","AdditionalData":[{"value":"United Kingdom","key":"CountryName"},{"value":"England","key":"StateName"},{"value":"Kent","key":"CountyName"}]},"MapReference":{"ReferenceId":"781768323","Spot":0.0,"SideOfStreet":"left","StateId":"20248595","CountyId":"20336836","CityId":"20336921","DistrictId":"20336934"}}},{"Relevance":1.0,"Distance":57.3,"MatchLevel":"houseNumber","MatchQuality":{"Country":1.0,"State":1.0,"County":1.0,"City":1.0,"District":1.0,"Street":[1.0],"HouseNumber":1.0,"PostalCode":1.0},"MatchType":"interpolated","Location":{"LocationId":"NT_zfAfcXuWc3aN2yfSuRahUD_l_781652482_L_yID","LocationType":"point","DisplayPosition":{"Latitude":51.24739,"Longitude":1.12402},"MapView":{"TopLeft":{"Latitude":51.2485142,"Longitude":1.1222241},"BottomRight":{"Latitude":51.2462659,"Longitude":1.1258159}},"Address":{"Label":"22 High Street, Canterbury, CT4 5JY, United Kingdom","Country":"GBR","State":"England","County":"Kent","City":"Canterbury","District":"Bridge","Street":"High Street","HouseNumber":"22","PostalCode":"CT4 5JY","AdditionalData":[{"value":"United Kingdom","key":"CountryName"},{"value":"England","key":"StateName"},{"value":"Kent","key":"CountyName"}]},"MapReference":{"ReferenceId":"781652482","Spot":0.5,"SideOfStreet":"left","StateId":"20248595","CountyId":"20336836","CityId":"20336921","DistrictId":"20336934"}}},{"Relevance":1.0,"Distance":59.9,"MatchLevel":"houseNumber","MatchQuality":{"Country":1.0,"State":1.0,"County":1.0,"City":1.0,"District":1.0,"Street":[1.0],"HouseNumber":1.0,"PostalCode":1.0},"MatchType":"interpolated","Location":{"LocationId":"NT_WKhDpDugqe-fwZ.NyW2d1D_l_25648996_R_xMD","LocationType":"point","DisplayPosition":{"Latitude":51.24748,"Longitude":1.12255},"MapView":{"TopLeft":{"Latitude":51.2486042,"Longitude":1.1207541},"BottomRight":{"Latitude":51.2463559,"Longitude":1.1243459}},"Address":{"Label":"13 Dering Road, Canterbury, CT4 5NA, United Kingdom","Country":"GBR","State":"England","County":"Kent","City":"Canterbury","District":"Bridge","Street":"Dering Road","HouseNumber":"13","PostalCode":"CT4 5NA","AdditionalData":[{"value":"United Kingdom","key":"CountryName"},{"value":"England","key":"StateName"},{"value":"Kent","key":"CountyName"}]},"MapReference":{"ReferenceId":"25648996","Spot":0.0,"SideOfStreet":"right","StateId":"20248595","CountyId":"20336836","CityId":"20336921","DistrictId":"20336934"}}},{"Relevance":1.0,"Distance":63.0,"MatchLevel":"houseNumber","MatchQuality":{"Country":1.0,"State":1.0,"County":1.0,"City":1.0,"District":1.0,"Street":[1.0],"HouseNumber":1.0,"PostalCode":1.0},"MatchType":"interpolated","Location":{"LocationId":"NT_WKhDpDugqe-fwZ.NyW2d1D_l_25649072_R_xUD","LocationType":"point","DisplayPosition":{"Latitude":51.24725,"Longitude":1.1227267},"MapView":{"TopLeft":{"Latitude":51.2483742,"Longitude":1.1209308},"BottomRight":{"Latitude":51.2461259,"Longitude":1.1245225}},"Address":{"Label":"15 Dering Road, Canterbury, CT4 5NA, United Kingdom","Country":"GBR","State":"England","County":"Kent","City":"Canterbury","District":"Bridge","Street":"Dering Road","HouseNumber":"15","PostalCode":"CT4 5NA","AdditionalData":[{"value":"United Kingdom","key":"CountryName"},{"value":"England","key":"StateName"},{"value":"Kent","key":"CountyName"}]},"MapReference":{"ReferenceId":"25649072","Spot":0.59,"SideOfStreet":"right","StateId":"20248595","CountyId":"20336836","CityId":"20336921","DistrictId":"20336934"}}}]}]}}