{"Response":{"MetaInfo":{"Timestamp":"2020-03-28T10:32:07.242+0000","NextPageInformation":"2"},"View":[{"_type":"SearchResultsViewType","ViewId":0,"Result":[{"Relevance":1.0,"Distance":0.0,"Direction":0.0,"MatchLevel":"district","MatchQuality":{"Country":1.0,"State":1.0,"County":1.0,"City":1.0,"District":1.0,"PostalCode":1.0},"Location":{"LocationId":"NT_bNkss6Y9ijnn1fqbAdaCTD","LocationType":"point","DisplayPosition":{"Latitude":51.267012,"Longitude":-2.2815444},"MapView":{"TopLeft":{"Latitude":51.27094,"Longitude":-2.29045},"BottomRight":{"Latitude":51.25865,"Longitude":-2.27858}},"Address":{"Label":"Beckington, Frome, England, United Kingdom","Country":"GBR","State":"England","County":"Somerset","City":"Frome","District":"Beckington","PostalCode":"BA11 6","AdditionalData":[{"value":"United Kingdom","key":"CountryName"},{"value":"England","key":"StateName"},{"value":"Somerset","key":"CountyName"}]},"MapReference":{"ReferenceId":"26544383","SideOfStreet":"neither","StateId":"20248595","CountyId":"20357053","CityId":"20357232","DistrictId":"20426299"}}},{"Relevance":1.0,"Distance":10.3,"MatchLevel":"street","MatchQuality":{"Country":1.0,"State":1.0,"County":1.0,"City":1.0,"District":1.0,"Street":[1.0],"PostalCode":1.0},"Location":{"LocationId":"NT_.-voYZi9FVaKc5G0IfbnnC_l_26544283_R","LocationType":"point","DisplayPosition":{"Latitude":51.2669278,"Longitude":-2.2816057},"MapView":{"TopLeft":{"Latitude":51.26698,"Longitude":-2.28222},"BottomRight":{"Latitude":51.26649,"Longitude":-2.28128}},"Address":{"Label":"St Lukes Road, Frome, BA11 6, United Kingdom","Country":"GBR","State":"England","County":"Somerset","City":"Frome","District":"Beckington","Street":"St Lukes Road","PostalCode":"BA11 6","AdditionalData":[{"value":"United Kingdom","key":"CountryName"},{"value":"England","key":"StateName"},{"value":"Somerset","key":"CountyName"}]},"MapReference":{"ReferenceId":"26544283","Spot":0.47,"SideOfStreet":"right","StateId":"20248595","CountyId":"20357053","CityId":"20357232","DistrictId":"20426299"}}},{"Relevance":1.0,"Distance":29.1,"MatchLevel":"houseNumber","MatchQuality":{"Country":1.0,"State":1.0,"County":1.0,"City":1.0,"District":1.0,"Street":[1.0],"HouseNumber":1.0,"PostalCode":1.0},"MatchType":"interpolated","Location":{"LocationId":"NT_wd4z.0U436S-aO-6JdB7EA_l_813661849_R_2gD","LocationType":"point","DisplayPosition":{"Latitude":51.267392,"Longitude":-2.2817069},"MapView":{"TopLeft":{"Latitude":51.2685162,"Longitude":-2.2835035},"BottomRight":{"Latitude":51.2662679,"Longitude":-2.2799102}},"Address":{"Label":"68 Goose Street, Frome, BA11 6SS, United Kingdom","Country":"GBR","State":"England","County":"Somerset","City":"Frome","District":"Beckington","Street":"Goose Street","HouseNumber":"68","PostalCode":"BA11 6SS","AdditionalData":[{"value":"United Kingdom","key":"CountryName"},{"value":"England","key":"StateName"},{"value":"Somerset","key":"CountyName"}]},"MapReference":{"ReferenceId":"813661849","Spot":0.51,"SideOfStreet":"right","StateId":"20248595","CountyId":"20357053","CityId":"20357232","DistrictId":"20426299"}}},{"Relevance":1.0,"Distance":47.1,"MatchLevel":"street","MatchQuality":{"Country":1.0,"State":1.0,"County":1.0,"City":1.0,"District":1.0,"Street":[1.0],"PostalCode":1.0},"Location":{"LocationId":"NT_DcYPkM4ZHr3cekRKkFZlPB_l_735405829_R","LocationType":"point","DisplayPosition":{"Latitude":51.26698,"Longitude":-2.28222},"MapView":{"TopLeft":{"Latitude":51.26698,"Longitude":-2.28223},"BottomRight":{"Latitude":51.26667,"Longitude":-2.28222}},"Address":{"Label":"The Lays, Frome, BA11 6, United Kingdom","Country":"GBR","State":"England","County":"Somerset","City":"Frome","District":"Beckington","Street":"The Lays","PostalCode":"BA11 6","AdditionalData":[{"value":"United Kingdom","key":"CountryName"},{"value":"England","key":"StateName"},{"value":"Somerset","key":"CountyName"}]},"MapReference":{"ReferenceId":"735405829","Spot":1.0,"SideOfStreet":"right","StateId":"20248595","CountyId":"20357053","CityId":"20357232","DistrictId":"20426299"}}},{"Relevance":1.0,"Distance":47.1,"MatchLevel":"street","MatchQuality":{"Country":1.0,"State":1.0,"County":1.0,"City":1.0,"District":1.0,"Street":[1.0],"PostalCode":1.0},"Location":{"LocationId":"NT_DcYPkM4ZHr3cekRKkFZlPB_l_26544282_R","LocationType":"point","DisplayPosition":{"Latitude":51.26698,"Longitude":-2.28222},"MapView":{"TopLeft":{"Latitude":51.26731,"Longitude":-2.28233},"BottomRight":{"Latitude":51.26698,"Longitude":-2.28222}},"Address":{"Label":"The Lays, Frome, BA11 6, United Kingdom","Country":"GBR","State":"England","County":"Somerset","City":"Frome","District":"Beckington","Street":"The Lays","PostalCode":"BA11 6","AdditionalData":[{"value":"United Kingdom","key":"CountryName"},{"value":"England","key":"StateName"},{"value":"Somerset","key":"CountyName"}]},"MapReference":{"ReferenceId":"26544282","Spot":0.0,"SideOfStreet":"right","StateId":"20248595","CountyId":"20357053","CityId":"20357232","DistrictId":"20426299"}}},{"Relevance":1.0,"Distance":56.4,"MatchLevel":"postalCode","MatchQuality":{"PostalCode":1.0},"Location":{"LocationId":"NT_.-voYZi9FVaKc5G0IfbnnC_l_26544283_R","LocationType":"point","DisplayPosition":{"Latitude":51.26652,"Longitude":-2.28135},"MapView":{"TopLeft":{"Latitude":51.2755132,"Longitude":-2.2957231},"BottomRight":{"Latitude":51.2575268,"Longitude":-2.2669769}},"Address":{"Label":"BA11 6SE, Frome, England, United Kingdom","Country":"GBR","State":"England","County":"Somerset","City":"Frome","PostalCode":"BA11 6SE","AdditionalData":[{"value":"United Kingdom","key":"CountryName"},{"value":"England","key":"StateName"},{"value":"Somerset","key":"CountyName"}]},"MapReference":{"ReferenceId":"26544283","Spot":0.47,"SideOfStreet":"neither","StateId":"20248595","CountyId":"20357053","CityId":"20357232"}}},{"Relevance":1.0,"Distance":59.8,"MatchLevel":"street","MatchQuality":{"Country":1.0,"State":1.0,"County":1.0,"City":1.0,"District":1.0,"Street":[1.0],"PostalCode":1.0},"Location":{"LocationId":"NT_wd4z.0U436S-aO-6JdB7EA_l_813661850_R","LocationType":"point","DisplayPosition":{"Latitude":51.26748,"Longitude":-2.28112},"MapView":{"TopLeft":{"Latitude":51.2676,"Longitude":-2.28112},"BottomRight":{"Latitude":51.26748,"Longitude":-2.28061}},"Address":{"Label":"Goose Street, Frome, BA11 6, United Kingdom","Country":"GBR","State":"England","County":"Somerset","City":"Frome","District":"Beckington","Street":"Goose Street","PostalCode":"BA11 6","AdditionalData":[{"value":"United Kingdom","key":"CountryName"},{"value":"England","key":"StateName"},{"value":"Somerset","key":"CountyName"}]},"MapReference":{"ReferenceId":"813661850","Spot":0.0,"SideOfStreet":"right","StateId":"20248595","CountyId":"20357053","CityId":"20357232","DistrictId":"20426299"}}},{"Relevance":1.0,"Distance":61.0,"MatchLevel":"street","MatchQuality":{"Country":1.0,"State":1.0,"County":1.0,"City":1.0,"District":1.0,"Street":[1.0],"PostalCode":1.0},"Location":{"LocationId":"NT_DcYPkM4ZHr3cekRKkFZlPB_l_735405830_R","LocationType":"point","DisplayPosition":{"Latitude":51.26667,"Longitude":-2.28223},"MapView":{"TopLeft":{"Latitude":51.26668,"Longitude":-2.28262},"BottomRight":{"Latitude":51.26666,"Longitude":-2.28223}},"Address":{"Label":"The Lays, Frome, BA11 6, United Kingdom","Country":"GBR","State":"England","County":"Somerset","City":"Frome","District":"Beckington","Street":"The Lays","PostalCode":"BA11 6","AdditionalData":[{"value":"United Kingdom","key":"CountryName"},{"value":"England","key":"StateName"},{"value":"Somerset","key":"CountyName"}]},"MapReference":{"ReferenceId":"735405830","Spot":0.0,"SideOfStreet":"right","StateId":"20248595","CountyId":"20357053","CityId":"20357232","DistrictId":"20426299"}}},{"Relevance":1.0,"Distance":61.0,"MatchLevel":"street","MatchQuality":{"Country":1.0,"State":1.0,"County":1.0,"City":1.0,"District":1.0,"Street":[1.0],"PostalCode":1.0},"Location":{"LocationId":"NT_DcYPkM4ZHr3cekRKkFZlPB_l_735405828_R","LocationType":"point","DisplayPosition":{"Latitude":51.26667,"Longitude":-2.28223},"MapView":{"TopLeft":{"Latitude":51.26667,"Longitude":-2.28224},"BottomRight":{"Latitude":51.26656,"Longitude":-2.28223}},"Address":{"Label":"The Lays, Frome, BA11 6, United Kingdom","Country":"GBR","State":"England","County":"Somerset","City":"Frome","District":"Beckington","Street":"The Lays","PostalCode":"BA11 6","AdditionalData":[{"value":"United Kingdom","key":"CountryName"},{"value":"England","key":"StateName"},{"value":"Somerset","key":"CountyName"}]},"MapReference":{"ReferenceId":"735405828","Spot":1.0,"SideOfStreet":"right","StateId":"20248595","CountyId":"20357053","CityId":"20357232","DistrictId":"20426299"}}},{"Relevance":1.0,"Distance":69.8,"MatchLevel":"street","MatchQuality":{"Country":1.0,"State":1.0,"County":1.0,"City":1.0,"District":1.0,"PostalCode":1.0},"Location":{"LocationId":"NT_0OVIdN6lnwYZNdGYmWBvBA_l_735405831_R","LocationType":"point","DisplayPosition":{"Latitude":51.26656,"Longitude":-2.28224},"MapView":{"TopLeft":{"Latitude":51.26656,"Longitude":-2.28229},"BottomRight":{"Latitude":51.26627,"Longitude":-2.28224}},"Address":{"Label":"Frome, BA11 6, United Kingdom","Country":"GBR","State":"England","County":"Somerset","City":"Frome","District":"Beckington","PostalCode":"BA11 6","AdditionalData":[{"value":"United Kingdom","key":"CountryName"},{"value":"England","key":"StateName"},{"value":"Somerset","key":"CountyName"}]},"MapReference":{"ReferenceId":"735405831","Spot":1.0,"SideOfStreet":"right","StateId":"20248595","CountyId":"20357053","CityId":"20357232","DistrictId":"20426299"}}}]}]}}