{"Response":{"MetaInfo":{"Timestamp":"2020-03-28T10:10:04.043+0000","NextPageInformation":"2"},"View":[{"_type":"SearchResultsViewType","ViewId":0,"Result":[{"Relevance":1.0,"Distance":0.0,"Direction":0.0,"MatchLevel":"district","MatchQuality":{"Country":1.0,"State":1.0,"County":1.0,"City":1.0,"District":1.0,"PostalCode":1.0},"Location":{"LocationId":"NT_2GsjlmD9VxyHx1.mjTX9WA","LocationType":"point","DisplayPosition":{"Latitude":51.2068312,"Longitude":-1.4872853},"MapView":{"TopLeft":{"Latitude":51.23299,"Longitude":-1.5323},"BottomRight":{"Latitude":51.19448,"Longitude":-1.44527}},"Address":{"Label":"Andover, England, United Kingdom","Country":"GBR","State":"England","County":"Hampshire","City":"Andover","District":"Andover","PostalCode":"SP10 1","AdditionalData":[{"value":"United Kingdom","key":"CountryName"},{"value":"England","key":"StateName"},{"value":"Hampshire","key":"CountyName"}]},"MapReference":{"ReferenceId":"716759013","SideOfStreet":"neither","StateId":"20248595","CountyId":"20335863","CityId":"20335925","DistrictId":"20335926"}}},{"Relevance":1.0,"Distance":6.0,"MatchLevel":"postalCode","MatchQuality":{"PostalCode":1.0},"MatchType":"interpolated","Location":{"LocationId":"NT_-x4YjKJ-to6PXHYtdUGj-B_l_25706582_R_xAD","LocationType":"point","DisplayPosition":{"Latitude":51.20682,"Longitude":-1.48737},"MapView":{"TopLeft":{"Latitude":51.2158132,"Longitude":-1.5017244},"BottomRight":{"Latitude":51.1978268,"Longitude":-1.4730156}},"Address":{"Label":"SP10 3AA, Andover, England, United Kingdom","Country":"GBR","State":"England","County":"Hampshire","City":"Andover","PostalCode":"SP10 3AA","AdditionalData":[{"value":"United Kingdom","key":"CountryName"},{"value":"England","key":"StateName"},{"value":"Hampshire","key":"CountyName"}]},"MapReference":{"ReferenceId":"25706582","Spot":0.07,"SideOfStreet":"neither","StateId":"20248595","CountyId":"20335863","CityId":"20335925"}}},{"Relevance":1.0,"Distance":6.4,"MatchLevel":"houseNumber","MatchQuality":{"Country":1.0,"State":1.0,"County":1.0,"City":1.0,"District":1.0,"Street":[1.0],"HouseNumber":1.0,"PostalCode":1.0},"MatchType":"interpolated","Location":{"LocationId":"NT_8xIREgXWNpTxDcICQfunaA_l_25706581_R_yA","LocationType":"point","DisplayPosition":{"Latitude":51.20674,"Longitude":-1.4874},"MapView":{"TopLeft":{"Latitude":51.2078642,"Longitude":-1.4891943},"BottomRight":{"Latitude":51.2056159,"Longitude":-1.4856057}},"Address":{"Label":"2 Alexandra Road, Andover, SP10 3AE, United Kingdom","Country":"GBR","State":"England","County":"Hampshire","City":"Andover","District":"Andover","Street":"Alexandra Road","HouseNumber":"2","PostalCode":"SP10 3AE","AdditionalData":[{"value":"United Kingdom","key":"CountryName"},{"value":"England","key":"StateName"},{"value":"Hampshire","key":"CountyName"}]},"MapReference":{"ReferenceId":"25706581","Spot":0.15,"SideOfStreet":"right","StateId":"20248595","CountyId":"20335863","CityId":"20335925","DistrictId":"20335926"}}},{"Relevance":1.0,"Distance":22.3,"MatchLevel":"houseNumber","MatchQuality":{"Country":1.0,"State":1.0,"County":1.0,"City":1.0,"District":1.0,"Street":[1.0],"HouseNumber":1.0,"PostalCode":1.0},"MatchType":"interpolated","Location":{"LocationId":"NT_-x4YjKJ-to6PXHYtdUGj-B_l_25706582_R_xAD","LocationType":"point","DisplayPosition":{"Latitude":51.20661,"Longitude":-1.48758},"MapView":{"TopLeft":{"Latitude":51.2077342,"Longitude":-1.4893743},"BottomRight":{"Latitude":51.2054859,"Longitude":-1.4857857}},"Address":{"Label":"10 Weyhill Road, Andover, SP10 3AA, United Kingdom","Country":"GBR","State":"England","County":"Hampshire","City":"Andover","District":"Andover","Street":"Weyhill Road","HouseNumber":"10","PostalCode":"SP10 3AA","AdditionalData":[{"value":"United Kingdom","key":"CountryName"},{"value":"England","key":"StateName"},{"value":"Hampshire","key":"CountyName"}]},"MapReference":{"ReferenceId":"25706582","Spot":0.07,"SideOfStreet":"right","StateId":"20248595","CountyId":"20335863","CityId":"20335925","DistrictId":"20335926"}}},{"Relevance":1.0,"Distance":23.4,"MatchLevel":"houseNumber","MatchQuality":{"Country":1.0,"State":1.0,"County":1.0,"City":1.0,"District":1.0,"Street":[1.0],"HouseNumber":1.0,"PostalCode":1.0},"MatchType":"interpolated","Location":{"LocationId":"NT_9UYea7tKjPiljph96DOwnA_l_25968763_R_4A","LocationType":"point","DisplayPosition":{"Latitude":51.2065987,"Longitude":-1.4869954},"MapView":{"TopLeft":{"Latitude":51.2077229,"Longitude":-1.4887897},"BottomRight":{"Latitude":51.2054746,"Longitude":-1.4852011}},"Address":{"Label":"8 Weyhill Road, Andover, SP10 3AA, United Kingdom","Country":"GBR","State":"England","County":"Hampshire","City":"Andover","District":"Andover","Street":"Weyhill Road","HouseNumber":"8","PostalCode":"SP10 3AA","AdditionalData":[{"value":"United Kingdom","key":"CountryName"},{"value":"England","key":"StateName"},{"value":"Hampshire","key":"CountyName"}]},"MapReference":{"ReferenceId":"25968763","Spot":0.64,"SideOfStreet":"right","StateId":"20248595","CountyId":"20335863","CityId":"20335925","DistrictId":"20335926"}}},{"Relevance":1.0,"Distance":34.6,"MatchLevel":"postalCode","MatchQuality":{"PostalCode":1.0},"MatchType":"interpolated","Location":{"LocationId":"NT_8xIREgXWNpTxDcICQfunaA_l_25706581_R_yA","LocationType":"point","DisplayPosition":{"Latitude":51.20709,"Longitude":-1.48756},"MapView":{"TopLeft":{"Latitude":51.2160832,"Longitude":-1.5019145},"BottomRight":{"Latitude":51.1980968,"Longitude":-1.4732055}},"Address":{"Label":"SP10 3AE, Andover, England, United Kingdom","Country":"GBR","State":"England","County":"Hampshire","City":"Andover","PostalCode":"SP10 3AE","AdditionalData":[{"value":"United Kingdom","key":"CountryName"},{"value":"England","key":"StateName"},{"value":"Hampshire","key":"CountyName"}]},"MapReference":{"ReferenceId":"25706581","Spot":0.15,"SideOfStreet":"neither","StateId":"20248595","CountyId":"20335863","CityId":"20335925"}}},{"Relevance":1.0,"Distance":52.2,"MatchLevel":"houseNumber","MatchQuality":{"Country":1.0,"State":1.0,"County":1.0,"City":1.0,"District":1.0,"Street":[1.0],"HouseNumber":1.0,"PostalCode":1.0},"MatchType":"interpolated","Location":{"LocationId":"NT_7xYMtIpTClhTTtXL5GbITA_l_25706516_L_xA","LocationType":"point","DisplayPosition":{"Latitude":51.207434,"Longitude":-1.48722},"MapView":{"TopLeft":{"Latitude":51.2085582,"Longitude":-1.4890143},"BottomRight":{"Latitude":51.2063098,"Longitude":-1.4854257}},"Address":{"Label":"1 Osborne Road, Andover, SP10 3HU, United Kingdom","Country":"GBR","State":"England","County":"Hampshire","City":"Andover","District":"Andover","Street":"Osborne Road","HouseNumber":"1","PostalCode":"SP10 3HU","AdditionalData":[{"value":"United Kingdom","key":"CountryName"},{"value":"England","key":"StateName"},{"value":"Hampshire","key":"CountyName"}]},"MapReference":{"ReferenceId":"25706516","Spot":0.7,"SideOfStreet":"left","StateId":"20248595","CountyId":"20335863","CityId":"20335925","DistrictId":"20335926"}}},{"Relevance":1.0,"Distance":64.2,"MatchLevel":"houseNumber","MatchQuality":{"Country":1.0,"State":1.0,"County":1.0,"City":1.0,"District":1.0,"Street":[1.0],"HouseNumber":1.0,"PostalCode":1.0},"MatchType":"interpolated","Location":{"LocationId":"NT_sn0sIapW6uEM0C7kihXDkD_l_946443564_L_2A","LocationType":"point","DisplayPosition":{"Latitude":51.2061225,"Longitude":-1.487272},"MapView":{"TopLeft":{"Latitude":51.2072467,"Longitude":-1.4890662},"BottomRight":{"Latitude":51.2049983,"Longitude":-1.4854777}},"Address":{"Label":"6 Salisbury Road, Andover, SP10 2GJ, United Kingdom","Country":"GBR","State":"England","County":"Hampshire","City":"Andover","District":"Andover","Street":"Salisbury Road","HouseNumber":"6","PostalCode":"SP10 2GJ","AdditionalData":[{"value":"United Kingdom","key":"CountryName"},{"value":"England","key":"StateName"},{"value":"Hampshire","key":"CountyName"}]},"MapReference":{"ReferenceId":"946443564","Spot":0.61,"SideOfStreet":"left","StateId":"20248595","CountyId":"20335863","CityId":"20335925","DistrictId":"20335926"}}},{"Relevance":1.0,"Distance":68.5,"MatchLevel":"street","MatchQuality":{"Country":1.0,"State":1.0,"County":1.0,"City":1.0,"District":1.0,"Street":[1.0],"PostalCode":1.0},"Location":{"LocationId":"NT_sn0sIapW6uEM0C7kihXDkD_l_25706606_L","LocationType":"point","DisplayPosition":{"Latitude":51.20631,"Longitude":-1.48676},"MapView":{"TopLeft":{"Latitude":51.20645,"Longitude":-1.48676},"BottomRight":{"Latitude":51.20631,"Longitude":-1.48634}},"Address":{"Label":"Salisbury Road, Andover, SP10 2, United Kingdom","Country":"GBR","State":"England","County":"Hampshire","City":"Andover","District":"Andover","Street":"Salisbury Road","PostalCode":"SP10 2","AdditionalData":[{"value":"United Kingdom","key":"CountryName"},{"value":"England","key":"StateName"},{"value":"Hampshire","key":"CountyName"}]},"MapReference":{"ReferenceId":"25706606","Spot":0.0,"SideOfStreet":"left","StateId":"20248595","CountyId":"20335863","CityId":"20335925","DistrictId":"20335926"}}},{"Relevance":1.0,"Distance":68.8,"MatchLevel":"street","MatchQuality":{"Country":1.0,"State":1.0,"County":1.0,"City":1.0,"District":1.0,"Street":[1.0],"PostalCode":1.0},"Location":{"LocationId":"NT_sn0sIapW6uEM0C7kihXDkD_l_25706610_L","LocationType":"point","DisplayPosition":{"Latitude":51.20627,"Longitude":-1.48687},"MapView":{"TopLeft":{"Latitude":51.20631,"Longitude":-1.48687},"BottomRight":{"Latitude":51.20627,"Longitude":-1.48676}},"Address":{"Label":"Salisbury Road, Andover, SP10 2, United Kingdom","Country":"GBR","State":"England","County":"Hampshire","City":"Andover","District":"Andover","Street":"Salisbury Road","PostalCode":"SP10 2","AdditionalData":[{"value":"United Kingdom","key":"CountryName"},{"value":"England","key":"StateName"},{"value":"Hampshire","key":"CountyName"}]},"MapReference":{"ReferenceId":"25706610","Spot":0.0,"SideOfStreet":"left","StateId":"20248595","CountyId":"20335863","CityId":"20335925","DistrictId":"20335926"}}}]}]}}