{"Response":{"MetaInfo":{"Timestamp":"2020-03-28T10:32:23.395+0000","NextPageInformation":"2"},"View":[{"_type":"SearchResultsViewType","ViewId":0,"Result":[{"Relevance":1.0,"Distance":0.0,"Direction":0.0,"MatchLevel":"district","MatchQuality":{"Country":1.0,"State":1.0,"County":1.0,"City":1.0,"District":1.0,"PostalCode":1.0},"Location":{"LocationId":"NT_Bk.I77Pf-4plhWdB20PRpA","LocationType":"point","DisplayPosition":{"Latitude":51.2890694,"Longitude":0.3034361},"MapView":{"TopLeft":{"Latitude":51.2974,"Longitude":0.29706},"BottomRight":{"Latitude":51.28425,"Longitude":0.33078}},"Address":{"Label":"Borough Green, Sevenoaks, England, United Kingdom","Country":"GBR","State":"England","County":"Kent","City":"Sevenoaks","District":"Borough Green","PostalCode":"TN15 8","AdditionalData":[{"value":"United Kingdom","key":"CountryName"},{"value":"England","key":"StateName"},{"value":"Kent","key":"CountyName"}]},"MapReference":{"ReferenceId":"25645460","SideOfStreet":"neither","StateId":"20248595","CountyId":"20336836","CityId":"20337298","DistrictId":"20337302"}}},{"Relevance":1.0,"Distance":49.7,"MatchLevel":"houseNumber","MatchQuality":{"Country":1.0,"State":1.0,"County":1.0,"City":1.0,"District":1.0,"Street":[1.0],"HouseNumber":1.0,"PostalCode":1.0},"MatchType":"interpolated","Location":{"LocationId":"NT_yBvZ6Q8B5vYqdhWSOqe7lD_l_25645629_L_4A","LocationType":"point","DisplayPosition":{"Latitude":51.2896139,"Longitude":0.3037446},"MapView":{"TopLeft":{"Latitude":51.2907381,"Longitude":0.301947},"BottomRight":{"Latitude":51.2884898,"Longitude":0.3055421}},"Address":{"Label":"8 Harrison Road, Sevenoaks, TN15 8, United Kingdom","Country":"GBR","State":"England","County":"Kent","City":"Sevenoaks","District":"Borough Green","Street":"Harrison Road","HouseNumber":"8","PostalCode":"TN15 8","AdditionalData":[{"value":"United Kingdom","key":"CountryName"},{"value":"England","key":"StateName"},{"value":"Kent","key":"CountyName"}]},"MapReference":{"ReferenceId":"25645629","Spot":0.62,"SideOfStreet":"left","StateId":"20248595","CountyId":"20336836","CityId":"20337298","DistrictId":"20337302"}}},{"Relevance":1.0,"Distance":61.9,"MatchLevel":"street","MatchQuality":{"Country":1.0,"State":1.0,"County":1.0,"City":1.0,"District":1.0,"Street":[1.0],"PostalCode":1.0},"Location":{"LocationId":"NT_NOSVRvFSRBwKwbE7iffLAD_l_25645710_R","LocationType":"point","DisplayPosition":{"Latitude":51.28933,"Longitude":0.30265},"MapView":{"TopLeft":{"Latitude":51.28933,"Longitude":0.3025},"BottomRight":{"Latitude":51.28898,"Longitude":0.30265}},"Address":{"Label":"Quarry Hill Road, Sevenoaks, TN15 8, United Kingdom","Country":"GBR","State":"England","County":"Kent","City":"Sevenoaks","District":"Borough Green","Street":"Quarry Hill Road","PostalCode":"TN15 8","AdditionalData":[{"value":"United Kingdom","key":"CountryName"},{"value":"England","key":"StateName"},{"value":"Kent","key":"CountyName"}]},"MapReference":{"ReferenceId":"25645710","Spot":1.0,"SideOfStreet":"right","StateId":"20248595","CountyId":"20336836","CityId":"20337298","DistrictId":"20337302"}}},{"Relevance":1.0,"Distance":62.1,"MatchLevel":"street","MatchQuality":{"Country":1.0,"State":1.0,"County":1.0,"City":1.0,"District":1.0,"PostalCode":1.0},"Location":{"LocationId":"NT_n3FqxFdMzClTup7frlgfDD_l_25645751_R","LocationType":"point","DisplayPosition":{"Latitude":51.28883,"Longitude":0.30263},"MapView":{"TopLeft":{"Latitude":51.28898,"Longitude":0.3025},"BottomRight":{"Latitude":51.28871,"Longitude":0.30263}},"Address":{"Label":"Sevenoaks, TN15 8, United Kingdom","Country":"GBR","State":"England","County":"Kent","City":"Sevenoaks","District":"Borough Green","PostalCode":"TN15 8","AdditionalData":[{"value":"United Kingdom","key":"CountryName"},{"value":"England","key":"StateName"},{"value":"Kent","key":"CountyName"}]},"MapReference":{"ReferenceId":"25645751","Spot":0.46,"SideOfStreet":"right","StateId":"20248595","CountyId":"20336836","CityId":"20337298","DistrictId":"20337302"}}},{"Relevance":1.0,"Distance":65.9,"MatchLevel":"street","MatchQuality":{"Country":1.0,"State":1.0,"County":1.0,"City":1.0,"District":1.0,"PostalCode":1.0},"Location":{"LocationId":"NT_n3FqxFdMzClTup7frlgfDD_l_25645731_L","LocationType":"point","DisplayPosition":{"Latitude":51.28898,"Longitude":0.3025},"MapView":{"TopLeft":{"Latitude":51.28899,"Longitude":0.30214},"BottomRight":{"Latitude":51.2889,"Longitude":0.3025}},"Address":{"Label":"Sevenoaks, TN15 8, United Kingdom","Country":"GBR","State":"England","County":"Kent","City":"Sevenoaks","District":"Borough Green","PostalCode":"TN15 8","AdditionalData":[{"value":"United Kingdom","key":"CountryName"},{"value":"England","key":"StateName"},{"value":"Kent","key":"CountyName"}]},"MapReference":{"ReferenceId":"25645731","Spot":1.0,"SideOfStreet":"left","StateId":"20248595","CountyId":"20336836","CityId":"20337298","DistrictId":"20337302"}}},{"Relevance":1.0,"Distance":70.9,"MatchLevel":"houseNumber","MatchQuality":{"Country":1.0,"State":1.0,"County":1.0,"City":1.0,"District":1.0,"Street":[1.0],"HouseNumber":1.0,"PostalCode":1.0},"MatchType":"interpolated","Location":{"LocationId":"NT_NOSVRvFSRBwKwbE7iffLAD_l_25645660_L_zgD","LocationType":"point","DisplayPosition":{"Latitude":51.2895584,"Longitude":0.3027819},"MapView":{"TopLeft":{"Latitude":51.2906825,"Longitude":0.3009844},"BottomRight":{"Latitude":51.2884342,"Longitude":0.3045795}},"Address":{"Label":"38 Quarry Hill Road, Sevenoaks, TN15 8RH, United Kingdom","Country":"GBR","State":"England","County":"Kent","City":"Sevenoaks","District":"Borough Green","Street":"Quarry Hill Road","HouseNumber":"38","PostalCode":"TN15 8RH","AdditionalData":[{"value":"United Kingdom","key":"CountryName"},{"value":"England","key":"StateName"},{"value":"Kent","key":"CountyName"}]},"MapReference":{"ReferenceId":"25645660","Spot":0.49,"SideOfStreet":"left","StateId":"20248595","CountyId":"20336836","CityId":"20337298","DistrictId":"20337302"}}},{"Relevance":1.0,"Distance":73.2,"MatchLevel":"houseNumber","MatchQuality":{"Country":1.0,"State":1.0,"County":1.0,"City":1.0,"District":1.0,"Street":[1.0],"HouseNumber":1.0,"PostalCode":1.0},"MatchType":"interpolated","Location":{"LocationId":"NT_84rBEezy.QVCQOkSaRxJEA_l_25645661_L_yUD","LocationType":"point","DisplayPosition":{"Latitude":51.28935,"Longitude":0.30243},"MapView":{"TopLeft":{"Latitude":51.2904742,"Longitude":0.3006324},"BottomRight":{"Latitude":51.2882259,"Longitude":0.3042275}},"Address":{"Label":"25 Conyerd Road, Sevenoaks, TN15 8, United Kingdom","Country":"GBR","State":"England","County":"Kent","City":"Sevenoaks","District":"Borough Green","Street":"Conyerd Road","HouseNumber":"25","PostalCode":"TN15 8","AdditionalData":[{"value":"United Kingdom","key":"CountryName"},{"value":"England","key":"StateName"},{"value":"Kent","key":"CountyName"}]},"MapReference":{"ReferenceId":"25645661","Spot":0.09,"SideOfStreet":"left","StateId":"20248595","CountyId":"20336836","CityId":"20337298","DistrictId":"20337302"}}},{"Relevance":1.0,"Distance":74.9,"MatchLevel":"postalCode","MatchQuality":{"PostalCode":1.0},"MatchType":"interpolated","Location":{"LocationId":"NT_yBvZ6Q8B5vYqdhWSOqe7lD_l_25645629_L_4A","LocationType":"point","DisplayPosition":{"Latitude":51.28959,"Longitude":0.30412},"MapView":{"TopLeft":{"Latitude":51.2985832,"Longitude":0.2897397},"BottomRight":{"Latitude":51.2805968,"Longitude":0.3185003}},"Address":{"Label":"TN15 8RU, Sevenoaks, England, United Kingdom","Country":"GBR","State":"England","County":"Kent","City":"Sevenoaks","PostalCode":"TN15 8RU","AdditionalData":[{"value":"United Kingdom","key":"CountryName"},{"value":"England","key":"StateName"},{"value":"Kent","key":"CountyName"}]},"MapReference":{"ReferenceId":"25645629","Spot":0.62,"SideOfStreet":"neither","StateId":"20248595","CountyId":"20336836","CityId":"20337298"}}},{"Relevance":1.0,"Distance":76.4,"MatchLevel":"street","MatchQuality":{"Country":1.0,"State":1.0,"County":1.0,"City":1.0,"District":1.0,"Street":[1.0],"PostalCode":1.0},"Location":{"LocationId":"NT_4Wo38u4bHyzYiLq6i9H-mC_l_25645806_R","LocationType":"point","DisplayPosition":{"Latitude":51.28871,"Longitude":0.3025},"MapView":{"TopLeft":{"Latitude":51.28871,"Longitude":0.30229},"BottomRight":{"Latitude":51.28826,"Longitude":0.3025}},"Address":{"Label":"Thong Lane, Sevenoaks, TN15 8, United Kingdom","Country":"GBR","State":"England","County":"Kent","City":"Sevenoaks","District":"Borough Green","Street":"Thong Lane","PostalCode":"TN15 8","AdditionalData":[{"value":"United Kingdom","key":"CountryName"},{"value":"England","key":"StateName"},{"value":"Kent","key":"CountyName"}]},"MapReference":{"ReferenceId":"25645806","Spot":1.0,"SideOfStreet":"right","StateId":"20248595","CountyId":"20336836","CityId":"20337298","DistrictId":"20337302"}}},{"Relevance":1.0,"Distance":76.4,"MatchLevel":"street","MatchQuality":{"Country":1.0,"State":1.0,"County":1.0,"City":1.0,"District":1.0,"PostalCode":1.0},"Location":{"LocationId":"NT_n3FqxFdMzClTup7frlgfDD_l_1142241839_R","LocationType":"point","DisplayPosition":{"Latitude":51.28871,"Longitude":0.3025},"MapView":{"TopLeft":{"Latitude":51.28876,"Longitude":0.30223},"BottomRight":{"Latitude":51.2887,"Longitude":0.3025}},"Address":{"Label":"Sevenoaks, TN15 8, United Kingdom","Country":"GBR","State":"England","County":"Kent","City":"Sevenoaks","District":"Borough Green","PostalCode":"TN15 8","AdditionalData":[{"value":"United Kingdom","key":"CountryName"},{"value":"England","key":"StateName"},{"value":"Kent","key":"CountyName"}]},"MapReference":{"ReferenceId":"1142241839","Spot":0.0,"SideOfStreet":"right","StateId":"20248595","CountyId":"20336836","CityId":"20337298","DistrictId":"20337302"}}}]}]}}