{"Response":{"MetaInfo":{"Timestamp":"2020-03-28T10:45:43.443+0000","NextPageInformation":"2"},"View":[{"_type":"SearchResultsViewType","ViewId":0,"Result":[{"Relevance":1.0,"Distance":0.0,"Direction":0.0,"MatchLevel":"district","MatchQuality":{"Country":1.0,"State":1.0,"County":1.0,"City":1.0,"District":1.0,"PostalCode":1.0},"Location":{"LocationId":"NT_d8RUxd4cMTjN5jhL2zSz2B","LocationType":"point","DisplayPosition":{"Latitude":51.2071575,"Longitude":17.3878912},"MapView":{"TopLeft":{"Latitude":51.22905,"Longitude":17.35152},"BottomRight":{"Latitude":51.19004,"Longitude":17.43055}},"Address":{"Label":"Oleśnica, Woj. Dolnośląskie, Polska","Country":"POL","State":"Woj. Dolnośląskie","County":"Powiat Oleśnicki","City":"Oleśnica","District":"Oleśnica","PostalCode":"56-400","AdditionalData":[{"value":"Polska","key":"CountryName"},{"value":"Woj. Dolnośląskie","key":"StateName"},{"value":"Powiat Oleśnicki","key":"CountyName"}]},"MapReference":{"ReferenceId":"1113824266","SideOfStreet":"neither","CountryId":"20624059","StateId":"20625002","CountyId":"20625205","CityId":"20680686","DistrictId":"20680687"}}},{"Relevance":1.0,"Distance":9.4,"MatchLevel":"houseNumber","MatchQuality":{"Country":1.0,"State":1.0,"County":1.0,"City":1.0,"District":1.0,"Street":[1.0],"HouseNumber":1.0,"PostalCode":1.0},"MatchType":"interpolated","Location":{"LocationId":"NT_Rppyrq8gWxrNc7IWW8GHRB_yME","LocationType":"point","DisplayPosition":{"Latitude":51.20757,"Longitude":17.38836},"MapView":{"TopLeft":{"Latitude":51.2086942,"Longitude":17.3865657},"BottomRight":{"Latitude":51.2064458,"Longitude":17.3901543}},"Address":{"Label":"ulica Bolesława Krzywoustego 2C, 56-400 Oleśnica, Polska","Country":"POL","State":"Woj. Dolnośląskie","County":"Powiat Oleśnicki","City":"Oleśnica","District":"Oleśnica","Street":"ulica Bolesława Krzywoustego","HouseNumber":"2C","PostalCode":"56-400","AdditionalData":[{"value":"Polska","key":"CountryName"},{"value":"Woj. Dolnośląskie","key":"StateName"},{"value":"Powiat Oleśnicki","key":"CountyName"}]},"MapReference":{"ReferenceId":"1114453710","Spot":0.16,"SideOfStreet":"left","CountryId":"20624059","StateId":"20625002","CountyId":"20625205","CityId":"20680686","DistrictId":"20680687","AddressId":"701647565","RoadLinkId":"424403027"}}},{"Relevance":1.0,"Distance":21.2,"MatchLevel":"houseNumber","MatchQuality":{"Country":1.0,"State":1.0,"County":1.0,"City":1.0,"District":1.0,"Street":[1.0],"HouseNumber":1.0,"PostalCode":1.0},"MatchType":"interpolated","Location":{"LocationId":"NT_wsRfWWuyfPr5jdLE8t763B_yEE","LocationType":"point","DisplayPosition":{"Latitude":51.2072,"Longitude":17.38868},"MapView":{"TopLeft":{"Latitude":51.2083242,"Longitude":17.3868857},"BottomRight":{"Latitude":51.2060758,"Longitude":17.3904743}},"Address":{"Label":"ulica Ignacego Daszyńskiego 2A, 56-400 Oleśnica, Polska","Country":"POL","State":"Woj. Dolnośląskie","County":"Powiat Oleśnicki","City":"Oleśnica","District":"Oleśnica","Street":"ulica Ignacego Daszyńskiego","HouseNumber":"2A","PostalCode":"56-400","AdditionalData":[{"value":"Polska","key":"CountryName"},{"value":"Woj. Dolnośląskie","key":"StateName"},{"value":"Powiat Oleśnicki","key":"CountyName"}]},"MapReference":{"ReferenceId":"778963648","Spot":0.83,"SideOfStreet":"left","CountryId":"20624059","StateId":"20625002","CountyId":"20625205","CityId":"20680686","DistrictId":"20680687","AddressId":"771096395","RoadLinkId":"172445887"}}},{"Relevance":1.0,"Distance":30.5,"MatchLevel":"houseNumber","MatchQuality":{"Country":1.0,"State":1.0,"County":1.0,"City":1.0,"District":1.0,"Street":[1.0],"HouseNumber":1.0,"PostalCode":1.0},"MatchType":"interpolated","Location":{"LocationId":"NT_Rppyrq8gWxrNc7IWW8GHRB_yEE","LocationType":"point","DisplayPosition":{"Latitude":51.20778,"Longitude":17.38781},"MapView":{"TopLeft":{"Latitude":51.2089042,"Longitude":17.3860157},"BottomRight":{"Latitude":51.2066558,"Longitude":17.3896043}},"Address":{"Label":"ulica Bolesława Krzywoustego 2A, 56-400 Oleśnica, Polska","Country":"POL","State":"Woj. Dolnośląskie","County":"Powiat Oleśnicki","City":"Oleśnica","District":"Oleśnica","Street":"ulica Bolesława Krzywoustego","HouseNumber":"2A","PostalCode":"56-400","AdditionalData":[{"value":"Polska","key":"CountryName"},{"value":"Woj. Dolnośląskie","key":"StateName"},{"value":"Powiat Oleśnicki","key":"CountyName"}]},"MapReference":{"ReferenceId":"594183634","Spot":0.0,"SideOfStreet":"left","CountryId":"20624059","StateId":"20625002","CountyId":"20625205","CityId":"20680686","DistrictId":"20680687","AddressId":"701629889","RoadLinkId":"96145392"}}},{"Relevance":1.0,"Distance":68.8,"MatchLevel":"houseNumber","MatchQuality":{"Country":1.0,"State":1.0,"County":1.0,"City":1.0,"District":1.0,"Street":[1.0],"HouseNumber":1.0,"PostalCode":1.0},"MatchType":"interpolated","Location":{"LocationId":"NT_pDlYfgTZwMGfqdrtA870ZC_yA","LocationType":"point","DisplayPosition":{"Latitude":51.20779,"Longitude":17.38656},"MapView":{"TopLeft":{"Latitude":51.2089142,"Longitude":17.3847657},"BottomRight":{"Latitude":51.2066658,"Longitude":17.3883543}},"Address":{"Label":"ulica Kazimierza Wielkiego 2, 56-400 Oleśnica, Polska","Country":"POL","State":"Woj. Dolnośląskie","County":"Powiat Oleśnicki","City":"Oleśnica","District":"Oleśnica","Street":"ulica Kazimierza Wielkiego","HouseNumber":"2","PostalCode":"56-400","AdditionalData":[{"value":"Polska","key":"CountryName"},{"value":"Woj. Dolnośląskie","key":"StateName"},{"value":"Powiat Oleśnicki","key":"CountyName"}]},"MapReference":{"ReferenceId":"594183887","Spot":0.62,"SideOfStreet":"right","CountryId":"20624059","StateId":"20625002","CountyId":"20625205","CityId":"20680686","DistrictId":"20680687","AddressId":"731749288","RoadLinkId":"96185870"}}},{"Relevance":1.0,"Distance":91.4,"MatchLevel":"houseNumber","MatchQuality":{"Country":1.0,"State":1.0,"County":1.0,"City":1.0,"District":1.0,"Street":[1.0],"HouseNumber":1.0,"PostalCode":1.0},"MatchType":"interpolated","Location":{"LocationId":"NT_Rppyrq8gWxrNc7IWW8GHRB_0A","LocationType":"point","DisplayPosition":{"Latitude":51.20731,"Longitude":17.38925},"MapView":{"TopLeft":{"Latitude":51.2084342,"Longitude":17.3874557},"BottomRight":{"Latitude":51.2061858,"Longitude":17.3910443}},"Address":{"Label":"ulica Bolesława Krzywoustego 4, 56-400 Oleśnica, Polska","Country":"POL","State":"Woj. Dolnośląskie","County":"Powiat Oleśnicki","City":"Oleśnica","District":"Oleśnica","Street":"ulica Bolesława Krzywoustego","HouseNumber":"4","PostalCode":"56-400","AdditionalData":[{"value":"Polska","key":"CountryName"},{"value":"Woj. Dolnośląskie","key":"StateName"},{"value":"Powiat Oleśnicki","key":"CountyName"}]},"MapReference":{"ReferenceId":"1114202788","Spot":0.8,"SideOfStreet":"left","CountryId":"20624059","StateId":"20625002","CountyId":"20625205","CityId":"20680686","DistrictId":"20680687","AddressId":"701647515","RoadLinkId":"424145498"}}},{"Relevance":1.0,"Distance":92.0,"MatchLevel":"houseNumber","MatchQuality":{"Country":1.0,"State":1.0,"County":1.0,"City":1.0,"District":1.0,"Street":[1.0],"HouseNumber":1.0,"PostalCode":1.0},"MatchType":"interpolated","Location":{"LocationId":"NT_NCYKUIf.KSM365dSGtmNdC_yAD","LocationType":"point","DisplayPosition":{"Latitude":51.2062,"Longitude":17.38745},"MapView":{"TopLeft":{"Latitude":51.2073242,"Longitude":17.3856557},"BottomRight":{"Latitude":51.2050758,"Longitude":17.3892443}},"Address":{"Label":"ulica gen. Józefa Hallera 20, 56-400 Oleśnica, Polska","Country":"POL","State":"Woj. Dolnośląskie","County":"Powiat Oleśnicki","City":"Oleśnica","District":"Oleśnica","Street":"ulica gen. Józefa Hallera","HouseNumber":"20","PostalCode":"56-400","AdditionalData":[{"value":"Polska","key":"CountryName"},{"value":"Woj. Dolnośląskie","key":"StateName"},{"value":"Powiat Oleśnicki","key":"CountyName"}]},"MapReference":{"ReferenceId":"779271984","Spot":0.65,"SideOfStreet":"right","CountryId":"20624059","StateId":"20625002","CountyId":"20625205","CityId":"20680686","DistrictId":"20680687","AddressId":"222249607","RoadLinkId":"172752210"}}},{"Relevance":1.0,"Distance":120.2,"MatchLevel":"street","MatchQuality":{"Country":1.0,"State":1.0,"County":1.0,"City":1.0,"District":1.0,"Street":[1.0],"PostalCode":1.0},"Location":{"LocationId":"NT_NCYKUIf.KSM365dSGtmNdC_l_779271985_R","LocationType":"point","DisplayPosition":{"Latitude":51.20651,"Longitude":17.38651},"MapView":{"TopLeft":{"Latitude":51.20656,"Longitude":17.3863},"BottomRight":{"Latitude":51.20651,"Longitude":17.38651}},"Address":{"Label":"ulica gen. Józefa Hallera, 56-400 Oleśnica, Polska","Country":"POL","State":"Woj. Dolnośląskie","County":"Powiat Oleśnicki","City":"Oleśnica","District":"Oleśnica","Street":"ulica gen. Józefa Hallera","PostalCode":"56-400","AdditionalData":[{"value":"Polska","key":"CountryName"},{"value":"Woj. Dolnośląskie","key":"StateName"},{"value":"Powiat Oleśnicki","key":"CountyName"}]},"MapReference":{"ReferenceId":"779271985","Spot":0.0,"SideOfStreet":"right","CountryId":"20624059","StateId":"20625002","CountyId":"20625205","CityId":"20680686","DistrictId":"20680687"}}},{"Relevance":1.0,"Distance":125.8,"MatchLevel":"houseNumber","MatchQuality":{"Country":1.0,"State":1.0,"County":1.0,"City":1.0,"District":1.0,"Street":[1.0],"HouseNumber":1.0,"PostalCode":1.0},"MatchType":"interpolated","Location":{"LocationId":"NT_NCYKUIf.KSM365dSGtmNdC_yED","LocationType":"point","DisplayPosition":{"Latitude":51.20661,"Longitude":17.38613},"MapView":{"TopLeft":{"Latitude":51.2077342,"Longitude":17.3843357},"BottomRight":{"Latitude":51.2054858,"Longitude":17.3879243}},"Address":{"Label":"ulica gen. Józefa Hallera 21, 56-400 Oleśnica, Polska","Country":"POL","State":"Woj. Dolnośląskie","County":"Powiat Oleśnicki","City":"Oleśnica","District":"Oleśnica","Street":"ulica gen. Józefa Hallera","HouseNumber":"21","PostalCode":"56-400","AdditionalData":[{"value":"Polska","key":"CountryName"},{"value":"Woj. Dolnośląskie","key":"StateName"},{"value":"Powiat Oleśnicki","key":"CountyName"}]},"MapReference":{"ReferenceId":"949821223","Spot":0.25,"SideOfStreet":"right","CountryId":"20624059","StateId":"20625002","CountyId":"20625205","CityId":"20680686","DistrictId":"20680687","AddressId":"701643021","RoadLinkId":"296802276"}}},{"Relevance":1.0,"Distance":155.5,"MatchLevel":"houseNumber","MatchQuality":{"Country":1.0,"State":1.0,"County":1.0,"City":1.0,"District":1.0,"Street":[1.0],"HouseNumber":1.0,"PostalCode":1.0},"MatchType":"interpolated","Location":{"LocationId":"NT_j0p2x8N0KlXhlYfEugdrKB_yAD","LocationType":"point","DisplayPosition":{"Latitude":51.20628,"Longitude":17.3861},"MapView":{"TopLeft":{"Latitude":51.2074042,"Longitude":17.3843057},"BottomRight":{"Latitude":51.2051558,"Longitude":17.3878943}},"Address":{"Label":"ulica Małopolna 20, 56-400 Oleśnica, Polska","Country":"POL","State":"Woj. Dolnośląskie","County":"Powiat Oleśnicki","City":"Oleśnica","District":"Oleśnica","Street":"ulica Małopolna","HouseNumber":"20","PostalCode":"56-400","AdditionalData":[{"value":"Polska","key":"CountryName"},{"value":"Woj. Dolnośląskie","key":"StateName"},{"value":"Powiat Oleśnicki","key":"CountyName"}]},"MapReference":{"ReferenceId":"594184007","Spot":0.55,"SideOfStreet":"right","CountryId":"20624059","StateId":"20625002","CountyId":"20625205","CityId":"20680686","DistrictId":"20680687","AddressId":"209804212","RoadLinkId":"96110724"}}}]}]}}