{"Response":{"MetaInfo":{"Timestamp":"2020-03-28T11:16:27.058+0000","NextPageInformation":"2"},"View":[{"_type":"SearchResultsViewType","ViewId":0,"Result":[{"Relevance":1.0,"Distance":0.0,"Direction":0.0,"MatchLevel":"district","MatchQuality":{"Country":1.0,"State":1.0,"County":1.0,"City":1.0,"District":1.0,"PostalCode":1.0},"Location":{"LocationId":"NT_v5xu-MjiTL8nIhloB6.tDD","LocationType":"point","DisplayPosition":{"Latitude":51.2821845,"Longitude":-0.3694294},"MapView":{"TopLeft":{"Latitude":51.29251,"Longitude":-0.3942},"BottomRight":{"Latitude":51.26983,"Longitude":-0.35707}},"Address":{"Label":"Bookham, Leatherhead, England, United Kingdom","Country":"GBR","State":"England","County":"Surrey","City":"Leatherhead","District":"Bookham","PostalCode":"KT23 3","AdditionalData":[{"value":"United Kingdom","key":"CountryName"},{"value":"England","key":"StateName"},{"value":"Surrey","key":"CountyName"}]},"MapReference":{"ReferenceId":"25541412","SideOfStreet":"neither","StateId":"20248595","CountyId":"20338357","CityId":"20338551","DistrictId":"20338553"}}},{"Relevance":1.0,"Distance":12.7,"MatchLevel":"street","MatchQuality":{"Country":1.0,"State":1.0,"County":1.0,"City":1.0,"District":1.0,"Street":[1.0],"PostalCode":1.0},"Location":{"LocationId":"NT_yd62WqclnIW6A4fTo4F-oD_l_1199774316_L","LocationType":"point","DisplayPosition":{"Latitude":51.2820732,"Longitude":-0.3693853},"MapView":{"TopLeft":{"Latitude":51.28223,"Longitude":-0.37015},"BottomRight":{"Latitude":51.28177,"Longitude":-0.36899}},"Address":{"Label":"Eastwick Park Avenue, Leatherhead, KT23 3, United Kingdom","Country":"GBR","State":"England","County":"Surrey","City":"Leatherhead","District":"Bookham","Street":"Eastwick Park Avenue","PostalCode":"KT23 3","AdditionalData":[{"value":"United Kingdom","key":"CountryName"},{"value":"England","key":"StateName"},{"value":"Surrey","key":"CountyName"}]},"MapReference":{"ReferenceId":"1199774316","Spot":0.66,"SideOfStreet":"left","StateId":"20248595","CountyId":"20338357","CityId":"20338551","DistrictId":"20338553"}}},{"Relevance":1.0,"Distance":21.7,"MatchLevel":"postalCode","MatchQuality":{"PostalCode":1.0},"Location":{"LocationId":"NT_yd62WqclnIW6A4fTo4F-oD_l_1199774316_L","LocationType":"point","DisplayPosition":{"Latitude":51.28199,"Longitude":-0.36945},"MapView":{"TopLeft":{"Latitude":51.2909832,"Longitude":-0.3838279},"BottomRight":{"Latitude":51.2729968,"Longitude":-0.3550721}},"Address":{"Label":"KT23 3LR, Leatherhead, England, United Kingdom","Country":"GBR","State":"England","County":"Surrey","City":"Leatherhead","PostalCode":"KT23 3LR","AdditionalData":[{"value":"United Kingdom","key":"CountryName"},{"value":"England","key":"StateName"},{"value":"Surrey","key":"CountyName"}]},"MapReference":{"ReferenceId":"1199774316","Spot":0.66,"SideOfStreet":"neither","StateId":"20248595","CountyId":"20338357","CityId":"20338551"}}},{"Relevance":1.0,"Distance":30.1,"MatchLevel":"street","MatchQuality":{"Country":1.0,"State":1.0,"County":1.0,"City":1.0,"District":1.0,"Street":[1.0],"PostalCode":1.0},"Location":{"LocationId":"NT_yd62WqclnIW6A4fTo4F-oD_l_1199774315_L","LocationType":"point","DisplayPosition":{"Latitude":51.28238,"Longitude":-0.36913},"MapView":{"TopLeft":{"Latitude":51.28238,"Longitude":-0.36913},"BottomRight":{"Latitude":51.28223,"Longitude":-0.36899}},"Address":{"Label":"Eastwick Park Avenue, Leatherhead, KT23 3, United Kingdom","Country":"GBR","State":"England","County":"Surrey","City":"Leatherhead","District":"Bookham","Street":"Eastwick Park Avenue","PostalCode":"KT23 3","AdditionalData":[{"value":"United Kingdom","key":"CountryName"},{"value":"England","key":"StateName"},{"value":"Surrey","key":"CountyName"}]},"MapReference":{"ReferenceId":"1199774315","Spot":1.0,"SideOfStreet":"left","StateId":"20248595","CountyId":"20338357","CityId":"20338551","DistrictId":"20338553"}}},{"Relevance":1.0,"Distance":31.0,"MatchLevel":"street","MatchQuality":{"Country":1.0,"State":1.0,"County":1.0,"City":1.0,"District":1.0,"Street":[1.0],"PostalCode":1.0},"Location":{"LocationId":"NT_yd62WqclnIW6A4fTo4F-oD_l_1199774317_L","LocationType":"point","DisplayPosition":{"Latitude":51.28223,"Longitude":-0.36899},"MapView":{"TopLeft":{"Latitude":51.28243,"Longitude":-0.36899},"BottomRight":{"Latitude":51.28223,"Longitude":-0.36879}},"Address":{"Label":"Eastwick Park Avenue, Leatherhead, KT23 3, United Kingdom","Country":"GBR","State":"England","County":"Surrey","City":"Leatherhead","District":"Bookham","Street":"Eastwick Park Avenue","PostalCode":"KT23 3","AdditionalData":[{"value":"United Kingdom","key":"CountryName"},{"value":"England","key":"StateName"},{"value":"Surrey","key":"CountyName"}]},"MapReference":{"ReferenceId":"1199774317","Spot":0.0,"SideOfStreet":"left","StateId":"20248595","CountyId":"20338357","CityId":"20338551","DistrictId":"20338553"}}},{"Relevance":1.0,"Distance":49.7,"MatchLevel":"postalCode","MatchQuality":{"PostalCode":1.0},"Location":{"LocationId":"NT_yd62WqclnIW6A4fTo4F-oD_l_1199774317_L","LocationType":"point","DisplayPosition":{"Latitude":51.28247,"Longitude":-0.36888},"MapView":{"TopLeft":{"Latitude":51.2914632,"Longitude":-0.3832581},"BottomRight":{"Latitude":51.2734768,"Longitude":-0.3545019}},"Address":{"Label":"KT23 3NA, Leatherhead, England, United Kingdom","Country":"GBR","State":"England","County":"Surrey","City":"Leatherhead","PostalCode":"KT23 3NA","AdditionalData":[{"value":"United Kingdom","key":"CountryName"},{"value":"England","key":"StateName"},{"value":"Surrey","key":"CountyName"}]},"MapReference":{"ReferenceId":"1199774317","Spot":0.0,"SideOfStreet":"neither","StateId":"20248595","CountyId":"20338357","CityId":"20338551"}}},{"Relevance":1.0,"Distance":68.7,"MatchLevel":"houseNumber","MatchQuality":{"Country":1.0,"State":1.0,"County":1.0,"City":1.0,"District":1.0,"Street":[1.0],"HouseNumber":1.0,"PostalCode":1.0},"MatchType":"interpolated","Location":{"LocationId":"NT_yd62WqclnIW6A4fTo4F-oD_l_25541744_L_1A","LocationType":"point","DisplayPosition":{"Latitude":51.28187,"Longitude":-0.37028},"MapView":{"TopLeft":{"Latitude":51.2829942,"Longitude":-0.3720773},"BottomRight":{"Latitude":51.2807459,"Longitude":-0.3684828}},"Address":{"Label":"5 Eastwick Park Avenue, Leatherhead, KT23 3LY, United Kingdom","Country":"GBR","State":"England","County":"Surrey","City":"Leatherhead","District":"Bookham","Street":"Eastwick Park Avenue","HouseNumber":"5","PostalCode":"KT23 3LY","AdditionalData":[{"value":"United Kingdom","key":"CountryName"},{"value":"England","key":"StateName"},{"value":"Surrey","key":"CountyName"}]},"MapReference":{"ReferenceId":"25541744","Spot":0.16,"SideOfStreet":"left","StateId":"20248595","CountyId":"20338357","CityId":"20338551","DistrictId":"20338553"}}},{"Relevance":1.0,"Distance":70.4,"MatchLevel":"houseNumber","MatchQuality":{"Country":1.0,"State":1.0,"County":1.0,"City":1.0,"District":1.0,"Street":[1.0],"HouseNumber":1.0,"PostalCode":1.0},"MatchType":"interpolated","Location":{"LocationId":"NT_mwYUrtC2BMZ4rJSP7rzHaC_l_25541773_R_xYzM","LocationType":"point","DisplayPosition":{"Latitude":51.2816063,"Longitude":-0.3690174},"MapView":{"TopLeft":{"Latitude":51.2827305,"Longitude":-0.3708146},"BottomRight":{"Latitude":51.2804822,"Longitude":-0.3672202}},"Address":{"Label":"163 Lower Road, Leatherhead, KT23 4AU, United Kingdom","Country":"GBR","State":"England","County":"Surrey","City":"Leatherhead","District":"Bookham","Street":"Lower Road","HouseNumber":"163","PostalCode":"KT23 4AU","AdditionalData":[{"value":"United Kingdom","key":"CountryName"},{"value":"England","key":"StateName"},{"value":"Surrey","key":"CountyName"}]},"MapReference":{"ReferenceId":"25541773","Spot":0.59,"SideOfStreet":"right","StateId":"20248595","CountyId":"20338357","CityId":"20338551","DistrictId":"20338553"}}},{"Relevance":1.0,"Distance":72.6,"MatchLevel":"street","MatchQuality":{"Country":1.0,"State":1.0,"County":1.0,"City":1.0,"District":1.0,"Street":[1.0],"PostalCode":1.0},"Location":{"LocationId":"NT_HqgBJ2CjiFFUSD0E9EBYeB_l_1007355802_L","LocationType":"point","DisplayPosition":{"Latitude":51.28178,"Longitude":-0.36861},"MapView":{"TopLeft":{"Latitude":51.28185,"Longitude":-0.36861},"BottomRight":{"Latitude":51.28178,"Longitude":-0.3684}},"Address":{"Label":"Lower Road, Leatherhead, KT23 4, United Kingdom","Country":"GBR","State":"England","County":"Surrey","City":"Leatherhead","District":"Bookham","Street":"Lower Road","PostalCode":"KT23 4","AdditionalData":[{"value":"United Kingdom","key":"CountryName"},{"value":"England","key":"StateName"},{"value":"Surrey","key":"CountyName"}]},"MapReference":{"ReferenceId":"1007355802","Spot":0.0,"SideOfStreet":"left","StateId":"20248595","CountyId":"20338357","CityId":"20338551","DistrictId":"20338553"}}},{"Relevance":1.0,"Distance":78.9,"MatchLevel":"houseNumber","MatchQuality":{"Country":1.0,"State":1.0,"County":1.0,"City":1.0,"District":1.0,"Street":[1.0],"HouseNumber":1.0,"PostalCode":1.0},"MatchType":"interpolated","Location":{"LocationId":"NT_yd62WqclnIW6A4fTo4F-oD_l_25541774_L_zA","LocationType":"point","DisplayPosition":{"Latitude":51.28153,"Longitude":-0.3698659},"MapView":{"TopLeft":{"Latitude":51.2826541,"Longitude":-0.3716631},"BottomRight":{"Latitude":51.2804058,"Longitude":-0.3680687}},"Address":{"Label":"3 Eastwick Park Avenue, Leatherhead, KT23 3LR, United Kingdom","Country":"GBR","State":"England","County":"Surrey","City":"Leatherhead","District":"Bookham","Street":"Eastwick Park Avenue","HouseNumber":"3","PostalCode":"KT23 3LR","AdditionalData":[{"value":"United Kingdom","key":"CountryName"},{"value":"England","key":"StateName"},{"value":"Surrey","key":"CountyName"}]},"MapReference":{"ReferenceId":"25541774","Spot":0.5,"SideOfStreet":"left","StateId":"20248595","CountyId":"20338357","CityId":"20338551","DistrictId":"20338553"}}}]}]}}