{"Response":{"MetaInfo":{"Timestamp":"2020-03-28T11:28:49.035+0000","NextPageInformation":"2"},"View":[{"_type":"SearchResultsViewType","ViewId":0,"Result":[{"Relevance":1.0,"Distance":0.0,"Direction":0.0,"MatchLevel":"city","MatchQuality":{"Country":1.0,"State":1.0,"County":1.0,"City":1.0,"PostalCode":1.0},"Location":{"LocationId":"NT_0OgD1RboXDeDgckjyOXC4C","LocationType":"point","DisplayPosition":{"Latitude":51.2873154,"Longitude":4.0511734},"MapView":{"TopLeft":{"Latitude":51.2965,"Longitude":4.0245},"BottomRight":{"Latitude":51.26709,"Longitude":4.07443}},"Address":{"Label":"Hulst, Zeeland, Nederland","Country":"NLD","State":"Zeeland","County":"Hulst","City":"Hulst","PostalCode":"4561","AdditionalData":[{"value":"Nederland","key":"CountryName"},{"value":"Zeeland","key":"StateName"},{"value":"Hulst","key":"CountyName"}]},"MapReference":{"ReferenceId":"54423576","SideOfStreet":"neither","CountryId":"23055544","StateId":"23055903","CountyId":"23055538","CityId":"20202474"}}},{"Relevance":1.0,"Distance":28.2,"MatchLevel":"houseNumber","MatchQuality":{"Country":1.0,"State":1.0,"County":1.0,"City":1.0,"Street":[1.0],"HouseNumber":1.0,"PostalCode":1.0},"MatchType":"interpolated","Location":{"LocationId":"NT_fChAwUu--4FPi-WE8Sm-PB_yMD","LocationType":"point","DisplayPosition":{"Latitude":51.28734,"Longitude":4.05077},"MapView":{"TopLeft":{"Latitude":51.2884642,"Longitude":4.0489726},"BottomRight":{"Latitude":51.2862158,"Longitude":4.0525674}},"Address":{"Label":"Lyceumstraat 23, 4561 HT Hulst, Nederland","Country":"NLD","State":"Zeeland","County":"Hulst","City":"Hulst","Street":"Lyceumstraat","HouseNumber":"23","PostalCode":"4561 HT","AdditionalData":[{"value":"Nederland","key":"CountryName"},{"value":"Zeeland","key":"StateName"},{"value":"Hulst","key":"CountyName"}]},"MapReference":{"ReferenceId":"591798468","Spot":0.49,"SideOfStreet":"left","CountryId":"23055544","StateId":"23055903","CountyId":"23055538","CityId":"20202474","AddressId":"613696433","RoadLinkId":"31362449"}}},{"Relevance":1.0,"Distance":28.9,"MatchLevel":"houseNumber","MatchQuality":{"Country":1.0,"State":1.0,"County":1.0,"City":1.0,"Street":[1.0],"HouseNumber":1.0,"PostalCode":1.0},"MatchType":"interpolated","Location":{"LocationId":"NT_4PxLXKb7rQfdDckF6TRD5D_1A","LocationType":"point","DisplayPosition":{"Latitude":51.28744,"Longitude":4.05159},"MapView":{"TopLeft":{"Latitude":51.2885642,"Longitude":4.0497925},"BottomRight":{"Latitude":51.2863158,"Longitude":4.0533875}},"Address":{"Label":"Tabakstraat 5, 4561 HW Hulst, Nederland","Country":"NLD","State":"Zeeland","County":"Hulst","City":"Hulst","Street":"Tabakstraat","HouseNumber":"5","PostalCode":"4561 HW","AdditionalData":[{"value":"Nederland","key":"CountryName"},{"value":"Zeeland","key":"StateName"},{"value":"Hulst","key":"CountyName"}]},"MapReference":{"ReferenceId":"54423324","Spot":0.48,"SideOfStreet":"left","CountryId":"23055544","StateId":"23055903","CountyId":"23055538","CityId":"20202474","AddressId":"613276056","RoadLinkId":"31724477"}}},{"Relevance":1.0,"Distance":37.8,"MatchLevel":"houseNumber","MatchQuality":{"Country":1.0,"State":1.0,"County":1.0,"City":1.0,"Street":[1.0],"HouseNumber":1.0,"PostalCode":1.0},"MatchType":"interpolated","Location":{"LocationId":"NT_dcUtvMHGfGO-v5MFqnZD9A_yAD","LocationType":"point","DisplayPosition":{"Latitude":51.28716,"Longitude":4.05069},"MapView":{"TopLeft":{"Latitude":51.2882842,"Longitude":4.0488926},"BottomRight":{"Latitude":51.2860358,"Longitude":4.0524874}},"Address":{"Label":"Lyceumstraat 20, 4561 HV Hulst, Nederland","Country":"NLD","State":"Zeeland","County":"Hulst","City":"Hulst","Street":"Lyceumstraat","HouseNumber":"20","PostalCode":"4561 HV","AdditionalData":[{"value":"Nederland","key":"CountryName"},{"value":"Zeeland","key":"StateName"},{"value":"Hulst","key":"CountyName"}]},"MapReference":{"ReferenceId":"591798469","Spot":0.28,"SideOfStreet":"right","CountryId":"23055544","StateId":"23055903","CountyId":"23055538","CityId":"20202474","AddressId":"613696435","RoadLinkId":"32153323"}}},{"Relevance":1.0,"Distance":42.5,"MatchLevel":"houseNumber","MatchQuality":{"Country":1.0,"State":1.0,"County":1.0,"City":1.0,"Street":[1.0],"HouseNumber":1.0,"PostalCode":1.0},"MatchType":"interpolated","Location":{"LocationId":"NT_4PxLXKb7rQfdDckF6TRD5D_yAD","LocationType":"point","DisplayPosition":{"Latitude":51.28761,"Longitude":4.05083},"MapView":{"TopLeft":{"Latitude":51.2887342,"Longitude":4.0490325},"BottomRight":{"Latitude":51.2864858,"Longitude":4.0526275}},"Address":{"Label":"Tabakstraat 20, 4561 HW Hulst, Nederland","Country":"NLD","State":"Zeeland","County":"Hulst","City":"Hulst","Street":"Tabakstraat","HouseNumber":"20","PostalCode":"4561 HW","AdditionalData":[{"value":"Nederland","key":"CountryName"},{"value":"Zeeland","key":"StateName"},{"value":"Hulst","key":"CountyName"}]},"MapReference":{"ReferenceId":"54423318","Spot":0.18,"SideOfStreet":"right","CountryId":"23055544","StateId":"23055903","CountyId":"23055538","CityId":"20202474","AddressId":"613276050","RoadLinkId":"32185822"}}},{"Relevance":1.0,"Distance":59.0,"MatchLevel":"houseNumber","MatchQuality":{"Country":1.0,"State":1.0,"County":1.0,"City":1.0,"Street":[1.0],"HouseNumber":1.0,"PostalCode":1.0},"MatchType":"interpolated","Location":{"LocationId":"NT_5S8-F3w0XLK.Vk6nX-LPUD_xED","LocationType":"point","DisplayPosition":{"Latitude":51.28671,"Longitude":4.05138},"MapView":{"TopLeft":{"Latitude":51.2878342,"Longitude":4.0495826},"BottomRight":{"Latitude":51.2855858,"Longitude":4.0531774}},"Address":{"Label":"Liduinapark 11, 4561 JW Hulst, Nederland","Country":"NLD","State":"Zeeland","County":"Hulst","City":"Hulst","Street":"Liduinapark","HouseNumber":"11","PostalCode":"4561 JW","AdditionalData":[{"value":"Nederland","key":"CountryName"},{"value":"Zeeland","key":"StateName"},{"value":"Hulst","key":"CountyName"}]},"MapReference":{"ReferenceId":"68413549","Spot":0.26,"SideOfStreet":"left","CountryId":"23055544","StateId":"23055903","CountyId":"23055538","CityId":"20202474","AddressId":"613573595","RoadLinkId":"31620232"}}},{"Relevance":1.0,"Distance":59.8,"MatchLevel":"houseNumber","MatchQuality":{"Country":1.0,"State":1.0,"County":1.0,"City":1.0,"Street":[1.0],"HouseNumber":1.0,"PostalCode":1.0},"MatchType":"interpolated","Location":{"LocationId":"NT_5S8-F3w0XLK.Vk6nX-LPUD_5EE","LocationType":"point","DisplayPosition":{"Latitude":51.28666,"Longitude":4.05127},"MapView":{"TopLeft":{"Latitude":51.2877842,"Longitude":4.0494726},"BottomRight":{"Latitude":51.2855358,"Longitude":4.0530674}},"Address":{"Label":"Liduinapark 9A, 4561 JW Hulst, Nederland","Country":"NLD","State":"Zeeland","County":"Hulst","City":"Hulst","Street":"Liduinapark","HouseNumber":"9A","PostalCode":"4561 JW","AdditionalData":[{"value":"Nederland","key":"CountryName"},{"value":"Zeeland","key":"StateName"},{"value":"Hulst","key":"CountyName"}]},"MapReference":{"ReferenceId":"68413551","Spot":1.0,"SideOfStreet":"left","CountryId":"23055544","StateId":"23055903","CountyId":"23055538","CityId":"20202474","AddressId":"613573574","RoadLinkId":"31286644"}}},{"Relevance":1.0,"Distance":62.5,"MatchLevel":"houseNumber","MatchQuality":{"Country":1.0,"State":1.0,"County":1.0,"City":1.0,"Street":[1.0],"HouseNumber":1.0,"PostalCode":1.0},"MatchType":"interpolated","Location":{"LocationId":"NT_fChAwUu--4FPi-WE8Sm-PB_l_591798466_R_yAD","LocationType":"point","DisplayPosition":{"Latitude":51.2870741,"Longitude":4.0503611},"MapView":{"TopLeft":{"Latitude":51.2881982,"Longitude":4.0485637},"BottomRight":{"Latitude":51.2859499,"Longitude":4.0521586}},"Address":{"Label":"Lyceumstraat 20, 4561 HT Hulst, Nederland","Country":"NLD","State":"Zeeland","County":"Hulst","City":"Hulst","Street":"Lyceumstraat","HouseNumber":"20","PostalCode":"4561 HT","AdditionalData":[{"value":"Nederland","key":"CountryName"},{"value":"Zeeland","key":"StateName"},{"value":"Hulst","key":"CountyName"}]},"MapReference":{"ReferenceId":"591798466","Spot":0.5,"SideOfStreet":"right","CountryId":"23055544","StateId":"23055903","CountyId":"23055538","CityId":"20202474"}}},{"Relevance":1.0,"Distance":75.3,"MatchLevel":"landmark","MatchQuality":{"Country":1.0,"State":1.0,"County":1.0,"City":1.0,"PostalCode":1.0,"Name":1.0},"Location":{"LocationId":"NT_1RyDhdgq02-GmUL9XjbgSA","LocationType":"sportsComplex","Name":"Voetbalvereniging Hvv '24","DisplayPosition":{"Latitude":51.28797,"Longitude":4.05402},"MapView":{"TopLeft":{"Latitude":51.28998,"Longitude":4.05107},"BottomRight":{"Latitude":51.28596,"Longitude":4.05647}},"Address":{"Label":"4561 Hulst, Nederland","Country":"NLD","State":"Zeeland","County":"Hulst","City":"Hulst","PostalCode":"4561","AdditionalData":[{"value":"Nederland","key":"CountryName"},{"value":"Zeeland","key":"StateName"},{"value":"Hulst","key":"CountyName"}]},"MapReference":{"CountryId":"23055544","StateId":"23055903","CountyId":"23055538","CityId":"20202474","PlaceId":"50909969"}}},{"Relevance":1.0,"Distance":79.2,"MatchLevel":"street","MatchQuality":{"Country":1.0,"State":1.0,"County":1.0,"City":1.0,"Street":[1.0],"PostalCode":1.0},"Location":{"LocationId":"NT_byp4-T8kw1UF3FxCnlScwA_l_591798467_L","LocationType":"point","DisplayPosition":{"Latitude":51.28675,"Longitude":4.05048},"MapView":{"TopLeft":{"Latitude":51.28693,"Longitude":4.05014},"BottomRight":{"Latitude":51.28656,"Longitude":4.05048}},"Address":{"Label":"Lyceumstraat, 4561 Hulst, Nederland","Country":"NLD","State":"Zeeland","County":"Hulst","City":"Hulst","Street":"Lyceumstraat","PostalCode":"4561","AdditionalData":[{"value":"Nederland","key":"CountryName"},{"value":"Zeeland","key":"StateName"},{"value":"Hulst","key":"CountyName"}]},"MapReference":{"ReferenceId":"591798467","Spot":0.47,"SideOfStreet":"left","CountryId":"23055544","StateId":"23055903","CountyId":"23055538","CityId":"20202474"}}}]}]}}