{"Response":{"MetaInfo":{"Timestamp":"2020-03-28T11:40:54.824+0000","NextPageInformation":"2"},"View":[{"_type":"SearchResultsViewType","ViewId":0,"Result":[{"Relevance":1.0,"Distance":0.0,"Direction":0.0,"MatchLevel":"district","MatchQuality":{"Country":1.0,"State":1.0,"County":1.0,"City":1.0,"District":1.0,"PostalCode":1.0},"Location":{"LocationId":"NT_uO8q5J99LnTurRn5I6-.kC","LocationType":"point","DisplayPosition":{"Latitude":51.2956182,"Longitude":11.43387},"MapView":{"TopLeft":{"Latitude":51.3065,"Longitude":11.41925},"BottomRight":{"Latitude":51.29188,"Longitude":11.44718}},"Address":{"Label":"Roßleben, Roßleben-Wiehe, Thüringen, Deutschland","Country":"DEU","State":"Thüringen","County":"Kyffhäuserkreis","City":"Roßleben-Wiehe","District":"Roßleben","PostalCode":"06571","AdditionalData":[{"value":"Deutschland","key":"CountryName"},{"value":"Thüringen","key":"StateName"},{"value":"Kyffhäuserkreis","key":"CountyName"}]},"MapReference":{"ReferenceId":"547955561","SideOfStreet":"neither","CountryId":"20147700","StateId":"20196974","CountyId":"20197683","CityId":"20197768","DistrictId":"20197770"}}},{"Relevance":1.0,"Distance":9.1,"MatchLevel":"houseNumber","MatchQuality":{"Country":1.0,"State":1.0,"County":1.0,"City":1.0,"District":1.0,"Street":[1.0],"HouseNumber":1.0,"PostalCode":1.0},"MatchType":"interpolated","Location":{"LocationId":"NT_yrDxwn5NMJYuJL.-MAxrXC_0A","LocationType":"point","DisplayPosition":{"Latitude":51.29555,"Longitude":11.43374},"MapView":{"TopLeft":{"Latitude":51.2966742,"Longitude":11.4319422},"BottomRight":{"Latitude":51.2944258,"Longitude":11.4355378}},"Address":{"Label":"Richard-Hüttig-Platz 4, 06571 Roßleben-Wiehe, Deutschland","Country":"DEU","State":"Thüringen","County":"Kyffhäuserkreis","City":"Roßleben-Wiehe","District":"Roßleben","Street":"Richard-Hüttig-Platz","HouseNumber":"4","PostalCode":"06571","AdditionalData":[{"value":"Deutschland","key":"CountryName"},{"value":"Thüringen","key":"StateName"},{"value":"Kyffhäuserkreis","key":"CountyName"}]},"MapReference":{"ReferenceId":"547955452","Spot":0.6,"SideOfStreet":"right","CountryId":"20147700","StateId":"20196974","CountyId":"20197683","CityId":"20197768","DistrictId":"20197770","AddressId":"189657906","RoadLinkId":"40124744"}}},{"Relevance":1.0,"Distance":32.0,"MatchLevel":"houseNumber","MatchQuality":{"Country":1.0,"State":1.0,"County":1.0,"City":1.0,"District":1.0,"Street":[1.0],"HouseNumber":1.0,"PostalCode":1.0},"MatchType":"interpolated","Location":{"LocationId":"NT_yrDxwn5NMJYuJL.-MAxrXC_3A","LocationType":"point","DisplayPosition":{"Latitude":51.2955,"Longitude":11.43429},"MapView":{"TopLeft":{"Latitude":51.2966242,"Longitude":11.4324922},"BottomRight":{"Latitude":51.2943758,"Longitude":11.4360878}},"Address":{"Label":"Richard-Hüttig-Platz 7, 06571 Roßleben-Wiehe, Deutschland","Country":"DEU","State":"Thüringen","County":"Kyffhäuserkreis","City":"Roßleben-Wiehe","District":"Roßleben","Street":"Richard-Hüttig-Platz","HouseNumber":"7","PostalCode":"06571","AdditionalData":[{"value":"Deutschland","key":"CountryName"},{"value":"Thüringen","key":"StateName"},{"value":"Kyffhäuserkreis","key":"CountyName"}]},"MapReference":{"ReferenceId":"547955492","Spot":0.86,"SideOfStreet":"right","CountryId":"20147700","StateId":"20196974","CountyId":"20197683","CityId":"20197768","DistrictId":"20197770","AddressId":"189201259","RoadLinkId":"39934448"}}},{"Relevance":1.0,"Distance":34.9,"MatchLevel":"houseNumber","MatchQuality":{"Country":1.0,"State":1.0,"County":1.0,"City":1.0,"District":1.0,"Street":[1.0],"HouseNumber":1.0,"PostalCode":1.0},"MatchType":"interpolated","Location":{"LocationId":"NT_yrDxwn5NMJYuJL.-MAxrXC_zA","LocationType":"point","DisplayPosition":{"Latitude":51.29558,"Longitude":11.43334},"MapView":{"TopLeft":{"Latitude":51.2967042,"Longitude":11.4315422},"BottomRight":{"Latitude":51.2944558,"Longitude":11.4351378}},"Address":{"Label":"Richard-Hüttig-Platz 3, 06571 Roßleben-Wiehe, Deutschland","Country":"DEU","State":"Thüringen","County":"Kyffhäuserkreis","City":"Roßleben-Wiehe","District":"Roßleben","Street":"Richard-Hüttig-Platz","HouseNumber":"3","PostalCode":"06571","AdditionalData":[{"value":"Deutschland","key":"CountryName"},{"value":"Thüringen","key":"StateName"},{"value":"Kyffhäuserkreis","key":"CountyName"}]},"MapReference":{"ReferenceId":"547955420","Spot":0.1,"SideOfStreet":"right","CountryId":"20147700","StateId":"20196974","CountyId":"20197683","CityId":"20197768","DistrictId":"20197770","AddressId":"189492189","RoadLinkId":"39588422"}}},{"Relevance":1.0,"Distance":38.9,"MatchLevel":"houseNumber","MatchQuality":{"Country":1.0,"State":1.0,"County":1.0,"City":1.0,"District":1.0,"Street":[1.0],"HouseNumber":1.0,"PostalCode":1.0},"MatchType":"interpolated","Location":{"LocationId":"NT_yrDxwn5NMJYuJL.-MAxrXC_xkD","LocationType":"point","DisplayPosition":{"Latitude":51.29527,"Longitude":11.43382},"MapView":{"TopLeft":{"Latitude":51.2963942,"Longitude":11.4320222},"BottomRight":{"Latitude":51.2941458,"Longitude":11.4356178}},"Address":{"Label":"Richard-Hüttig-Platz 19, 06571 Roßleben-Wiehe, Deutschland","Country":"DEU","State":"Thüringen","County":"Kyffhäuserkreis","City":"Roßleben-Wiehe","District":"Roßleben","Street":"Richard-Hüttig-Platz","HouseNumber":"19","PostalCode":"06571","AdditionalData":[{"value":"Deutschland","key":"CountryName"},{"value":"Thüringen","key":"StateName"},{"value":"Kyffhäuserkreis","key":"CountyName"}]},"MapReference":{"ReferenceId":"547955501","Spot":0.47,"SideOfStreet":"left","CountryId":"20147700","StateId":"20196974","CountyId":"20197683","CityId":"20197768","DistrictId":"20197770","AddressId":"189402162","RoadLinkId":"39778186"}}},{"Relevance":1.0,"Distance":47.3,"MatchLevel":"houseNumber","MatchQuality":{"Country":1.0,"State":1.0,"County":1.0,"City":1.0,"District":1.0,"Street":[1.0],"HouseNumber":1.0,"PostalCode":1.0},"MatchType":"interpolated","Location":{"LocationId":"NT_5-rJ.CKD6xWbRc9CXvkQeC_xMD","LocationType":"point","DisplayPosition":{"Latitude":51.29617,"Longitude":11.43407},"MapView":{"TopLeft":{"Latitude":51.2972942,"Longitude":11.4322722},"BottomRight":{"Latitude":51.2950458,"Longitude":11.4358678}},"Address":{"Label":"Wendelsteiner Straße 13, 06571 Roßleben-Wiehe, Deutschland","Country":"DEU","State":"Thüringen","County":"Kyffhäuserkreis","City":"Roßleben-Wiehe","District":"Roßleben","Street":"Wendelsteiner Straße","HouseNumber":"13","PostalCode":"06571","AdditionalData":[{"value":"Deutschland","key":"CountryName"},{"value":"Thüringen","key":"StateName"},{"value":"Kyffhäuserkreis","key":"CountyName"}]},"MapReference":{"ReferenceId":"834172539","Spot":0.62,"SideOfStreet":"left","CountryId":"20147700","StateId":"20196974","CountyId":"20197683","CityId":"20197768","DistrictId":"20197770","AddressId":"189453033","RoadLinkId":"217402328"}}},{"Relevance":1.0,"Distance":48.7,"MatchLevel":"houseNumber","MatchQuality":{"Country":1.0,"State":1.0,"County":1.0,"City":1.0,"District":1.0,"Street":[1.0],"HouseNumber":1.0,"PostalCode":1.0},"MatchType":"interpolated","Location":{"LocationId":"NT_yrDxwn5NMJYuJL.-MAxrXC_xID","LocationType":"point","DisplayPosition":{"Latitude":51.2952,"Longitude":11.43408},"MapView":{"TopLeft":{"Latitude":51.2963242,"Longitude":11.4322822},"BottomRight":{"Latitude":51.2940758,"Longitude":11.4358778}},"Address":{"Label":"Richard-Hüttig-Platz 12, 06571 Roßleben-Wiehe, Deutschland","Country":"DEU","State":"Thüringen","County":"Kyffhäuserkreis","City":"Roßleben-Wiehe","District":"Roßleben","Street":"Richard-Hüttig-Platz","HouseNumber":"12","PostalCode":"06571","AdditionalData":[{"value":"Deutschland","key":"CountryName"},{"value":"Thüringen","key":"StateName"},{"value":"Kyffhäuserkreis","key":"CountyName"}]},"MapReference":{"ReferenceId":"547955491","Spot":0.54,"SideOfStreet":"right","CountryId":"20147700","StateId":"20196974","CountyId":"20197683","CityId":"20197768","DistrictId":"20197770","AddressId":"189561457","RoadLinkId":"39701704"}}},{"Relevance":1.0,"Distance":80.9,"MatchLevel":"houseNumber","MatchQuality":{"Country":1.0,"State":1.0,"County":1.0,"City":1.0,"District":1.0,"Street":[1.0],"HouseNumber":1.0,"PostalCode":1.0},"MatchType":"interpolated","Location":{"LocationId":"NT_cDWER4CHbnUTDJoIjrEw7C_zA","LocationType":"point","DisplayPosition":{"Latitude":51.29542,"Longitude":11.43499},"MapView":{"TopLeft":{"Latitude":51.2965442,"Longitude":11.4331922},"BottomRight":{"Latitude":51.2942958,"Longitude":11.4367878}},"Address":{"Label":"Rudolf-Breitscheid-Straße 3, 06571 Roßleben-Wiehe, Deutschland","Country":"DEU","State":"Thüringen","County":"Kyffhäuserkreis","City":"Roßleben-Wiehe","District":"Roßleben","Street":"Rudolf-Breitscheid-Straße","HouseNumber":"3","PostalCode":"06571","AdditionalData":[{"value":"Deutschland","key":"CountryName"},{"value":"Thüringen","key":"StateName"},{"value":"Kyffhäuserkreis","key":"CountyName"}]},"MapReference":{"ReferenceId":"547955478","Spot":0.0,"SideOfStreet":"right","CountryId":"20147700","StateId":"20196974","CountyId":"20197683","CityId":"20197768","DistrictId":"20197770","AddressId":"189656301","RoadLinkId":"39990831"}}},{"Relevance":1.0,"Distance":83.1,"MatchLevel":"houseNumber","MatchQuality":{"Country":1.0,"State":1.0,"County":1.0,"City":1.0,"District":1.0,"Street":[1.0],"HouseNumber":1.0,"PostalCode":1.0},"MatchType":"interpolated","Location":{"LocationId":"NT_5-rJ.CKD6xWbRc9CXvkQeC_zA","LocationType":"point","DisplayPosition":{"Latitude":51.29641,"Longitude":11.4333},"MapView":{"TopLeft":{"Latitude":51.2975342,"Longitude":11.4315022},"BottomRight":{"Latitude":51.2952858,"Longitude":11.4350978}},"Address":{"Label":"Wendelsteiner Straße 3, 06571 Roßleben-Wiehe, Deutschland","Country":"DEU","State":"Thüringen","County":"Kyffhäuserkreis","City":"Roßleben-Wiehe","District":"Roßleben","Street":"Wendelsteiner Straße","HouseNumber":"3","PostalCode":"06571","AdditionalData":[{"value":"Deutschland","key":"CountryName"},{"value":"Thüringen","key":"StateName"},{"value":"Kyffhäuserkreis","key":"CountyName"}]},"MapReference":{"ReferenceId":"834172540","Spot":0.12,"SideOfStreet":"left","CountryId":"20147700","StateId":"20196974","CountyId":"20197683","CityId":"20197768","DistrictId":"20197770","AddressId":"189175028","RoadLinkId":"217402329"}}},{"Relevance":1.0,"Distance":83.3,"MatchLevel":"houseNumber","MatchQuality":{"Country":1.0,"State":1.0,"County":1.0,"City":1.0,"District":1.0,"Street":[1.0],"HouseNumber":1.0,"PostalCode":1.0},"MatchType":"interpolated","Location":{"LocationId":"NT_HkgAS820RqsfFlNyvW5xIC_xQD","LocationType":"point","DisplayPosition":{"Latitude":51.29595,"Longitude":11.43254},"MapView":{"TopLeft":{"Latitude":51.2970742,"Longitude":11.4307422},"BottomRight":{"Latitude":51.2948258,"Longitude":11.4343378}},"Address":{"Label":"Ernst-Thälmann-Straße 14, 06571 Roßleben-Wiehe, Deutschland","Country":"DEU","State":"Thüringen","County":"Kyffhäuserkreis","City":"Roßleben-Wiehe","District":"Roßleben","Street":"Ernst-Thälmann-Straße","HouseNumber":"14","PostalCode":"06571","AdditionalData":[{"value":"Deutschland","key":"CountryName"},{"value":"Thüringen","key":"StateName"},{"value":"Kyffhäuserkreis","key":"CountyName"}]},"MapReference":{"ReferenceId":"565421238","Spot":0.4,"SideOfStreet":"right","CountryId":"20147700","StateId":"20196974","CountyId":"20197683","CityId":"20197768","DistrictId":"20197770","AddressId":"189213615","RoadLinkId":"39905792"}}}]}]}}