{"Response":{"MetaInfo":{"Timestamp":"2020-03-28T11:30:40.524+0000","NextPageInformation":"2"},"View":[{"_type":"SearchResultsViewType","ViewId":0,"Result":[{"Relevance":1.0,"Distance":0.0,"Direction":0.0,"MatchLevel":"district","MatchQuality":{"Country":1.0,"State":1.0,"County":1.0,"City":1.0,"District":1.0,"PostalCode":1.0},"Location":{"LocationId":"NT_v6dlE73zyzYOGyrPIKHQ8A","LocationType":"point","DisplayPosition":{"Latitude":51.2454292,"Longitude":17.9716837},"MapView":{"TopLeft":{"Latitude":51.248,"Longitude":17.96147},"BottomRight":{"Latitude":51.24054,"Longitude":17.98213}},"Address":{"Label":"Grębanin, Baranów, Woj. Wielkopolskie, Polska","Country":"POL","State":"Woj. Wielkopolskie","County":"Powiat Kępiński","City":"Baranów","District":"Grębanin","PostalCode":"63-604","AdditionalData":[{"value":"Polska","key":"CountryName"},{"value":"Woj. Wielkopolskie","key":"StateName"},{"value":"Powiat Kępiński","key":"CountyName"}]},"MapReference":{"ReferenceId":"1090761361","SideOfStreet":"neither","CountryId":"20624059","StateId":"20629915","CountyId":"20631493","CityId":"20631494","DistrictId":"20696187"}}},{"Relevance":1.0,"Distance":40.1,"MatchLevel":"houseNumber","MatchQuality":{"Country":1.0,"State":1.0,"County":1.0,"City":1.0,"District":1.0,"Street":[1.0],"HouseNumber":1.0,"PostalCode":1.0},"MatchType":"interpolated","Location":{"LocationId":"NT_OXJRNltCNSHoICu6k6BNiB_5cD","LocationType":"point","DisplayPosition":{"Latitude":51.24457,"Longitude":17.97153},"MapView":{"TopLeft":{"Latitude":51.2456942,"Longitude":17.9697342},"BottomRight":{"Latitude":51.2434458,"Longitude":17.9733258}},"Address":{"Label":"Grębanin 97, 63-604 Grębanin, Polska","Country":"POL","State":"Woj. Wielkopolskie","County":"Powiat Kępiński","City":"Baranów","District":"Grębanin","Street":"Grębanin","HouseNumber":"97","PostalCode":"63-604","AdditionalData":[{"value":"Polska","key":"CountryName"},{"value":"Woj. Wielkopolskie","key":"StateName"},{"value":"Powiat Kępiński","key":"CountyName"}]},"MapReference":{"ReferenceId":"1038903704","Spot":0.95,"SideOfStreet":"right","CountryId":"20624059","StateId":"20629915","CountyId":"20631493","CityId":"20631494","DistrictId":"20696187","AddressId":"301978063","RoadLinkId":"360763006"}}},{"Relevance":1.0,"Distance":86.6,"MatchLevel":"street","MatchQuality":{"Country":1.0,"State":1.0,"County":1.0,"City":1.0,"District":1.0,"PostalCode":1.0},"Location":{"LocationId":"NT_RHbjH86WWgYv6nuOJBXO0D_l_595386923_L","LocationType":"point","DisplayPosition":{"Latitude":51.2452896,"Longitude":17.972908},"MapView":{"TopLeft":{"Latitude":51.24671,"Longitude":17.97281},"BottomRight":{"Latitude":51.24443,"Longitude":17.97307}},"Address":{"Label":"63-604 Grębanin, Polska","Country":"POL","State":"Woj. Wielkopolskie","County":"Powiat Kępiński","City":"Baranów","District":"Grębanin","PostalCode":"63-604","AdditionalData":[{"value":"Polska","key":"CountryName"},{"value":"Woj. Wielkopolskie","key":"StateName"},{"value":"Powiat Kępiński","key":"CountyName"}]},"MapReference":{"ReferenceId":"595386923","Spot":0.38,"SideOfStreet":"left","CountryId":"20624059","StateId":"20629915","CountyId":"20631493","CityId":"20631494","DistrictId":"20696187"}}},{"Relevance":1.0,"Distance":136.0,"MatchLevel":"street","MatchQuality":{"Country":1.0,"State":1.0,"County":1.0,"City":1.0,"District":1.0,"Street":[1.0],"PostalCode":1.0},"Location":{"LocationId":"NT_OXJRNltCNSHoICu6k6BNiB_l_1090761361_L","LocationType":"point","DisplayPosition":{"Latitude":51.24443,"Longitude":17.97281},"MapView":{"TopLeft":{"Latitude":51.24443,"Longitude":17.97281},"BottomRight":{"Latitude":51.24443,"Longitude":17.97337}},"Address":{"Label":"Grębanin, 63-604 Grębanin, Polska","Country":"POL","State":"Woj. Wielkopolskie","County":"Powiat Kępiński","City":"Baranów","District":"Grębanin","Street":"Grębanin","PostalCode":"63-604","AdditionalData":[{"value":"Polska","key":"CountryName"},{"value":"Woj. Wielkopolskie","key":"StateName"},{"value":"Powiat Kępiński","key":"CountyName"}]},"MapReference":{"ReferenceId":"1090761361","Spot":0.0,"SideOfStreet":"left","CountryId":"20624059","StateId":"20629915","CountyId":"20631493","CityId":"20631494","DistrictId":"20696187"}}},{"Relevance":1.0,"Distance":182.6,"MatchLevel":"houseNumber","MatchQuality":{"Country":1.0,"State":1.0,"County":1.0,"City":1.0,"District":1.0,"Street":[1.0],"HouseNumber":1.0,"PostalCode":1.0},"MatchType":"interpolated","Location":{"LocationId":"NT_-shlrJFvbWhiWhGR-kpfOB_1cTQ","LocationType":"point","DisplayPosition":{"Latitude":51.24322,"Longitude":17.97103},"MapView":{"TopLeft":{"Latitude":51.2443442,"Longitude":17.9692343},"BottomRight":{"Latitude":51.2420958,"Longitude":17.9728257}},"Address":{"Label":"skwer Piotra T. Potworowskiego 57A, 63-604 Grębanin, Polska","Country":"POL","State":"Woj. Wielkopolskie","County":"Powiat Kępiński","City":"Baranów","District":"Grębanin","Street":"skwer Piotra T. Potworowskiego","HouseNumber":"57A","PostalCode":"63-604","AdditionalData":[{"value":"Polska","key":"CountryName"},{"value":"Woj. Wielkopolskie","key":"StateName"},{"value":"Powiat Kępiński","key":"CountyName"}]},"MapReference":{"ReferenceId":"1038903708","Spot":0.88,"SideOfStreet":"right","CountryId":"20624059","StateId":"20629915","CountyId":"20631493","CityId":"20631494","DistrictId":"20696187","AddressId":"301959814","RoadLinkId":"360763010"}}},{"Relevance":1.0,"Distance":186.1,"MatchLevel":"houseNumber","MatchQuality":{"Country":1.0,"State":1.0,"County":1.0,"City":1.0,"District":1.0,"Street":[1.0],"HouseNumber":1.0,"PostalCode":1.0},"MatchType":"interpolated","Location":{"LocationId":"NT_OXJRNltCNSHoICu6k6BNiB_1MjQ","LocationType":"point","DisplayPosition":{"Latitude":51.24381,"Longitude":17.97281},"MapView":{"TopLeft":{"Latitude":51.2449342,"Longitude":17.9710143},"BottomRight":{"Latitude":51.2426858,"Longitude":17.9746057}},"Address":{"Label":"Grębanin 53B, 63-604 Grębanin, Polska","Country":"POL","State":"Woj. Wielkopolskie","County":"Powiat Kępiński","City":"Baranów","District":"Grębanin","Street":"Grębanin","HouseNumber":"53B","PostalCode":"63-604","AdditionalData":[{"value":"Polska","key":"CountryName"},{"value":"Woj. Wielkopolskie","key":"StateName"},{"value":"Powiat Kępiński","key":"CountyName"}]},"MapReference":{"ReferenceId":"595386945","Spot":0.58,"SideOfStreet":"left","CountryId":"20624059","StateId":"20629915","CountyId":"20631493","CityId":"20631494","DistrictId":"20696187","AddressId":"782401092","RoadLinkId":"95083662"}}},{"Relevance":1.0,"Distance":189.4,"MatchLevel":"houseNumber","MatchQuality":{"Country":1.0,"State":1.0,"County":1.0,"City":1.0,"District":1.0,"Street":[1.0],"HouseNumber":1.0,"PostalCode":1.0},"MatchType":"interpolated","Location":{"LocationId":"NT_OXJRNltCNSHoICu6k6BNiB_5kD","LocationType":"point","DisplayPosition":{"Latitude":51.24442,"Longitude":17.97404},"MapView":{"TopLeft":{"Latitude":51.2455442,"Longitude":17.9722442},"BottomRight":{"Latitude":51.2432958,"Longitude":17.9758358}},"Address":{"Label":"Grębanin 99, 63-604 Grębanin, Polska","Country":"POL","State":"Woj. Wielkopolskie","County":"Powiat Kępiński","City":"Baranów","District":"Grębanin","Street":"Grębanin","HouseNumber":"99","PostalCode":"63-604","AdditionalData":[{"value":"Polska","key":"CountryName"},{"value":"Woj. Wielkopolskie","key":"StateName"},{"value":"Powiat Kępiński","key":"CountyName"}]},"MapReference":{"ReferenceId":"1090761360","Spot":0.62,"SideOfStreet":"right","CountryId":"20624059","StateId":"20629915","CountyId":"20631493","CityId":"20631494","DistrictId":"20696187","AddressId":"267065713","RoadLinkId":"405735112"}}},{"Relevance":1.0,"Distance":190.5,"MatchLevel":"houseNumber","MatchQuality":{"Country":1.0,"State":1.0,"County":1.0,"City":1.0,"District":1.0,"Street":[1.0],"HouseNumber":1.0,"PostalCode":1.0},"MatchType":"interpolated","Location":{"LocationId":"NT_OXJRNltCNSHoICu6k6BNiB_5YD","LocationType":"point","DisplayPosition":{"Latitude":51.24513,"Longitude":17.96881},"MapView":{"TopLeft":{"Latitude":51.2462542,"Longitude":17.9670142},"BottomRight":{"Latitude":51.2440058,"Longitude":17.9706058}},"Address":{"Label":"Grębanin 96, 63-604 Grębanin, Polska","Country":"POL","State":"Woj. Wielkopolskie","County":"Powiat Kępiński","City":"Baranów","District":"Grębanin","Street":"Grębanin","HouseNumber":"96","PostalCode":"63-604","AdditionalData":[{"value":"Polska","key":"CountryName"},{"value":"Woj. Wielkopolskie","key":"StateName"},{"value":"Powiat Kępiński","key":"CountyName"}]},"MapReference":{"ReferenceId":"1038903705","Spot":0.52,"SideOfStreet":"right","CountryId":"20624059","StateId":"20629915","CountyId":"20631493","CityId":"20631494","DistrictId":"20696187","AddressId":"301978081","RoadLinkId":"360763007"}}},{"Relevance":1.0,"Distance":227.4,"MatchLevel":"houseNumber","MatchQuality":{"Country":1.0,"State":1.0,"County":1.0,"City":1.0,"District":1.0,"Street":[1.0],"HouseNumber":1.0,"PostalCode":1.0},"MatchType":"interpolated","Location":{"LocationId":"NT_OXJRNltCNSHoICu6k6BNiB_0gD","LocationType":"point","DisplayPosition":{"Latitude":51.2432,"Longitude":17.9712},"MapView":{"TopLeft":{"Latitude":51.2443242,"Longitude":17.9694043},"BottomRight":{"Latitude":51.2420758,"Longitude":17.9729957}},"Address":{"Label":"Grębanin 48, 63-604 Grębanin, Polska","Country":"POL","State":"Woj. Wielkopolskie","County":"Powiat Kępiński","City":"Baranów","District":"Grębanin","Street":"Grębanin","HouseNumber":"48","PostalCode":"63-604","AdditionalData":[{"value":"Polska","key":"CountryName"},{"value":"Woj. Wielkopolskie","key":"StateName"},{"value":"Powiat Kępiński","key":"CountyName"}]},"MapReference":{"ReferenceId":"1038903707","Spot":0.98,"SideOfStreet":"right","CountryId":"20624059","StateId":"20629915","CountyId":"20631493","CityId":"20631494","DistrictId":"20696187","AddressId":"301959810","RoadLinkId":"360763009"}}},{"Relevance":1.0,"Distance":228.6,"MatchLevel":"houseNumber","MatchQuality":{"Country":1.0,"State":1.0,"County":1.0,"City":1.0,"District":1.0,"Street":[1.0],"HouseNumber":1.0,"PostalCode":1.0},"MatchType":"interpolated","Location":{"LocationId":"NT_OXJRNltCNSHoICu6k6BNiB_0kD","LocationType":"point","DisplayPosition":{"Latitude":51.24322,"Longitude":17.971},"MapView":{"TopLeft":{"Latitude":51.2443442,"Longitude":17.9692043},"BottomRight":{"Latitude":51.2420958,"Longitude":17.9727957}},"Address":{"Label":"Grębanin 49, 63-604 Grębanin, Polska","Country":"POL","State":"Woj. Wielkopolskie","County":"Powiat Kępiński","City":"Baranów","District":"Grębanin","Street":"Grębanin","HouseNumber":"49","PostalCode":"63-604","AdditionalData":[{"value":"Polska","key":"CountryName"},{"value":"Woj. Wielkopolskie","key":"StateName"},{"value":"Powiat Kępiński","key":"CountyName"}]},"MapReference":{"ReferenceId":"1038903706","Spot":0.0,"SideOfStreet":"right","CountryId":"20624059","StateId":"20629915","CountyId":"20631493","CityId":"20631494","DistrictId":"20696187","AddressId":"301959811","RoadLinkId":"360763008"}}}]}]}}