{"Response":{"MetaInfo":{"Timestamp":"2020-03-28T10:34:10.923+0000","NextPageInformation":"2"},"View":[{"_type":"SearchResultsViewType","ViewId":0,"Result":[{"Relevance":1.0,"Distance":0.0,"Direction":0.0,"MatchLevel":"district","MatchQuality":{"Country":1.0,"State":1.0,"County":1.0,"City":1.0,"District":1.0,"PostalCode":1.0},"Location":{"LocationId":"NT_2dwDR3VjGbg-LKE9sHxqfA","LocationType":"point","DisplayPosition":{"Latitude":51.3754332,"Longitude":0.5516163},"MapView":{"TopLeft":{"Latitude":51.4102,"Longitude":0.52281},"BottomRight":{"Latitude":51.3357,"Longitude":0.62783}},"Address":{"Label":"Gillingham, England, United Kingdom","Country":"GBR","State":"England","County":"Kent","City":"Gillingham","District":"Gillingham","PostalCode":"ME7 4","AdditionalData":[{"value":"United Kingdom","key":"CountryName"},{"value":"England","key":"StateName"},{"value":"Kent","key":"CountyName"}]},"MapReference":{"ReferenceId":"565983330","SideOfStreet":"neither","StateId":"20248595","CountyId":"20336836","CityId":"20337134","DistrictId":"20337135"}}},{"Relevance":1.0,"Distance":3.8,"MatchLevel":"postalCode","MatchQuality":{"PostalCode":1.0},"MatchType":"interpolated","Location":{"LocationId":"NT_aoq60hfo7gpzCs570B3M0C_l_25632400_L_1ETM","LocationType":"point","DisplayPosition":{"Latitude":51.37544,"Longitude":0.55167},"MapView":{"TopLeft":{"Latitude":51.3844332,"Longitude":0.5372627},"BottomRight":{"Latitude":51.3664468,"Longitude":0.5660773}},"Address":{"Label":"ME7 5LH, Gillingham, England, United Kingdom","Country":"GBR","State":"England","County":"Kent","City":"Gillingham","PostalCode":"ME7 5LH","AdditionalData":[{"value":"United Kingdom","key":"CountryName"},{"value":"England","key":"StateName"},{"value":"Kent","key":"CountyName"}]},"MapReference":{"ReferenceId":"25632400","Spot":0.68,"SideOfStreet":"neither","StateId":"20248595","CountyId":"20336836","CityId":"20337134"}}},{"Relevance":1.0,"Distance":5.3,"MatchLevel":"houseNumber","MatchQuality":{"Country":1.0,"State":1.0,"County":1.0,"City":1.0,"District":1.0,"Street":[1.0],"HouseNumber":1.0,"PostalCode":1.0},"MatchType":"interpolated","Location":{"LocationId":"NT_rtcZrjLjFEkXKfq57LO0dB_l_25632270_L_2A","LocationType":"point","DisplayPosition":{"Latitude":51.3754757,"Longitude":0.5515829},"MapView":{"TopLeft":{"Latitude":51.3765999,"Longitude":0.549782},"BottomRight":{"Latitude":51.3743516,"Longitude":0.5533838}},"Address":{"Label":"6 St John's Road, Gillingham, ME7 5NB, United Kingdom","Country":"GBR","State":"England","County":"Kent","City":"Gillingham","District":"Gillingham","Street":"St John's Road","HouseNumber":"6","PostalCode":"ME7 5NB","AdditionalData":[{"value":"United Kingdom","key":"CountryName"},{"value":"England","key":"StateName"},{"value":"Kent","key":"CountyName"}]},"MapReference":{"ReferenceId":"25632270","Spot":0.19,"SideOfStreet":"left","StateId":"20248595","CountyId":"20336836","CityId":"20337134","DistrictId":"20337135"}}},{"Relevance":1.0,"Distance":14.1,"MatchLevel":"houseNumber","MatchQuality":{"Country":1.0,"State":1.0,"County":1.0,"City":1.0,"District":1.0,"Street":[1.0],"HouseNumber":1.0,"PostalCode":1.0},"MatchType":"interpolated","Location":{"LocationId":"NT_jZ-Cn-IYIdx2xWDk8SWf0A_l_25632258_L_0kTO","LocationType":"point","DisplayPosition":{"Latitude":51.3756501,"Longitude":0.55183},"MapView":{"TopLeft":{"Latitude":51.3767742,"Longitude":0.5500291},"BottomRight":{"Latitude":51.3745259,"Longitude":0.5536309}},"Address":{"Label":"499 Canterbury Street, Gillingham, ME7 5LJ, United Kingdom","Country":"GBR","State":"England","County":"Kent","City":"Gillingham","District":"Gillingham","Street":"Canterbury Street","HouseNumber":"499","PostalCode":"ME7 5LJ","AdditionalData":[{"value":"United Kingdom","key":"CountryName"},{"value":"England","key":"StateName"},{"value":"Kent","key":"CountyName"}]},"MapReference":{"ReferenceId":"25632258","Spot":0.37,"SideOfStreet":"left","StateId":"20248595","CountyId":"20336836","CityId":"20337134","DistrictId":"20337135"}}},{"Relevance":1.0,"Distance":20.0,"MatchLevel":"houseNumber","MatchQuality":{"Country":1.0,"State":1.0,"County":1.0,"City":1.0,"District":1.0,"Street":[1.0],"HouseNumber":1.0,"PostalCode":1.0},"MatchType":"interpolated","Location":{"LocationId":"NT_aoq60hfo7gpzCs570B3M0C_l_25632400_L_1ETM","LocationType":"point","DisplayPosition":{"Latitude":51.3753563,"Longitude":0.5519537},"MapView":{"TopLeft":{"Latitude":51.3764804,"Longitude":0.5501528},"BottomRight":{"Latitude":51.3742321,"Longitude":0.5537546}},"Address":{"Label":"511 Canterbury Street, Gillingham, ME7 5LH, United Kingdom","Country":"GBR","State":"England","County":"Kent","City":"Gillingham","District":"Gillingham","Street":"Canterbury Street","HouseNumber":"511","PostalCode":"ME7 5LH","AdditionalData":[{"value":"United Kingdom","key":"CountryName"},{"value":"England","key":"StateName"},{"value":"Kent","key":"CountyName"}]},"MapReference":{"ReferenceId":"25632400","Spot":0.68,"SideOfStreet":"left","StateId":"20248595","CountyId":"20336836","CityId":"20337134","DistrictId":"20337135"}}},{"Relevance":1.0,"Distance":23.6,"MatchLevel":"landmark","MatchQuality":{"Country":1.0,"State":1.0,"County":1.0,"City":1.0,"District":1.0,"Street":[1.0],"PostalCode":1.0,"Name":1.0},"Location":{"LocationId":"NT_lA66f3dG50pBRhlNiRToMA_p_4UIcxiBJBe7oHxfGVJOe7A","LocationType":"park","Name":"Gillingham Park","DisplayPosition":{"Latitude":51.37526,"Longitude":0.552},"MapView":{"TopLeft":{"Latitude":51.37824,"Longitude":0.55142},"BottomRight":{"Latitude":51.37456,"Longitude":0.5564}},"Address":{"Label":"Canterbury Street, Gillingham, ME7 5, United Kingdom","Country":"GBR","State":"England","County":"Kent","City":"Gillingham","District":"Gillingham","Street":"Canterbury Street","PostalCode":"ME7 5","AdditionalData":[{"value":"United Kingdom","key":"CountryName"},{"value":"England","key":"StateName"},{"value":"Kent","key":"CountyName"}]},"MapReference":{"StateId":"20248595","CountyId":"20336836","CityId":"20337134","DistrictId":"20337135","PlaceId":"18034510"}}},{"Relevance":1.0,"Distance":47.3,"MatchLevel":"houseNumber","MatchQuality":{"Country":1.0,"State":1.0,"County":1.0,"City":1.0,"District":1.0,"Street":[1.0],"HouseNumber":1.0,"PostalCode":1.0},"MatchType":"interpolated","Location":{"LocationId":"NT_aoq60hfo7gpzCs570B3M0C_l_25632178_L_0gzN","LocationType":"point","DisplayPosition":{"Latitude":51.3759701,"Longitude":0.5515799},"MapView":{"TopLeft":{"Latitude":51.3770942,"Longitude":0.549779},"BottomRight":{"Latitude":51.3748459,"Longitude":0.5533808}},"Address":{"Label":"487 Canterbury Street, Gillingham, ME7 5LJ, United Kingdom","Country":"GBR","State":"England","County":"Kent","City":"Gillingham","District":"Gillingham","Street":"Canterbury Street","HouseNumber":"487","PostalCode":"ME7 5LJ","AdditionalData":[{"value":"United Kingdom","key":"CountryName"},{"value":"England","key":"StateName"},{"value":"Kent","key":"CountyName"}]},"MapReference":{"ReferenceId":"25632178","Spot":0.35,"SideOfStreet":"left","StateId":"20248595","CountyId":"20336836","CityId":"20337134","DistrictId":"20337135"}}},{"Relevance":1.0,"Distance":47.9,"MatchLevel":"street","MatchQuality":{"Country":1.0,"State":1.0,"County":1.0,"City":1.0,"District":1.0,"Street":[1.0],"PostalCode":1.0},"Location":{"LocationId":"NT_2pVkQjmXCGDI0P6mGG.YRA_l_25632177_L","LocationType":"point","DisplayPosition":{"Latitude":51.37586,"Longitude":0.55171},"MapView":{"TopLeft":{"Latitude":51.37618,"Longitude":0.55159},"BottomRight":{"Latitude":51.37586,"Longitude":0.55171}},"Address":{"Label":"Nelson Road, Gillingham, ME7 4, United Kingdom","Country":"GBR","State":"England","County":"Kent","City":"Gillingham","District":"Gillingham","Street":"Nelson Road","PostalCode":"ME7 4","AdditionalData":[{"value":"United Kingdom","key":"CountryName"},{"value":"England","key":"StateName"},{"value":"Kent","key":"CountyName"}]},"MapReference":{"ReferenceId":"25632177","Spot":0.0,"SideOfStreet":"left","StateId":"20248595","CountyId":"20336836","CityId":"20337134","DistrictId":"20337135"}}},{"Relevance":1.0,"Distance":51.0,"MatchLevel":"houseNumber","MatchQuality":{"Country":1.0,"State":1.0,"County":1.0,"City":1.0,"District":1.0,"Street":[1.0],"HouseNumber":1.0,"PostalCode":1.0},"MatchType":"interpolated","Location":{"LocationId":"NT_Xp4mjydttGzcsl933qVjNC_l_25632450_R_4A","LocationType":"point","DisplayPosition":{"Latitude":51.3748426,"Longitude":0.5517116},"MapView":{"TopLeft":{"Latitude":51.3759668,"Longitude":0.5499107},"BottomRight":{"Latitude":51.3737185,"Longitude":0.5535124}},"Address":{"Label":"8 Eva Road, Gillingham, ME7 5NE, United Kingdom","Country":"GBR","State":"England","County":"Kent","City":"Gillingham","District":"Gillingham","Street":"Eva Road","HouseNumber":"8","PostalCode":"ME7 5NE","AdditionalData":[{"value":"United Kingdom","key":"CountryName"},{"value":"England","key":"StateName"},{"value":"Kent","key":"CountyName"}]},"MapReference":{"ReferenceId":"25632450","Spot":0.22,"SideOfStreet":"right","StateId":"20248595","CountyId":"20336836","CityId":"20337134","DistrictId":"20337135"}}},{"Relevance":1.0,"Distance":59.6,"MatchLevel":"street","MatchQuality":{"Country":1.0,"State":1.0,"County":1.0,"City":1.0,"District":1.0,"Street":[1.0],"PostalCode":1.0},"Location":{"LocationId":"NT_jZ-Cn-IYIdx2xWDk8SWf0A_l_25632427_L","LocationType":"point","DisplayPosition":{"Latitude":51.37499,"Longitude":0.5521},"MapView":{"TopLeft":{"Latitude":51.37499,"Longitude":0.5521},"BottomRight":{"Latitude":51.37489,"Longitude":0.55214}},"Address":{"Label":"Canterbury Street, Gillingham, ME7 5, United Kingdom","Country":"GBR","State":"England","County":"Kent","City":"Gillingham","District":"Gillingham","Street":"Canterbury Street","PostalCode":"ME7 5","AdditionalData":[{"value":"United Kingdom","key":"CountryName"},{"value":"England","key":"StateName"},{"value":"Kent","key":"CountyName"}]},"MapReference":{"ReferenceId":"25632427","Spot":1.0,"SideOfStreet":"left","StateId":"20248595","CountyId":"20336836","CityId":"20337134","DistrictId":"20337135"}}}]}]}}