{"Response":{"MetaInfo":{"Timestamp":"2020-03-28T10:02:21.313+0000","NextPageInformation":"2"},"View":[{"_type":"SearchResultsViewType","ViewId":0,"Result":[{"Relevance":1.0,"Distance":0.0,"Direction":0.0,"MatchLevel":"district","MatchQuality":{"Country":1.0,"State":1.0,"County":1.0,"City":1.0,"District":1.0,"PostalCode":1.0},"Location":{"LocationId":"NT_41vIr6EVgJROCZIpGYSMJA","LocationType":"point","DisplayPosition":{"Latitude":51.3038875,"Longitude":9.4211233},"MapView":{"TopLeft":{"Latitude":51.3525,"Longitude":9.41055},"BottomRight":{"Latitude":51.27197,"Longitude":9.56181}},"Address":{"Label":"Kassel, Hessen, Deutschland","Country":"DEU","State":"Hessen","County":"Kassel (Stadt)","City":"Kassel","District":"Kassel","PostalCode":"34125","AdditionalData":[{"value":"Deutschland","key":"CountryName"},{"value":"Hessen","key":"StateName"},{"value":"Kassel (Stadt)","key":"CountyName"}]},"MapReference":{"ReferenceId":"709893764","SideOfStreet":"neither","CountryId":"20147700","StateId":"20160993","CountyId":"20162964","CityId":"20162965","DistrictId":"20162971"}}},{"Relevance":1.0,"Distance":15.3,"MatchLevel":"street","MatchQuality":{"Country":1.0,"State":1.0,"County":1.0,"City":1.0,"District":1.0,"Street":[1.0],"PostalCode":1.0},"Location":{"LocationId":"NT_NcdU1qzpRK3ZhuRWy38ZFA_l_1266598674_L","LocationType":"point","DisplayPosition":{"Latitude":51.30395,"Longitude":9.42132},"MapView":{"TopLeft":{"Latitude":51.30395,"Longitude":9.42132},"BottomRight":{"Latitude":51.30365,"Longitude":9.42153}},"Address":{"Label":"Westerwaldstraße, 34131 Kassel, Deutschland","Country":"DEU","State":"Hessen","County":"Kassel (Stadt)","City":"Kassel","District":"Kassel","Street":"Westerwaldstraße","PostalCode":"34131","AdditionalData":[{"value":"Deutschland","key":"CountryName"},{"value":"Hessen","key":"StateName"},{"value":"Kassel (Stadt)","key":"CountyName"}]},"MapReference":{"ReferenceId":"1266598674","Spot":1.0,"SideOfStreet":"left","CountryId":"20147700","StateId":"20160993","CountyId":"20162964","CityId":"20162965","DistrictId":"20162971"}}},{"Relevance":1.0,"Distance":24.6,"MatchLevel":"houseNumber","MatchQuality":{"Country":1.0,"State":1.0,"County":1.0,"City":1.0,"District":1.0,"Street":[1.0],"HouseNumber":1.0,"PostalCode":1.0},"MatchType":"interpolated","Location":{"LocationId":"NT_s.RlF6m0hHmgj-ZUj2StTB_xcDO","LocationType":"point","DisplayPosition":{"Latitude":51.30344,"Longitude":9.42111},"MapView":{"TopLeft":{"Latitude":51.3045642,"Longitude":9.4193119},"BottomRight":{"Latitude":51.3023158,"Longitude":9.4229081}},"Address":{"Label":"Druseltalstraße 178, 34131 Kassel, Deutschland","Country":"DEU","State":"Hessen","County":"Kassel (Stadt)","City":"Kassel","District":"Kassel","Street":"Druseltalstraße","HouseNumber":"178","PostalCode":"34131","AdditionalData":[{"value":"Deutschland","key":"CountryName"},{"value":"Hessen","key":"StateName"},{"value":"Kassel (Stadt)","key":"CountyName"}]},"MapReference":{"ReferenceId":"833671788","Spot":0.5,"SideOfStreet":"left","CountryId":"20147700","StateId":"20160993","CountyId":"20162964","CityId":"20162965","DistrictId":"20162971","AddressId":"790183036","RoadLinkId":"216978933"}}},{"Relevance":1.0,"Distance":33.0,"MatchLevel":"street","MatchQuality":{"Country":1.0,"State":1.0,"County":1.0,"City":1.0,"District":1.0,"PostalCode":1.0},"Location":{"LocationId":"NT_-5skkFylI7KD0Cy1dsUb3B_l_1266598675_L","LocationType":"point","DisplayPosition":{"Latitude":51.3035926,"Longitude":9.4211704},"MapView":{"TopLeft":{"Latitude":51.30365,"Longitude":9.41987},"BottomRight":{"Latitude":51.30331,"Longitude":9.42153}},"Address":{"Label":"34131 Kassel, Deutschland","Country":"DEU","State":"Hessen","County":"Kassel (Stadt)","City":"Kassel","District":"Kassel","PostalCode":"34131","AdditionalData":[{"value":"Deutschland","key":"CountryName"},{"value":"Hessen","key":"StateName"},{"value":"Kassel (Stadt)","key":"CountyName"}]},"MapReference":{"ReferenceId":"1266598675","Spot":0.79,"SideOfStreet":"left","CountryId":"20147700","StateId":"20160993","CountyId":"20162964","CityId":"20162965","DistrictId":"20162971"}}},{"Relevance":1.0,"Distance":38.7,"MatchLevel":"street","MatchQuality":{"Country":1.0,"State":1.0,"County":1.0,"City":1.0,"District":1.0,"Street":[1.0],"PostalCode":1.0},"Location":{"LocationId":"NT_NcdU1qzpRK3ZhuRWy38ZFA_l_1266598673_L","LocationType":"point","DisplayPosition":{"Latitude":51.30365,"Longitude":9.42153},"MapView":{"TopLeft":{"Latitude":51.30365,"Longitude":9.42153},"BottomRight":{"Latitude":51.30353,"Longitude":9.42171}},"Address":{"Label":"Westerwaldstraße, 34131 Kassel, Deutschland","Country":"DEU","State":"Hessen","County":"Kassel (Stadt)","City":"Kassel","District":"Kassel","Street":"Westerwaldstraße","PostalCode":"34131","AdditionalData":[{"value":"Deutschland","key":"CountryName"},{"value":"Hessen","key":"StateName"},{"value":"Kassel (Stadt)","key":"CountyName"}]},"MapReference":{"ReferenceId":"1266598673","Spot":1.0,"SideOfStreet":"left","CountryId":"20147700","StateId":"20160993","CountyId":"20162964","CityId":"20162965","DistrictId":"20162971"}}},{"Relevance":1.0,"Distance":38.7,"MatchLevel":"street","MatchQuality":{"Country":1.0,"State":1.0,"County":1.0,"City":1.0,"District":1.0,"PostalCode":1.0},"Location":{"LocationId":"NT_-5skkFylI7KD0Cy1dsUb3B_l_1266598678_L","LocationType":"point","DisplayPosition":{"Latitude":51.30365,"Longitude":9.42153},"MapView":{"TopLeft":{"Latitude":51.30382,"Longitude":9.42153},"BottomRight":{"Latitude":51.30365,"Longitude":9.42343}},"Address":{"Label":"34131 Kassel, Deutschland","Country":"DEU","State":"Hessen","County":"Kassel (Stadt)","City":"Kassel","District":"Kassel","PostalCode":"34131","AdditionalData":[{"value":"Deutschland","key":"CountryName"},{"value":"Hessen","key":"StateName"},{"value":"Kassel (Stadt)","key":"CountyName"}]},"MapReference":{"ReferenceId":"1266598678","Spot":0.0,"SideOfStreet":"left","CountryId":"20147700","StateId":"20160993","CountyId":"20162964","CityId":"20162965","DistrictId":"20162971"}}},{"Relevance":1.0,"Distance":45.4,"MatchLevel":"houseNumber","MatchQuality":{"Country":1.0,"State":1.0,"County":1.0,"City":1.0,"District":1.0,"Street":[1.0],"HouseNumber":1.0,"PostalCode":1.0},"MatchType":"interpolated","Location":{"LocationId":"NT_NcdU1qzpRK3ZhuRWy38ZFA_xA","LocationType":"point","DisplayPosition":{"Latitude":51.30429,"Longitude":9.42101},"MapView":{"TopLeft":{"Latitude":51.3054142,"Longitude":9.4192119},"BottomRight":{"Latitude":51.3031658,"Longitude":9.4228081}},"Address":{"Label":"Westerwaldstraße 1, 34131 Kassel, Deutschland","Country":"DEU","State":"Hessen","County":"Kassel (Stadt)","City":"Kassel","District":"Kassel","Street":"Westerwaldstraße","HouseNumber":"1","PostalCode":"34131","AdditionalData":[{"value":"Deutschland","key":"CountryName"},{"value":"Hessen","key":"StateName"},{"value":"Kassel (Stadt)","key":"CountyName"}]},"MapReference":{"ReferenceId":"52574426","Spot":0.36,"SideOfStreet":"left","CountryId":"20147700","StateId":"20160993","CountyId":"20162964","CityId":"20162965","DistrictId":"20162971","AddressId":"186680407","RoadLinkId":"34870050"}}},{"Relevance":1.0,"Distance":60.7,"MatchLevel":"street","MatchQuality":{"Country":1.0,"State":1.0,"County":1.0,"City":1.0,"District":1.0,"Street":[1.0],"PostalCode":1.0},"Location":{"LocationId":"NT_6oDt87kkmJE-AoqWieB19B_l_833671794_L","LocationType":"point","DisplayPosition":{"Latitude":51.303345,"Longitude":9.4212156},"MapView":{"TopLeft":{"Latitude":51.30343,"Longitude":9.41957},"BottomRight":{"Latitude":51.30298,"Longitude":9.42177}},"Address":{"Label":"Druseltalstraße, 34131 Kassel, Deutschland","Country":"DEU","State":"Hessen","County":"Kassel (Stadt)","City":"Kassel","District":"Kassel","Street":"Druseltalstraße","PostalCode":"34131","AdditionalData":[{"value":"Deutschland","key":"CountryName"},{"value":"Hessen","key":"StateName"},{"value":"Kassel (Stadt)","key":"CountyName"}]},"MapReference":{"ReferenceId":"833671794","Spot":0.75,"SideOfStreet":"left","CountryId":"20147700","StateId":"20160993","CountyId":"20162964","CityId":"20162965","DistrictId":"20162971"}}},{"Relevance":1.0,"Distance":62.6,"MatchLevel":"houseNumber","MatchQuality":{"Country":1.0,"State":1.0,"County":1.0,"City":1.0,"District":1.0,"Street":[1.0],"HouseNumber":1.0,"PostalCode":1.0},"MatchType":"interpolated","Location":{"LocationId":"NT_dUa1XlHEZrhxJy9HdJrllB_zQD","LocationType":"point","DisplayPosition":{"Latitude":51.30423,"Longitude":9.42206},"MapView":{"TopLeft":{"Latitude":51.3053542,"Longitude":9.4202619},"BottomRight":{"Latitude":51.3031058,"Longitude":9.4238581}},"Address":{"Label":"Max-Planck-Straße 34, 34131 Kassel, Deutschland","Country":"DEU","State":"Hessen","County":"Kassel (Stadt)","City":"Kassel","District":"Kassel","Street":"Max-Planck-Straße","HouseNumber":"34","PostalCode":"34131","AdditionalData":[{"value":"Deutschland","key":"CountryName"},{"value":"Hessen","key":"StateName"},{"value":"Kassel (Stadt)","key":"CountyName"}]},"MapReference":{"ReferenceId":"52566542","Spot":0.0,"SideOfStreet":"right","CountryId":"20147700","StateId":"20160993","CountyId":"20162964","CityId":"20162965","DistrictId":"20162971","AddressId":"250008355","RoadLinkId":"34375273"}}},{"Relevance":1.0,"Distance":67.9,"MatchLevel":"street","MatchQuality":{"Country":1.0,"State":1.0,"County":1.0,"City":1.0,"District":1.0,"PostalCode":1.0},"Location":{"LocationId":"NT_-5skkFylI7KD0Cy1dsUb3B_l_1266598668_L","LocationType":"point","DisplayPosition":{"Latitude":51.30343,"Longitude":9.42177},"MapView":{"TopLeft":{"Latitude":51.30347,"Longitude":9.42177},"BottomRight":{"Latitude":51.30343,"Longitude":9.42314}},"Address":{"Label":"34131 Kassel, Deutschland","Country":"DEU","State":"Hessen","County":"Kassel (Stadt)","City":"Kassel","District":"Kassel","PostalCode":"34131","AdditionalData":[{"value":"Deutschland","key":"CountryName"},{"value":"Hessen","key":"StateName"},{"value":"Kassel (Stadt)","key":"CountyName"}]},"MapReference":{"ReferenceId":"1266598668","Spot":0.0,"SideOfStreet":"left","CountryId":"20147700","StateId":"20160993","CountyId":"20162964","CityId":"20162965","DistrictId":"20162971"}}}]}]}}