{"Response":{"MetaInfo":{"Timestamp":"2020-03-28T12:05:06.859+0000","NextPageInformation":"2"},"View":[{"_type":"SearchResultsViewType","ViewId":0,"Result":[{"Relevance":1.0,"Distance":0.0,"Direction":0.0,"MatchLevel":"district","MatchQuality":{"Country":1.0,"State":1.0,"County":1.0,"City":1.0,"District":1.0,"PostalCode":1.0},"Location":{"LocationId":"NT_U6nBL39HgmuSClbMpf9wiA","LocationType":"point","DisplayPosition":{"Latitude":51.3580655,"Longitude":20.6322493},"MapView":{"TopLeft":{"Latitude":51.37269,"Longitude":20.60531},"BottomRight":{"Latitude":51.33235,"Longitude":20.65219}},"Address":{"Label":"Przysucha, Woj. Mazowieckie, Polska","Country":"POL","State":"Woj. Mazowieckie","County":"Powiat Przysuski","City":"Przysucha","District":"Przysucha","PostalCode":"26-400","AdditionalData":[{"value":"Polska","key":"CountryName"},{"value":"Woj. Mazowieckie","key":"StateName"},{"value":"Powiat Przysuski","key":"CountyName"}]},"MapReference":{"ReferenceId":"1192425704","SideOfStreet":"neither","CountryId":"20624059","StateId":"20627182","CountyId":"20627613","CityId":"20627626","DistrictId":"20689028"}}},{"Relevance":1.0,"Distance":3.1,"MatchLevel":"houseNumber","MatchQuality":{"Country":1.0,"State":1.0,"County":1.0,"City":1.0,"District":1.0,"Street":[1.0],"HouseNumber":1.0,"PostalCode":1.0},"MatchType":"interpolated","Location":{"LocationId":"NT_V-U19aB3ba1fXCuhWfHA2A_xED","LocationType":"point","DisplayPosition":{"Latitude":51.35782,"Longitude":20.63209},"MapView":{"TopLeft":{"Latitude":51.3589442,"Longitude":20.6302898},"BottomRight":{"Latitude":51.3566958,"Longitude":20.6338902}},"Address":{"Label":"ulica Radomska 11, 26-400 Przysucha, Polska","Country":"POL","State":"Woj. Mazowieckie","County":"Powiat Przysuski","City":"Przysucha","District":"Przysucha","Street":"ulica Radomska","HouseNumber":"11","PostalCode":"26-400","AdditionalData":[{"value":"Polska","key":"CountryName"},{"value":"Woj. Mazowieckie","key":"StateName"},{"value":"Powiat Przysuski","key":"CountyName"}]},"MapReference":{"ReferenceId":"843778770","Spot":0.91,"SideOfStreet":"right","CountryId":"20624059","StateId":"20627182","CountyId":"20627613","CityId":"20627626","DistrictId":"20689028","AddressId":"731793983","RoadLinkId":"225194027"}}},{"Relevance":1.0,"Distance":7.9,"MatchLevel":"houseNumber","MatchQuality":{"Country":1.0,"State":1.0,"County":1.0,"City":1.0,"District":1.0,"Street":[1.0],"HouseNumber":1.0,"PostalCode":1.0},"MatchType":"interpolated","Location":{"LocationId":"NT_8pTqipZEbvz1bEcJ803CYB_yA","LocationType":"point","DisplayPosition":{"Latitude":51.35817,"Longitude":20.63198},"MapView":{"TopLeft":{"Latitude":51.3592942,"Longitude":20.6301798},"BottomRight":{"Latitude":51.3570458,"Longitude":20.6337802}},"Address":{"Label":"aleja Jana Pawła II 2, 26-400 Przysucha, Polska","Country":"POL","State":"Woj. Mazowieckie","County":"Powiat Przysuski","City":"Przysucha","District":"Przysucha","Street":"aleja Jana Pawła II","HouseNumber":"2","PostalCode":"26-400","AdditionalData":[{"value":"Polska","key":"CountryName"},{"value":"Woj. Mazowieckie","key":"StateName"},{"value":"Powiat Przysuski","key":"CountyName"}]},"MapReference":{"ReferenceId":"596234514","Spot":0.2,"SideOfStreet":"right","CountryId":"20624059","StateId":"20627182","CountyId":"20627613","CityId":"20627626","DistrictId":"20689028","AddressId":"689057760","RoadLinkId":"95415002"}}},{"Relevance":1.0,"Distance":30.1,"MatchLevel":"street","MatchQuality":{"Country":1.0,"State":1.0,"County":1.0,"City":1.0,"District":1.0,"Street":[1.0],"PostalCode":1.0},"Location":{"LocationId":"NT_V-U19aB3ba1fXCuhWfHA2A_l_843778771_R","LocationType":"point","DisplayPosition":{"Latitude":51.35784,"Longitude":20.63201},"MapView":{"TopLeft":{"Latitude":51.35787,"Longitude":20.63186},"BottomRight":{"Latitude":51.35784,"Longitude":20.63201}},"Address":{"Label":"ulica Radomska, 26-400 Przysucha, Polska","Country":"POL","State":"Woj. Mazowieckie","County":"Powiat Przysuski","City":"Przysucha","District":"Przysucha","Street":"ulica Radomska","PostalCode":"26-400","AdditionalData":[{"value":"Polska","key":"CountryName"},{"value":"Woj. Mazowieckie","key":"StateName"},{"value":"Powiat Przysuski","key":"CountyName"}]},"MapReference":{"ReferenceId":"843778771","Spot":0.0,"SideOfStreet":"right","CountryId":"20624059","StateId":"20627182","CountyId":"20627613","CityId":"20627626","DistrictId":"20689028"}}},{"Relevance":1.0,"Distance":30.1,"MatchLevel":"street","MatchQuality":{"Country":1.0,"State":1.0,"County":1.0,"City":1.0,"District":1.0,"PostalCode":1.0},"Location":{"LocationId":"NT_azn3SpgoCVnz0qT3WAlYaB_l_1080358081_R","LocationType":"point","DisplayPosition":{"Latitude":51.35784,"Longitude":20.63201},"MapView":{"TopLeft":{"Latitude":51.35784,"Longitude":20.63192},"BottomRight":{"Latitude":51.35772,"Longitude":20.63201}},"Address":{"Label":"26-400 Przysucha, Polska","Country":"POL","State":"Woj. Mazowieckie","County":"Powiat Przysuski","City":"Przysucha","District":"Przysucha","PostalCode":"26-400","AdditionalData":[{"value":"Polska","key":"CountryName"},{"value":"Woj. Mazowieckie","key":"StateName"},{"value":"Powiat Przysuski","key":"CountyName"}]},"MapReference":{"ReferenceId":"1080358081","Spot":1.0,"SideOfStreet":"right","CountryId":"20624059","StateId":"20627182","CountyId":"20627613","CityId":"20627626","DistrictId":"20689028"}}},{"Relevance":1.0,"Distance":34.7,"MatchLevel":"street","MatchQuality":{"Country":1.0,"State":1.0,"County":1.0,"City":1.0,"District":1.0,"Street":[1.0],"PostalCode":1.0},"Location":{"LocationId":"NT_V-U19aB3ba1fXCuhWfHA2A_l_843778768_R","LocationType":"point","DisplayPosition":{"Latitude":51.35787,"Longitude":20.63186},"MapView":{"TopLeft":{"Latitude":51.35789,"Longitude":20.63177},"BottomRight":{"Latitude":51.35787,"Longitude":20.63186}},"Address":{"Label":"ulica Radomska, 26-400 Przysucha, Polska","Country":"POL","State":"Woj. Mazowieckie","County":"Powiat Przysuski","City":"Przysucha","District":"Przysucha","Street":"ulica Radomska","PostalCode":"26-400","AdditionalData":[{"value":"Polska","key":"CountryName"},{"value":"Woj. Mazowieckie","key":"StateName"},{"value":"Powiat Przysuski","key":"CountyName"}]},"MapReference":{"ReferenceId":"843778768","Spot":0.0,"SideOfStreet":"right","CountryId":"20624059","StateId":"20627182","CountyId":"20627613","CityId":"20627626","DistrictId":"20689028"}}},{"Relevance":1.0,"Distance":34.7,"MatchLevel":"street","MatchQuality":{"Country":1.0,"State":1.0,"County":1.0,"City":1.0,"District":1.0,"Street":[1.0],"PostalCode":1.0},"Location":{"LocationId":"NT_fjUQ2LDU2g9Spf6pglVfJD_l_958251277_R","LocationType":"point","DisplayPosition":{"Latitude":51.35787,"Longitude":20.63186},"MapView":{"TopLeft":{"Latitude":51.35787,"Longitude":20.63178},"BottomRight":{"Latitude":51.35775,"Longitude":20.63186}},"Address":{"Label":"ulica Legionów Polskich, 26-400 Przysucha, Polska","Country":"POL","State":"Woj. Mazowieckie","County":"Powiat Przysuski","City":"Przysucha","District":"Przysucha","Street":"ulica Legionów Polskich","PostalCode":"26-400","AdditionalData":[{"value":"Polska","key":"CountryName"},{"value":"Woj. Mazowieckie","key":"StateName"},{"value":"Powiat Przysuski","key":"CountyName"}]},"MapReference":{"ReferenceId":"958251277","Spot":1.0,"SideOfStreet":"right","CountryId":"20624059","StateId":"20627182","CountyId":"20627613","CityId":"20627626","DistrictId":"20689028"}}},{"Relevance":1.0,"Distance":44.7,"MatchLevel":"street","MatchQuality":{"Country":1.0,"State":1.0,"County":1.0,"City":1.0,"District":1.0,"PostalCode":1.0},"Location":{"LocationId":"NT_azn3SpgoCVnz0qT3WAlYaB_l_1080358080_R","LocationType":"point","DisplayPosition":{"Latitude":51.35772,"Longitude":20.63192},"MapView":{"TopLeft":{"Latitude":51.35772,"Longitude":20.63171},"BottomRight":{"Latitude":51.35752,"Longitude":20.63192}},"Address":{"Label":"26-400 Przysucha, Polska","Country":"POL","State":"Woj. Mazowieckie","County":"Powiat Przysuski","City":"Przysucha","District":"Przysucha","PostalCode":"26-400","AdditionalData":[{"value":"Polska","key":"CountryName"},{"value":"Woj. Mazowieckie","key":"StateName"},{"value":"Powiat Przysuski","key":"CountyName"}]},"MapReference":{"ReferenceId":"1080358080","Spot":1.0,"SideOfStreet":"right","CountryId":"20624059","StateId":"20627182","CountyId":"20627613","CityId":"20627626","DistrictId":"20689028"}}},{"Relevance":1.0,"Distance":47.2,"MatchLevel":"houseNumber","MatchQuality":{"Country":1.0,"State":1.0,"County":1.0,"City":1.0,"District":1.0,"Street":[1.0],"HouseNumber":1.0,"PostalCode":1.0},"MatchType":"interpolated","Location":{"LocationId":"NT_V-U19aB3ba1fXCuhWfHA2A_5A","LocationType":"point","DisplayPosition":{"Latitude":51.35796,"Longitude":20.63145},"MapView":{"TopLeft":{"Latitude":51.3590842,"Longitude":20.6296498},"BottomRight":{"Latitude":51.3568358,"Longitude":20.6332502}},"Address":{"Label":"ulica Radomska 9, 26-400 Przysucha, Polska","Country":"POL","State":"Woj. Mazowieckie","County":"Powiat Przysuski","City":"Przysucha","District":"Przysucha","Street":"ulica Radomska","HouseNumber":"9","PostalCode":"26-400","AdditionalData":[{"value":"Polska","key":"CountryName"},{"value":"Woj. Mazowieckie","key":"StateName"},{"value":"Powiat Przysuski","key":"CountyName"}]},"MapReference":{"ReferenceId":"1192425704","Spot":0.02,"SideOfStreet":"right","CountryId":"20624059","StateId":"20627182","CountyId":"20627613","CityId":"20627626","DistrictId":"20689028","AddressId":"689193364","RoadLinkId":"502107713"}}},{"Relevance":1.0,"Distance":47.9,"MatchLevel":"street","MatchQuality":{"Country":1.0,"State":1.0,"County":1.0,"City":1.0,"District":1.0,"Street":[1.0],"PostalCode":1.0},"Location":{"LocationId":"NT_fjUQ2LDU2g9Spf6pglVfJD_l_958251276_R","LocationType":"point","DisplayPosition":{"Latitude":51.35775,"Longitude":20.63178},"MapView":{"TopLeft":{"Latitude":51.35775,"Longitude":20.63171},"BottomRight":{"Latitude":51.35752,"Longitude":20.63178}},"Address":{"Label":"ulica Legionów Polskich, 26-400 Przysucha, Polska","Country":"POL","State":"Woj. Mazowieckie","County":"Powiat Przysuski","City":"Przysucha","District":"Przysucha","Street":"ulica Legionów Polskich","PostalCode":"26-400","AdditionalData":[{"value":"Polska","key":"CountryName"},{"value":"Woj. Mazowieckie","key":"StateName"},{"value":"Powiat Przysuski","key":"CountyName"}]},"MapReference":{"ReferenceId":"958251276","Spot":1.0,"SideOfStreet":"right","CountryId":"20624059","StateId":"20627182","CountyId":"20627613","CityId":"20627626","DistrictId":"20689028"}}}]}]}}