{"Response":{"MetaInfo":{"Timestamp":"2020-03-28T10:37:47.695+0000","NextPageInformation":"2"},"View":[{"_type":"SearchResultsViewType","ViewId":0,"Result":[{"Relevance":1.0,"Distance":0.0,"Direction":0.0,"MatchLevel":"district","MatchQuality":{"Country":1.0,"State":1.0,"County":1.0,"City":1.0,"District":1.0,"PostalCode":1.0},"Location":{"LocationId":"NT_EAdXcSwqtmwl2DQ.Z7wbqC","LocationType":"point","DisplayPosition":{"Latitude":51.3525166,"Longitude":-0.7784244},"MapView":{"TopLeft":{"Latitude":51.35251,"Longitude":-0.78733},"BottomRight":{"Latitude":51.33827,"Longitude":-0.77252}},"Address":{"Label":"College Town, Sandhurst, England, United Kingdom","Country":"GBR","State":"England","County":"Berkshire","City":"Sandhurst","District":"College Town","PostalCode":"GU47 0","AdditionalData":[{"value":"United Kingdom","key":"CountryName"},{"value":"England","key":"StateName"},{"value":"Berkshire","key":"CountyName"}]},"MapReference":{"ReferenceId":"565990460","SideOfStreet":"neither","StateId":"20248595","CountyId":"20334448","CityId":"20334657","DistrictId":"20334659"}}},{"Relevance":1.0,"Distance":14.5,"MatchLevel":"houseNumber","MatchQuality":{"Country":1.0,"State":1.0,"County":1.0,"City":1.0,"District":1.0,"Street":[1.0],"HouseNumber":1.0,"PostalCode":1.0},"MatchType":"interpolated","Location":{"LocationId":"NT_zomTUFrIKFm7x2aEP.FOEC_l_25532307_L_zA","LocationType":"point","DisplayPosition":{"Latitude":51.3524243,"Longitude":-0.7780257},"MapView":{"TopLeft":{"Latitude":51.3535485,"Longitude":-0.7798257},"BottomRight":{"Latitude":51.3513002,"Longitude":-0.7762257}},"Address":{"Label":"3 Cambridge Road, Sandhurst, GU47 0, United Kingdom","Country":"GBR","State":"England","County":"Berkshire","City":"Sandhurst","District":"Owlsmoor","Street":"Cambridge Road","HouseNumber":"3","PostalCode":"GU47 0","AdditionalData":[{"value":"United Kingdom","key":"CountryName"},{"value":"England","key":"StateName"},{"value":"Berkshire","key":"CountyName"}]},"MapReference":{"ReferenceId":"25532307","Spot":0.24,"SideOfStreet":"left","StateId":"20248595","CountyId":"20334448","CityId":"20334657","DistrictId":"20334661"}}},{"Relevance":1.0,"Distance":23.5,"MatchLevel":"houseNumber","MatchQuality":{"Country":1.0,"State":1.0,"County":1.0,"City":1.0,"District":1.0,"Street":[1.0],"HouseNumber":1.0,"PostalCode":1.0},"MatchType":"interpolated","Location":{"LocationId":"NT_HbwrRSxwhk9uEg6SHpDtuA_l_25532308_R_zkD","LocationType":"point","DisplayPosition":{"Latitude":51.3522502,"Longitude":-0.7787019},"MapView":{"TopLeft":{"Latitude":51.3533743,"Longitude":-0.7805019},"BottomRight":{"Latitude":51.351126,"Longitude":-0.7769019}},"Address":{"Label":"39 Yeovil Road, Sandhurst, GU47 0TF, United Kingdom","Country":"GBR","State":"England","County":"Berkshire","City":"Sandhurst","District":"College Town","Street":"Yeovil Road","HouseNumber":"39","PostalCode":"GU47 0TF","AdditionalData":[{"value":"United Kingdom","key":"CountryName"},{"value":"England","key":"StateName"},{"value":"Berkshire","key":"CountyName"}]},"MapReference":{"ReferenceId":"25532308","Spot":0.5,"SideOfStreet":"right","StateId":"20248595","CountyId":"20334448","CityId":"20334657","DistrictId":"20334659"}}},{"Relevance":1.0,"Distance":25.4,"MatchLevel":"postalCode","MatchQuality":{"PostalCode":1.0},"MatchType":"interpolated","Location":{"LocationId":"NT_zomTUFrIKFm7x2aEP.FOEC_l_25532307_L_zA","LocationType":"point","DisplayPosition":{"Latitude":51.3525,"Longitude":-0.77806},"MapView":{"TopLeft":{"Latitude":51.3614932,"Longitude":-0.79246},"BottomRight":{"Latitude":51.3435068,"Longitude":-0.76366}},"Address":{"Label":"GU47 0UB, Sandhurst, England, United Kingdom","Country":"GBR","State":"England","County":"Berkshire","City":"Sandhurst","PostalCode":"GU47 0UB","AdditionalData":[{"value":"United Kingdom","key":"CountryName"},{"value":"England","key":"StateName"},{"value":"Berkshire","key":"CountyName"}]},"MapReference":{"ReferenceId":"25532307","Spot":0.24,"SideOfStreet":"neither","StateId":"20248595","CountyId":"20334448","CityId":"20334657"}}},{"Relevance":1.0,"Distance":38.3,"MatchLevel":"postalCode","MatchQuality":{"PostalCode":1.0},"MatchType":"interpolated","Location":{"LocationId":"NT_HbwrRSxwhk9uEg6SHpDtuA_l_25532308_R_zkD","LocationType":"point","DisplayPosition":{"Latitude":51.3522,"Longitude":-0.77864},"MapView":{"TopLeft":{"Latitude":51.3611932,"Longitude":-0.7930399},"BottomRight":{"Latitude":51.3432068,"Longitude":-0.7642401}},"Address":{"Label":"GU47 0TE, Sandhurst, England, United Kingdom","Country":"GBR","State":"England","County":"Berkshire","City":"Sandhurst","PostalCode":"GU47 0TE","AdditionalData":[{"value":"United Kingdom","key":"CountryName"},{"value":"England","key":"StateName"},{"value":"Berkshire","key":"CountyName"}]},"MapReference":{"ReferenceId":"25532308","Spot":0.5,"SideOfStreet":"neither","StateId":"20248595","CountyId":"20334448","CityId":"20334657"}}},{"Relevance":1.0,"Distance":52.8,"MatchLevel":"houseNumber","MatchQuality":{"Country":1.0,"State":1.0,"County":1.0,"City":1.0,"District":1.0,"Street":[1.0],"HouseNumber":1.0,"PostalCode":1.0},"MatchType":"interpolated","Location":{"LocationId":"NT_HbwrRSxwhk9uEg6SHpDtuA_l_25532381_R_zMD","LocationType":"point","DisplayPosition":{"Latitude":51.3521698,"Longitude":-0.7777554},"MapView":{"TopLeft":{"Latitude":51.3532939,"Longitude":-0.7795554},"BottomRight":{"Latitude":51.3510456,"Longitude":-0.7759554}},"Address":{"Label":"33 Yeovil Road, Sandhurst, GU47 0, United Kingdom","Country":"GBR","State":"England","County":"Berkshire","City":"Sandhurst","District":"College Town","Street":"Yeovil Road","HouseNumber":"33","PostalCode":"GU47 0","AdditionalData":[{"value":"United Kingdom","key":"CountryName"},{"value":"England","key":"StateName"},{"value":"Berkshire","key":"CountyName"}]},"MapReference":{"ReferenceId":"25532381","Spot":0.9,"SideOfStreet":"right","StateId":"20248595","CountyId":"20334448","CityId":"20334657","DistrictId":"20334659"}}},{"Relevance":1.0,"Distance":62.9,"MatchLevel":"houseNumber","MatchQuality":{"Country":1.0,"State":1.0,"County":1.0,"City":1.0,"District":1.0,"Street":[1.0],"HouseNumber":1.0,"PostalCode":1.0},"MatchType":"interpolated","Location":{"LocationId":"NT_KaY1J4FNrnVzOjaMMk9RJD_l_25532248_L_zYD","LocationType":"point","DisplayPosition":{"Latitude":51.3527563,"Longitude":-0.7774263},"MapView":{"TopLeft":{"Latitude":51.3538804,"Longitude":-0.7792263},"BottomRight":{"Latitude":51.3516321,"Longitude":-0.7756262}},"Address":{"Label":"36 Moor Close, Sandhurst, GU47 0TB, United Kingdom","Country":"GBR","State":"England","County":"Berkshire","City":"Sandhurst","District":"Owlsmoor","Street":"Moor Close","HouseNumber":"36","PostalCode":"GU47 0TB","AdditionalData":[{"value":"United Kingdom","key":"CountryName"},{"value":"England","key":"StateName"},{"value":"Berkshire","key":"CountyName"}]},"MapReference":{"ReferenceId":"25532248","Spot":0.44,"SideOfStreet":"left","StateId":"20248595","CountyId":"20334448","CityId":"20334657","DistrictId":"20334661"}}},{"Relevance":1.0,"Distance":75.9,"MatchLevel":"houseNumber","MatchQuality":{"Country":1.0,"State":1.0,"County":1.0,"City":1.0,"District":1.0,"Street":[1.0],"HouseNumber":1.0,"PostalCode":1.0},"MatchType":"interpolated","Location":{"LocationId":"NT_KaY1J4FNrnVzOjaMMk9RJD_l_25532220_L_1ID","LocationType":"point","DisplayPosition":{"Latitude":51.3531,"Longitude":-0.7776012},"MapView":{"TopLeft":{"Latitude":51.3542242,"Longitude":-0.7794012},"BottomRight":{"Latitude":51.3519758,"Longitude":-0.7758012}},"Address":{"Label":"52 Moor Close, Sandhurst, GU47 0TB, United Kingdom","Country":"GBR","State":"England","County":"Berkshire","City":"Sandhurst","District":"Owlsmoor","Street":"Moor Close","HouseNumber":"52","PostalCode":"GU47 0TB","AdditionalData":[{"value":"United Kingdom","key":"CountryName"},{"value":"England","key":"StateName"},{"value":"Berkshire","key":"CountyName"}]},"MapReference":{"ReferenceId":"25532220","Spot":0.49,"SideOfStreet":"left","StateId":"20248595","CountyId":"20334448","CityId":"20334657","DistrictId":"20334661"}}},{"Relevance":1.0,"Distance":76.4,"MatchLevel":"houseNumber","MatchQuality":{"Country":1.0,"State":1.0,"County":1.0,"City":1.0,"District":1.0,"Street":[1.0],"HouseNumber":1.0,"PostalCode":1.0},"MatchType":"interpolated","Location":{"LocationId":"NT_HbwrRSxwhk9uEg6SHpDtuA_l_25532296_R_zED","LocationType":"point","DisplayPosition":{"Latitude":51.35232,"Longitude":-0.7795301},"MapView":{"TopLeft":{"Latitude":51.3534442,"Longitude":-0.7813301},"BottomRight":{"Latitude":51.3511959,"Longitude":-0.7777301}},"Address":{"Label":"31 Yeovil Road, Sandhurst, GU47 0TF, United Kingdom","Country":"GBR","State":"England","County":"Berkshire","City":"Sandhurst","District":"College Town","Street":"Yeovil Road","HouseNumber":"31","PostalCode":"GU47 0TF","AdditionalData":[{"value":"United Kingdom","key":"CountryName"},{"value":"England","key":"StateName"},{"value":"Berkshire","key":"CountyName"}]},"MapReference":{"ReferenceId":"25532296","Spot":0.3,"SideOfStreet":"right","StateId":"20248595","CountyId":"20334448","CityId":"20334657","DistrictId":"20334659"}}},{"Relevance":1.0,"Distance":81.5,"MatchLevel":"houseNumber","MatchQuality":{"Country":1.0,"State":1.0,"County":1.0,"City":1.0,"District":1.0,"Street":[1.0],"HouseNumber":1.0,"PostalCode":1.0},"MatchType":"interpolated","Location":{"LocationId":"NT_eWJ4GWhMeSAuKCIQFNAc2D_l_1089033864_R_xA","LocationType":"point","DisplayPosition":{"Latitude":51.3519938,"Longitude":-0.7793764},"MapView":{"TopLeft":{"Latitude":51.353118,"Longitude":-0.7811764},"BottomRight":{"Latitude":51.3508697,"Longitude":-0.7775765}},"Address":{"Label":"1 Brook Close, Sandhurst, GU47 0TG, United Kingdom","Country":"GBR","State":"England","County":"Berkshire","City":"Sandhurst","District":"College Town","Street":"Brook Close","HouseNumber":"1","PostalCode":"GU47 0TG","AdditionalData":[{"value":"United Kingdom","key":"CountryName"},{"value":"England","key":"StateName"},{"value":"Berkshire","key":"CountyName"}]},"MapReference":{"ReferenceId":"1089033864","Spot":0.54,"SideOfStreet":"right","StateId":"20248595","CountyId":"20334448","CityId":"20334657","DistrictId":"20334659"}}}]}]}}