{"Response":{"MetaInfo":{"Timestamp":"2020-03-28T10:20:31.622+0000","NextPageInformation":"2"},"View":[{"_type":"SearchResultsViewType","ViewId":0,"Result":[{"Relevance":1.0,"Distance":-35.0,"MatchLevel":"landmark","MatchQuality":{"Country":1.0,"State":1.0,"County":1.0,"City":1.0,"Street":[1.0],"PostalCode":1.0,"Name":1.0},"Location":{"LocationId":"NT_6I.Zfx6Vjjx5.oOrkBEhVB_p_QZUNBNT0QvMMdwdWIVs7mD","LocationType":"amusementPark","Name":"Fort Fun Abenteuerland","DisplayPosition":{"Latitude":51.30809,"Longitude":8.43748},"MapView":{"TopLeft":{"Latitude":51.31842,"Longitude":8.42954},"BottomRight":{"Latitude":51.30663,"Longitude":8.44095}},"Address":{"Label":"Aurorastraße, 59909 Bestwig, Deutschland","Country":"DEU","State":"Nordrhein-Westfalen","County":"Hochsauerlandkreis","City":"Bestwig","Street":"Aurorastraße","PostalCode":"59909","AdditionalData":[{"value":"Deutschland","key":"CountryName"},{"value":"Nordrhein-Westfalen","key":"StateName"},{"value":"Hochsauerlandkreis","key":"CountyName"}]},"MapReference":{"CountryId":"20147700","StateId":"20157369","CountyId":"20160329","CityId":"20160344","PlaceId":"53224317"}}},{"Relevance":1.0,"Distance":0.0,"Direction":0.0,"MatchLevel":"city","MatchQuality":{"Country":1.0,"State":1.0,"County":1.0,"City":1.0,"PostalCode":1.0},"Location":{"LocationId":"NT_qP535cW0dUZtBUPDUyyu1D","LocationType":"point","DisplayPosition":{"Latitude":51.3124466,"Longitude":8.4379202},"MapView":{"TopLeft":{"Latitude":51.4079,"Longitude":8.34892},"BottomRight":{"Latitude":51.26146,"Longitude":8.45285}},"Address":{"Label":"Bestwig, Nordrhein-Westfalen, Deutschland","Country":"DEU","State":"Nordrhein-Westfalen","County":"Hochsauerlandkreis","City":"Bestwig","PostalCode":"59909","AdditionalData":[{"value":"Deutschland","key":"CountryName"},{"value":"Nordrhein-Westfalen","key":"StateName"},{"value":"Hochsauerlandkreis","key":"CountyName"}]},"MapReference":{"ReferenceId":"1050148698","SideOfStreet":"neither","CountryId":"20147700","StateId":"20157369","CountyId":"20160329","CityId":"20160344"}}},{"Relevance":1.0,"Distance":18.3,"MatchLevel":"street","MatchQuality":{"Country":1.0,"State":1.0,"County":1.0,"City":1.0,"Street":[1.0],"PostalCode":1.0},"Location":{"LocationId":"NT_xqnnyGXBnWF9zvnaGL0rCB_l_1046410931_L","LocationType":"point","DisplayPosition":{"Latitude":51.3125239,"Longitude":8.438152},"MapView":{"TopLeft":{"Latitude":51.31274,"Longitude":8.43808},"BottomRight":{"Latitude":51.31214,"Longitude":8.43829}},"Address":{"Label":"Aurorastraße, 59909 Bestwig, Deutschland","Country":"DEU","State":"Nordrhein-Westfalen","County":"Hochsauerlandkreis","City":"Bestwig","Street":"Aurorastraße","PostalCode":"59909","AdditionalData":[{"value":"Deutschland","key":"CountryName"},{"value":"Nordrhein-Westfalen","key":"StateName"},{"value":"Hochsauerlandkreis","key":"CountyName"}]},"MapReference":{"ReferenceId":"1046410931","Spot":0.64,"SideOfStreet":"left","CountryId":"20147700","StateId":"20157369","CountyId":"20160329","CityId":"20160344"}}},{"Relevance":1.0,"Distance":34.5,"MatchLevel":"street","MatchQuality":{"Country":1.0,"State":1.0,"County":1.0,"City":1.0,"Street":[1.0],"PostalCode":1.0},"Location":{"LocationId":"NT_LeJF6-quMks9rg00bKXsAA_l_835722336_L","LocationType":"point","DisplayPosition":{"Latitude":51.31274,"Longitude":8.43808},"MapView":{"TopLeft":{"Latitude":51.31366,"Longitude":8.43794},"BottomRight":{"Latitude":51.31274,"Longitude":8.43808}},"Address":{"Label":"K71, 59909 Bestwig, Deutschland","Country":"DEU","State":"Nordrhein-Westfalen","County":"Hochsauerlandkreis","City":"Bestwig","Street":"K71","PostalCode":"59909","AdditionalData":[{"value":"Deutschland","key":"CountryName"},{"value":"Nordrhein-Westfalen","key":"StateName"},{"value":"Hochsauerlandkreis","key":"CountyName"}]},"MapReference":{"ReferenceId":"835722336","Spot":0.0,"SideOfStreet":"left","CountryId":"20147700","StateId":"20157369","CountyId":"20160329","CityId":"20160344"}}},{"Relevance":1.0,"Distance":42.7,"MatchLevel":"street","MatchQuality":{"Country":1.0,"State":1.0,"County":1.0,"City":1.0,"Street":[1.0],"PostalCode":1.0},"Location":{"LocationId":"NT_xqnnyGXBnWF9zvnaGL0rCB_l_1046410930_L","LocationType":"point","DisplayPosition":{"Latitude":51.31214,"Longitude":8.43829},"MapView":{"TopLeft":{"Latitude":51.31214,"Longitude":8.43829},"BottomRight":{"Latitude":51.31126,"Longitude":8.43845}},"Address":{"Label":"Aurorastraße, 59909 Bestwig, Deutschland","Country":"DEU","State":"Nordrhein-Westfalen","County":"Hochsauerlandkreis","City":"Bestwig","Street":"Aurorastraße","PostalCode":"59909","AdditionalData":[{"value":"Deutschland","key":"CountryName"},{"value":"Nordrhein-Westfalen","key":"StateName"},{"value":"Hochsauerlandkreis","key":"CountyName"}]},"MapReference":{"ReferenceId":"1046410930","Spot":1.0,"SideOfStreet":"left","CountryId":"20147700","StateId":"20157369","CountyId":"20160329","CityId":"20160344"}}},{"Relevance":1.0,"Distance":135.0,"MatchLevel":"street","MatchQuality":{"Country":1.0,"State":1.0,"County":1.0,"City":1.0,"Street":[1.0],"PostalCode":1.0},"Location":{"LocationId":"NT_LeJF6-quMks9rg00bKXsAA_l_1216780857_R","LocationType":"point","DisplayPosition":{"Latitude":51.31366,"Longitude":8.43797},"MapView":{"TopLeft":{"Latitude":51.31459,"Longitude":8.43797},"BottomRight":{"Latitude":51.31366,"Longitude":8.43818}},"Address":{"Label":"K71, 59909 Bestwig, Deutschland","Country":"DEU","State":"Nordrhein-Westfalen","County":"Hochsauerlandkreis","City":"Bestwig","Street":"K71","PostalCode":"59909","AdditionalData":[{"value":"Deutschland","key":"CountryName"},{"value":"Nordrhein-Westfalen","key":"StateName"},{"value":"Hochsauerlandkreis","key":"CountyName"}]},"MapReference":{"ReferenceId":"1216780857","Spot":0.0,"SideOfStreet":"right","CountryId":"20147700","StateId":"20157369","CountyId":"20160329","CityId":"20160344"}}},{"Relevance":1.0,"Distance":136.4,"MatchLevel":"street","MatchQuality":{"Country":1.0,"State":1.0,"County":1.0,"City":1.0,"Street":[1.0],"PostalCode":1.0},"Location":{"LocationId":"NT_xqnnyGXBnWF9zvnaGL0rCB_l_1216895391_L","LocationType":"point","DisplayPosition":{"Latitude":51.31126,"Longitude":8.43842},"MapView":{"TopLeft":{"Latitude":51.31126,"Longitude":8.43788},"BottomRight":{"Latitude":51.31051,"Longitude":8.43842}},"Address":{"Label":"Aurorastraße, 59909 Bestwig, Deutschland","Country":"DEU","State":"Nordrhein-Westfalen","County":"Hochsauerlandkreis","City":"Bestwig","Street":"Aurorastraße","PostalCode":"59909","AdditionalData":[{"value":"Deutschland","key":"CountryName"},{"value":"Nordrhein-Westfalen","key":"StateName"},{"value":"Hochsauerlandkreis","key":"CountyName"}]},"MapReference":{"ReferenceId":"1216895391","Spot":1.0,"SideOfStreet":"left","CountryId":"20147700","StateId":"20157369","CountyId":"20160329","CityId":"20160344"}}},{"Relevance":1.0,"Distance":215.4,"MatchLevel":"street","MatchQuality":{"Country":1.0,"State":1.0,"County":1.0,"City":1.0,"Street":[1.0],"PostalCode":1.0},"Location":{"LocationId":"NT_xqnnyGXBnWF9zvnaGL0rCB_l_1216895390_L","LocationType":"point","DisplayPosition":{"Latitude":51.31051,"Longitude":8.43788},"MapView":{"TopLeft":{"Latitude":51.31051,"Longitude":8.43738},"BottomRight":{"Latitude":51.31005,"Longitude":8.43788}},"Address":{"Label":"Aurorastraße, 59909 Bestwig, Deutschland","Country":"DEU","State":"Nordrhein-Westfalen","County":"Hochsauerlandkreis","City":"Bestwig","Street":"Aurorastraße","PostalCode":"59909","AdditionalData":[{"value":"Deutschland","key":"CountryName"},{"value":"Nordrhein-Westfalen","key":"StateName"},{"value":"Hochsauerlandkreis","key":"CountyName"}]},"MapReference":{"ReferenceId":"1216895390","Spot":1.0,"SideOfStreet":"left","CountryId":"20147700","StateId":"20157369","CountyId":"20160329","CityId":"20160344"}}},{"Relevance":1.0,"Distance":239.0,"MatchLevel":"street","MatchQuality":{"Country":1.0,"State":1.0,"County":1.0,"City":1.0,"Street":[1.0],"PostalCode":1.0},"Location":{"LocationId":"NT_LeJF6-quMks9rg00bKXsAA_l_1216780858_R","LocationType":"point","DisplayPosition":{"Latitude":51.31459,"Longitude":8.43818},"MapView":{"TopLeft":{"Latitude":51.31484,"Longitude":8.43818},"BottomRight":{"Latitude":51.31459,"Longitude":8.43821}},"Address":{"Label":"K71, 59909 Bestwig, Deutschland","Country":"DEU","State":"Nordrhein-Westfalen","County":"Hochsauerlandkreis","City":"Bestwig","Street":"K71","PostalCode":"59909","AdditionalData":[{"value":"Deutschland","key":"CountryName"},{"value":"Nordrhein-Westfalen","key":"StateName"},{"value":"Hochsauerlandkreis","key":"CountyName"}]},"MapReference":{"ReferenceId":"1216780858","Spot":0.0,"SideOfStreet":"right","CountryId":"20147700","StateId":"20157369","CountyId":"20160329","CityId":"20160344"}}},{"Relevance":1.0,"Distance":266.9,"MatchLevel":"street","MatchQuality":{"Country":1.0,"State":1.0,"County":1.0,"City":1.0,"Street":[1.0],"PostalCode":1.0},"Location":{"LocationId":"NT_LeJF6-quMks9rg00bKXsAA_l_917922111_L","LocationType":"point","DisplayPosition":{"Latitude":51.31484,"Longitude":8.43821},"MapView":{"TopLeft":{"Latitude":51.3187,"Longitude":8.43674},"BottomRight":{"Latitude":51.31484,"Longitude":8.43821}},"Address":{"Label":"K71, 59909 Bestwig, Deutschland","Country":"DEU","State":"Nordrhein-Westfalen","County":"Hochsauerlandkreis","City":"Bestwig","Street":"K71","PostalCode":"59909","AdditionalData":[{"value":"Deutschland","key":"CountryName"},{"value":"Nordrhein-Westfalen","key":"StateName"},{"value":"Hochsauerlandkreis","key":"CountyName"}]},"MapReference":{"ReferenceId":"917922111","Spot":0.0,"SideOfStreet":"left","CountryId":"20147700","StateId":"20157369","CountyId":"20160329","CityId":"20160344"}}}]}]}}