{"Response":{"MetaInfo":{"Timestamp":"2020-03-28T10:59:51.407+0000","NextPageInformation":"2"},"View":[{"_type":"SearchResultsViewType","ViewId":0,"Result":[{"Relevance":1.0,"Distance":-7.5,"MatchLevel":"landmark","MatchQuality":{"Country":1.0,"State":1.0,"County":1.0,"City":1.0,"District":1.0,"Street":[1.0],"PostalCode":1.0,"Name":1.0},"Location":{"LocationId":"NT_nQxNGL0Iw6738gZlVmxPtA_p_nSn87hKT4aj7c2EAcAIdiB","LocationType":"hospital","Name":"Alexianer Krankenhaus Maria-Hilf","DisplayPosition":{"Latitude":51.32619,"Longitude":6.58457},"MapView":{"TopLeft":{"Latitude":51.3262,"Longitude":6.5834},"BottomRight":{"Latitude":51.32469,"Longitude":6.58764}},"Address":{"Label":"Oberdießemer Straße, 47805 Krefeld, Deutschland","Country":"DEU","State":"Nordrhein-Westfalen","County":"Krefeld","City":"Krefeld","District":"Dießem/Lehmheide","Street":"Oberdießemer Straße","PostalCode":"47805","AdditionalData":[{"value":"Deutschland","key":"CountryName"},{"value":"Nordrhein-Westfalen","key":"StateName"},{"value":"Krefeld","key":"CountyName"}]},"MapReference":{"CountryId":"20147700","StateId":"20157369","CountyId":"20157434","CityId":"20157435","DistrictId":"20459429","PlaceId":"50543381"}}},{"Relevance":1.0,"Distance":0.0,"Direction":0.0,"MatchLevel":"district","MatchQuality":{"Country":1.0,"State":1.0,"County":1.0,"City":1.0,"District":1.0,"PostalCode":1.0},"Location":{"LocationId":"NT_LnmcMM0IidQ7rwweF8PXdD","LocationType":"point","DisplayPosition":{"Latitude":51.3259538,"Longitude":6.5846836},"MapView":{"TopLeft":{"Latitude":51.33141,"Longitude":6.5419},"BottomRight":{"Latitude":51.30538,"Longitude":6.59701}},"Address":{"Label":"Dießem/Lehmheide, Krefeld, Nordrhein-Westfalen, Deutschland","Country":"DEU","State":"Nordrhein-Westfalen","County":"Krefeld","City":"Krefeld","District":"Dießem/Lehmheide","PostalCode":"47805","AdditionalData":[{"value":"Deutschland","key":"CountryName"},{"value":"Nordrhein-Westfalen","key":"StateName"},{"value":"Krefeld","key":"CountyName"}]},"MapReference":{"ReferenceId":"50929093","SideOfStreet":"neither","CountryId":"20147700","StateId":"20157369","CountyId":"20157434","CityId":"20157435","DistrictId":"20459429"}}},{"Relevance":1.0,"Distance":7.5,"MatchLevel":"street","MatchQuality":{"Country":1.0,"State":1.0,"County":1.0,"City":1.0,"District":1.0,"PostalCode":1.0},"Location":{"LocationId":"NT_W5yTe8NfG8u28U7jVT44vC_l_1229569974_L","LocationType":"point","DisplayPosition":{"Latitude":51.32602,"Longitude":6.58466},"MapView":{"TopLeft":{"Latitude":51.32617,"Longitude":6.58448},"BottomRight":{"Latitude":51.32602,"Longitude":6.58466}},"Address":{"Label":"47805 Krefeld, Deutschland","Country":"DEU","State":"Nordrhein-Westfalen","County":"Krefeld","City":"Krefeld","District":"Dießem/Lehmheide","PostalCode":"47805","AdditionalData":[{"value":"Deutschland","key":"CountryName"},{"value":"Nordrhein-Westfalen","key":"StateName"},{"value":"Krefeld","key":"CountyName"}]},"MapReference":{"ReferenceId":"1229569974","Spot":0.0,"SideOfStreet":"left","CountryId":"20147700","StateId":"20157369","CountyId":"20157434","CityId":"20157435","DistrictId":"20459429"}}},{"Relevance":1.0,"Distance":7.6,"MatchLevel":"street","MatchQuality":{"Country":1.0,"State":1.0,"County":1.0,"City":1.0,"District":1.0,"PostalCode":1.0},"Location":{"LocationId":"NT_W5yTe8NfG8u28U7jVT44vC_l_1229569973_R","LocationType":"point","DisplayPosition":{"Latitude":51.3260209,"Longitude":6.5846627},"MapView":{"TopLeft":{"Latitude":51.32616,"Longitude":6.58466},"BottomRight":{"Latitude":51.32602,"Longitude":6.58511}},"Address":{"Label":"47805 Krefeld, Deutschland","Country":"DEU","State":"Nordrhein-Westfalen","County":"Krefeld","City":"Krefeld","District":"Dießem/Lehmheide","PostalCode":"47805","AdditionalData":[{"value":"Deutschland","key":"CountryName"},{"value":"Nordrhein-Westfalen","key":"StateName"},{"value":"Krefeld","key":"CountyName"}]},"MapReference":{"ReferenceId":"1229569973","Spot":0.01,"SideOfStreet":"right","CountryId":"20147700","StateId":"20157369","CountyId":"20157434","CityId":"20157435","DistrictId":"20459429"}}},{"Relevance":1.0,"Distance":27.2,"MatchLevel":"street","MatchQuality":{"Country":1.0,"State":1.0,"County":1.0,"City":1.0,"District":1.0,"Street":[1.0],"PostalCode":1.0},"Location":{"LocationId":"NT_9rIH3dLHyc2Xrp8dg-CogC_l_572293405_R","LocationType":"point","DisplayPosition":{"Latitude":51.32617,"Longitude":6.5845},"MapView":{"TopLeft":{"Latitude":51.32617,"Longitude":6.58304},"BottomRight":{"Latitude":51.3256,"Longitude":6.5845}},"Address":{"Label":"Oberdießemer Straße, 47805 Krefeld, Deutschland","Country":"DEU","State":"Nordrhein-Westfalen","County":"Krefeld","City":"Krefeld","District":"Dießem/Lehmheide","Street":"Oberdießemer Straße","PostalCode":"47805","AdditionalData":[{"value":"Deutschland","key":"CountryName"},{"value":"Nordrhein-Westfalen","key":"StateName"},{"value":"Krefeld","key":"CountyName"}]},"MapReference":{"ReferenceId":"572293405","Spot":1.0,"SideOfStreet":"right","CountryId":"20147700","StateId":"20157369","CountyId":"20157434","CityId":"20157435","DistrictId":"20459429"}}},{"Relevance":1.0,"Distance":28.1,"MatchLevel":"street","MatchQuality":{"Country":1.0,"State":1.0,"County":1.0,"City":1.0,"District":1.0,"Street":[1.0],"PostalCode":1.0},"Location":{"LocationId":"NT_9rIH3dLHyc2Xrp8dg-CogC_l_572293406_R","LocationType":"point","DisplayPosition":{"Latitude":51.3262024,"Longitude":6.5846111},"MapView":{"TopLeft":{"Latitude":51.32638,"Longitude":6.5845},"BottomRight":{"Latitude":51.32617,"Longitude":6.58522}},"Address":{"Label":"Oberdießemer Straße, 47805 Krefeld, Deutschland","Country":"DEU","State":"Nordrhein-Westfalen","County":"Krefeld","City":"Krefeld","District":"Dießem/Lehmheide","Street":"Oberdießemer Straße","PostalCode":"47805","AdditionalData":[{"value":"Deutschland","key":"CountryName"},{"value":"Nordrhein-Westfalen","key":"StateName"},{"value":"Krefeld","key":"CountyName"}]},"MapReference":{"ReferenceId":"572293406","Spot":0.15,"SideOfStreet":"right","CountryId":"20147700","StateId":"20157369","CountyId":"20157434","CityId":"20157435","DistrictId":"20459429"}}},{"Relevance":1.0,"Distance":37.5,"MatchLevel":"street","MatchQuality":{"Country":1.0,"State":1.0,"County":1.0,"City":1.0,"District":1.0,"PostalCode":1.0},"Location":{"LocationId":"NT_W5yTe8NfG8u28U7jVT44vC_l_1229569975_L","LocationType":"point","DisplayPosition":{"Latitude":51.32616,"Longitude":6.58511},"MapView":{"TopLeft":{"Latitude":51.3264,"Longitude":6.58511},"BottomRight":{"Latitude":51.32616,"Longitude":6.58531}},"Address":{"Label":"47805 Krefeld, Deutschland","Country":"DEU","State":"Nordrhein-Westfalen","County":"Krefeld","City":"Krefeld","District":"Dießem/Lehmheide","PostalCode":"47805","AdditionalData":[{"value":"Deutschland","key":"CountryName"},{"value":"Nordrhein-Westfalen","key":"StateName"},{"value":"Krefeld","key":"CountyName"}]},"MapReference":{"ReferenceId":"1229569975","Spot":0.0,"SideOfStreet":"left","CountryId":"20147700","StateId":"20157369","CountyId":"20157434","CityId":"20157435","DistrictId":"20459429"}}},{"Relevance":1.0,"Distance":55.4,"MatchLevel":"houseNumber","MatchQuality":{"Country":1.0,"State":1.0,"County":1.0,"City":1.0,"District":1.0,"Street":[1.0],"HouseNumber":1.0,"PostalCode":1.0},"MatchType":"interpolated","Location":{"LocationId":"NT_LSHJBe9q.XqwAx3sF-KYbD_xMD","LocationType":"point","DisplayPosition":{"Latitude":51.32656,"Longitude":6.58419},"MapView":{"TopLeft":{"Latitude":51.3276842,"Longitude":6.582391},"BottomRight":{"Latitude":51.3254358,"Longitude":6.585989}},"Address":{"Label":"Am Riddershof 13, 47805 Krefeld, Deutschland","Country":"DEU","State":"Nordrhein-Westfalen","County":"Krefeld","City":"Krefeld","District":"Dießem/Lehmheide","Street":"Am Riddershof","HouseNumber":"13","PostalCode":"47805","AdditionalData":[{"value":"Deutschland","key":"CountryName"},{"value":"Nordrhein-Westfalen","key":"StateName"},{"value":"Krefeld","key":"CountyName"}]},"MapReference":{"ReferenceId":"50991442","Spot":0.44,"SideOfStreet":"right","CountryId":"20147700","StateId":"20157369","CountyId":"20157434","CityId":"20157435","DistrictId":"20459429","AddressId":"209473673","RoadLinkId":"39488604"}}},{"Relevance":1.0,"Distance":60.3,"MatchLevel":"street","MatchQuality":{"Country":1.0,"State":1.0,"County":1.0,"City":1.0,"District":1.0,"PostalCode":1.0},"Location":{"LocationId":"NT_W5yTe8NfG8u28U7jVT44vC_l_1229182070_R","LocationType":"point","DisplayPosition":{"Latitude":51.32638,"Longitude":6.58522},"MapView":{"TopLeft":{"Latitude":51.3264,"Longitude":6.58522},"BottomRight":{"Latitude":51.32638,"Longitude":6.58531}},"Address":{"Label":"47805 Krefeld, Deutschland","Country":"DEU","State":"Nordrhein-Westfalen","County":"Krefeld","City":"Krefeld","District":"Dießem/Lehmheide","PostalCode":"47805","AdditionalData":[{"value":"Deutschland","key":"CountryName"},{"value":"Nordrhein-Westfalen","key":"StateName"},{"value":"Krefeld","key":"CountyName"}]},"MapReference":{"ReferenceId":"1229182070","Spot":0.0,"SideOfStreet":"right","CountryId":"20147700","StateId":"20157369","CountyId":"20157434","CityId":"20157435","DistrictId":"20459429"}}},{"Relevance":1.0,"Distance":61.9,"MatchLevel":"houseNumber","MatchQuality":{"Country":1.0,"State":1.0,"County":1.0,"City":1.0,"District":1.0,"Street":[1.0],"HouseNumber":1.0,"PostalCode":1.0},"MatchType":"interpolated","Location":{"LocationId":"NT_LSHJBe9q.XqwAx3sF-KYbD_xUD","LocationType":"point","DisplayPosition":{"Latitude":51.32666,"Longitude":6.58451},"MapView":{"TopLeft":{"Latitude":51.3277842,"Longitude":6.582711},"BottomRight":{"Latitude":51.3255358,"Longitude":6.586309}},"Address":{"Label":"Am Riddershof 15, 47805 Krefeld, Deutschland","Country":"DEU","State":"Nordrhein-Westfalen","County":"Krefeld","City":"Krefeld","District":"Dießem/Lehmheide","Street":"Am Riddershof","HouseNumber":"15","PostalCode":"47805","AdditionalData":[{"value":"Deutschland","key":"CountryName"},{"value":"Nordrhein-Westfalen","key":"StateName"},{"value":"Krefeld","key":"CountyName"}]},"MapReference":{"ReferenceId":"50991443","Spot":0.22,"SideOfStreet":"right","CountryId":"20147700","StateId":"20157369","CountyId":"20157434","CityId":"20157435","DistrictId":"20459429","AddressId":"195332174","RoadLinkId":"39197852"}}}]}]}}