{"Response":{"MetaInfo":{"Timestamp":"2020-03-28T10:08:37.607+0000","NextPageInformation":"2"},"View":[{"_type":"SearchResultsViewType","ViewId":0,"Result":[{"Relevance":1.0,"Distance":0.0,"Direction":0.0,"MatchLevel":"district","MatchQuality":{"Country":1.0,"State":1.0,"County":1.0,"City":1.0,"District":1.0,"PostalCode":1.0},"Location":{"LocationId":"NT_muu5kmqvuKuQ.3c3YCrezA","LocationType":"point","DisplayPosition":{"Latitude":51.3594281,"Longitude":1.4380562},"MapView":{"TopLeft":{"Latitude":51.37788,"Longitude":1.39987},"BottomRight":{"Latitude":51.34332,"Longitude":1.44923}},"Address":{"Label":"Broadstairs, England, United Kingdom","Country":"GBR","State":"England","County":"Kent","City":"Broadstairs","District":"Broadstairs","PostalCode":"CT10 1","AdditionalData":[{"value":"United Kingdom","key":"CountryName"},{"value":"England","key":"StateName"},{"value":"Kent","key":"CountyName"}]},"MapReference":{"ReferenceId":"858486171","SideOfStreet":"neither","StateId":"20248595","CountyId":"20336836","CityId":"20336913","DistrictId":"20336914"}}},{"Relevance":1.0,"Distance":7.2,"MatchLevel":"houseNumber","MatchQuality":{"Country":1.0,"State":1.0,"County":1.0,"City":1.0,"District":1.0,"Street":[1.0],"HouseNumber":1.0,"PostalCode":1.0},"MatchType":"interpolated","Location":{"LocationId":"NT_OWOuUxN395WB-2Q5KdqRgD_l_25670402_R_4QD","LocationType":"point","DisplayPosition":{"Latitude":51.35936,"Longitude":1.4380299},"MapView":{"TopLeft":{"Latitude":51.3604842,"Longitude":1.4362296},"BottomRight":{"Latitude":51.3582359,"Longitude":1.4398302}},"Address":{"Label":"84 High Street, Broadstairs, CT10 1JJ, United Kingdom","Country":"GBR","State":"England","County":"Kent","City":"Broadstairs","District":"Broadstairs","Street":"High Street","HouseNumber":"84","PostalCode":"CT10 1JJ","AdditionalData":[{"value":"United Kingdom","key":"CountryName"},{"value":"England","key":"StateName"},{"value":"Kent","key":"CountyName"}]},"MapReference":{"ReferenceId":"25670402","Spot":0.26,"SideOfStreet":"right","StateId":"20248595","CountyId":"20336836","CityId":"20336913","DistrictId":"20336914"}}},{"Relevance":1.0,"Distance":11.1,"MatchLevel":"postalCode","MatchQuality":{"PostalCode":1.0},"MatchType":"interpolated","Location":{"LocationId":"NT_OWOuUxN395WB-2Q5KdqRgD_l_25670402_R_4QD","LocationType":"point","DisplayPosition":{"Latitude":51.35945,"Longitude":1.4379},"MapView":{"TopLeft":{"Latitude":51.3684432,"Longitude":1.4234978},"BottomRight":{"Latitude":51.3504568,"Longitude":1.4523022}},"Address":{"Label":"CT10 1JJ, Broadstairs, England, United Kingdom","Country":"GBR","State":"England","County":"Kent","City":"Broadstairs","PostalCode":"CT10 1JJ","AdditionalData":[{"value":"United Kingdom","key":"CountryName"},{"value":"England","key":"StateName"},{"value":"Kent","key":"CountyName"}]},"MapReference":{"ReferenceId":"25670402","Spot":0.26,"SideOfStreet":"neither","StateId":"20248595","CountyId":"20336836","CityId":"20336913"}}},{"Relevance":1.0,"Distance":18.3,"MatchLevel":"houseNumber","MatchQuality":{"Country":1.0,"State":1.0,"County":1.0,"City":1.0,"District":1.0,"Street":[1.0],"HouseNumber":1.0,"PostalCode":1.0},"MatchType":"interpolated","Location":{"LocationId":"NT_5GFf6Tdt9nCX1rArOqxqRB_l_25670401_L_xA","LocationType":"point","DisplayPosition":{"Latitude":51.3594559,"Longitude":1.4383407},"MapView":{"TopLeft":{"Latitude":51.36058,"Longitude":1.4365404},"BottomRight":{"Latitude":51.3583317,"Longitude":1.440141}},"Address":{"Label":"1 Belmont Road, Broadstairs, CT10 1LA, United Kingdom","Country":"GBR","State":"England","County":"Kent","City":"Broadstairs","District":"Broadstairs","Street":"Belmont Road","HouseNumber":"1","PostalCode":"CT10 1LA","AdditionalData":[{"value":"United Kingdom","key":"CountryName"},{"value":"England","key":"StateName"},{"value":"Kent","key":"CountyName"}]},"MapReference":{"ReferenceId":"25670401","Spot":0.48,"SideOfStreet":"left","StateId":"20248595","CountyId":"20336836","CityId":"20336913","DistrictId":"20336914"}}},{"Relevance":1.0,"Distance":29.2,"MatchLevel":"houseNumber","MatchQuality":{"Country":1.0,"State":1.0,"County":1.0,"City":1.0,"District":1.0,"Street":[1.0],"HouseNumber":1.0,"PostalCode":1.0},"MatchType":"interpolated","Location":{"LocationId":"NT_.JNmzerm0k16U90OQXkZ0C_l_25670383_R_0A","LocationType":"point","DisplayPosition":{"Latitude":51.35963,"Longitude":1.43751},"MapView":{"TopLeft":{"Latitude":51.3607542,"Longitude":1.4357097},"BottomRight":{"Latitude":51.3585059,"Longitude":1.4393103}},"Address":{"Label":"4 Vere Road, Broadstairs, CT10 1JF, United Kingdom","Country":"GBR","State":"England","County":"Kent","City":"Broadstairs","District":"Broadstairs","Street":"Vere Road","HouseNumber":"4","PostalCode":"CT10 1JF","AdditionalData":[{"value":"United Kingdom","key":"CountryName"},{"value":"England","key":"StateName"},{"value":"Kent","key":"CountyName"}]},"MapReference":{"ReferenceId":"25670383","Spot":0.17,"SideOfStreet":"right","StateId":"20248595","CountyId":"20336836","CityId":"20336913","DistrictId":"20336914"}}},{"Relevance":1.0,"Distance":31.0,"MatchLevel":"houseNumber","MatchQuality":{"Country":1.0,"State":1.0,"County":1.0,"City":1.0,"District":1.0,"Street":[1.0],"HouseNumber":1.0,"PostalCode":1.0},"MatchType":"interpolated","Location":{"LocationId":"NT_Pq.l.7sS9-8nv.3koGAxTC_l_25670419_R_4ID","LocationType":"point","DisplayPosition":{"Latitude":51.359242,"Longitude":1.438463},"MapView":{"TopLeft":{"Latitude":51.3603662,"Longitude":1.4366627},"BottomRight":{"Latitude":51.3581179,"Longitude":1.4402633}},"Address":{"Label":"82 High Street, Broadstairs, CT10 1JT, United Kingdom","Country":"GBR","State":"England","County":"Kent","City":"Broadstairs","District":"Broadstairs","Street":"High Street","HouseNumber":"82","PostalCode":"CT10 1JT","AdditionalData":[{"value":"United Kingdom","key":"CountryName"},{"value":"England","key":"StateName"},{"value":"Kent","key":"CountyName"}]},"MapReference":{"ReferenceId":"25670419","Spot":0.78,"SideOfStreet":"right","StateId":"20248595","CountyId":"20336836","CityId":"20336913","DistrictId":"20336914"}}},{"Relevance":1.0,"Distance":34.6,"MatchLevel":"street","MatchQuality":{"Country":1.0,"State":1.0,"County":1.0,"City":1.0,"District":1.0,"Street":[1.0],"PostalCode":1.0},"Location":{"LocationId":"NT_40ZoYodb3Q2Az0agJcdXhA_l_25670386_L","LocationType":"point","DisplayPosition":{"Latitude":51.35961,"Longitude":1.43846},"MapView":{"TopLeft":{"Latitude":51.35961,"Longitude":1.43846},"BottomRight":{"Latitude":51.35944,"Longitude":1.43918}},"Address":{"Label":"Crofts Place, Broadstairs, CT10 1, United Kingdom","Country":"GBR","State":"England","County":"Kent","City":"Broadstairs","District":"Broadstairs","Street":"Crofts Place","PostalCode":"CT10 1","AdditionalData":[{"value":"United Kingdom","key":"CountryName"},{"value":"England","key":"StateName"},{"value":"Kent","key":"CountyName"}]},"MapReference":{"ReferenceId":"25670386","Spot":1.0,"SideOfStreet":"left","StateId":"20248595","CountyId":"20336836","CityId":"20336913","DistrictId":"20336914"}}},{"Relevance":1.0,"Distance":42.2,"MatchLevel":"houseNumber","MatchQuality":{"Country":1.0,"State":1.0,"County":1.0,"City":1.0,"District":1.0,"Street":[1.0],"HouseNumber":1.0,"PostalCode":1.0},"MatchType":"interpolated","Location":{"LocationId":"NT_Pq.l.7sS9-8nv.3koGAxTC_l_25670384_R_5YD","LocationType":"point","DisplayPosition":{"Latitude":51.3595,"Longitude":1.43746},"MapView":{"TopLeft":{"Latitude":51.3606242,"Longitude":1.4356597},"BottomRight":{"Latitude":51.3583759,"Longitude":1.4392602}},"Address":{"Label":"96 High Street, Broadstairs, CT10 1JB, United Kingdom","Country":"GBR","State":"England","County":"Kent","City":"Broadstairs","District":"Broadstairs","Street":"High Street","HouseNumber":"96","PostalCode":"CT10 1JB","AdditionalData":[{"value":"United Kingdom","key":"CountryName"},{"value":"England","key":"StateName"},{"value":"Kent","key":"CountyName"}]},"MapReference":{"ReferenceId":"25670384","Spot":0.0,"SideOfStreet":"right","StateId":"20248595","CountyId":"20336836","CityId":"20336913","DistrictId":"20336914"}}},{"Relevance":1.0,"Distance":47.7,"MatchLevel":"houseNumber","MatchQuality":{"Country":1.0,"State":1.0,"County":1.0,"City":1.0,"District":1.0,"Street":[1.0],"HouseNumber":1.0,"PostalCode":1.0},"MatchType":"interpolated","Location":{"LocationId":"NT_5GFf6Tdt9nCX1rArOqxqRB_l_25670371_L_zA","LocationType":"point","DisplayPosition":{"Latitude":51.3597201,"Longitude":1.4385601},"MapView":{"TopLeft":{"Latitude":51.3608443,"Longitude":1.4367598},"BottomRight":{"Latitude":51.358596,"Longitude":1.4403604}},"Address":{"Label":"3 Belmont Road, Broadstairs, CT10 1LA, United Kingdom","Country":"GBR","State":"England","County":"Kent","City":"Broadstairs","District":"Broadstairs","Street":"Belmont Road","HouseNumber":"3","PostalCode":"CT10 1LA","AdditionalData":[{"value":"United Kingdom","key":"CountryName"},{"value":"England","key":"StateName"},{"value":"Kent","key":"CountyName"}]},"MapReference":{"ReferenceId":"25670371","Spot":0.12,"SideOfStreet":"left","StateId":"20248595","CountyId":"20336836","CityId":"20336913","DistrictId":"20336914"}}},{"Relevance":1.0,"Distance":57.6,"MatchLevel":"postalCode","MatchQuality":{"PostalCode":1.0},"MatchType":"interpolated","Location":{"LocationId":"NT_Pq.l.7sS9-8nv.3koGAxTC_l_25670384_R_5YD","LocationType":"point","DisplayPosition":{"Latitude":51.35955,"Longitude":1.43725},"MapView":{"TopLeft":{"Latitude":51.3685432,"Longitude":1.4228477},"BottomRight":{"Latitude":51.3505568,"Longitude":1.4516523}},"Address":{"Label":"CT10 1SU, Broadstairs, England, United Kingdom","Country":"GBR","State":"England","County":"Kent","City":"Broadstairs","PostalCode":"CT10 1SU","AdditionalData":[{"value":"United Kingdom","key":"CountryName"},{"value":"England","key":"StateName"},{"value":"Kent","key":"CountyName"}]},"MapReference":{"ReferenceId":"25670384","Spot":0.0,"SideOfStreet":"neither","StateId":"20248595","CountyId":"20336836","CityId":"20336913"}}}]}]}}