{"Response":{"MetaInfo":{"Timestamp":"2020-03-28T10:09:36.542+0000","NextPageInformation":"2"},"View":[{"_type":"SearchResultsViewType","ViewId":0,"Result":[{"Relevance":1.0,"Distance":0.0,"Direction":0.0,"MatchLevel":"district","MatchQuality":{"Country":1.0,"State":1.0,"County":1.0,"City":1.0,"District":1.0,"PostalCode":1.0},"Location":{"LocationId":"NT_GvlygpPILOQ4ls8eMu9hlD","LocationType":"point","DisplayPosition":{"Latitude":51.318591,"Longitude":-0.5576927},"MapView":{"TopLeft":{"Latitude":51.34385,"Longitude":-0.63538},"BottomRight":{"Latitude":51.28499,"Longitude":-0.49748}},"Address":{"Label":"Woking, England, United Kingdom","Country":"GBR","State":"England","County":"Surrey","City":"Woking","District":"Woking","PostalCode":"GU21 4","AdditionalData":[{"value":"United Kingdom","key":"CountryName"},{"value":"England","key":"StateName"},{"value":"Surrey","key":"CountyName"}]},"MapReference":{"ReferenceId":"1228114193","SideOfStreet":"neither","StateId":"20248595","CountyId":"20338357","CityId":"20338645","DistrictId":"20338646"}}},{"Relevance":1.0,"Distance":2.5,"MatchLevel":"houseNumber","MatchQuality":{"Country":1.0,"State":1.0,"County":1.0,"City":1.0,"District":1.0,"Street":[1.0],"HouseNumber":1.0,"PostalCode":1.0},"MatchType":"interpolated","Location":{"LocationId":"NT_IrXT9HSe3yKN0RDiM75WJD_l_956612008_L_3A","LocationType":"point","DisplayPosition":{"Latitude":51.31857,"Longitude":-0.557705},"MapView":{"TopLeft":{"Latitude":51.3196942,"Longitude":-0.5595036},"BottomRight":{"Latitude":51.3174459,"Longitude":-0.5559063}},"Address":{"Label":"7 High Street, Woking, GU21 6BG, United Kingdom","Country":"GBR","State":"England","County":"Surrey","City":"Woking","District":"Woking","Street":"High Street","HouseNumber":"7","PostalCode":"GU21 6BG","AdditionalData":[{"value":"United Kingdom","key":"CountryName"},{"value":"England","key":"StateName"},{"value":"Surrey","key":"CountyName"}]},"MapReference":{"ReferenceId":"956612008","Spot":0.5,"SideOfStreet":"left","StateId":"20248595","CountyId":"20338357","CityId":"20338645","DistrictId":"20338646"}}},{"Relevance":1.0,"Distance":5.7,"MatchLevel":"postalCode","MatchQuality":{"PostalCode":1.0},"MatchType":"interpolated","Location":{"LocationId":"NT_IrXT9HSe3yKN0RDiM75WJD_l_956612008_L_3A","LocationType":"point","DisplayPosition":{"Latitude":51.31864,"Longitude":-0.55767},"MapView":{"TopLeft":{"Latitude":51.3276332,"Longitude":-0.5720594},"BottomRight":{"Latitude":51.3096468,"Longitude":-0.5432806}},"Address":{"Label":"GU21 6BH, Woking, England, United Kingdom","Country":"GBR","State":"England","County":"Surrey","City":"Woking","PostalCode":"GU21 6BH","AdditionalData":[{"value":"United Kingdom","key":"CountryName"},{"value":"England","key":"StateName"},{"value":"Surrey","key":"CountyName"}]},"MapReference":{"ReferenceId":"956612008","Spot":0.5,"SideOfStreet":"neither","StateId":"20248595","CountyId":"20338357","CityId":"20338645"}}},{"Relevance":1.0,"Distance":30.2,"MatchLevel":"street","MatchQuality":{"Country":1.0,"State":1.0,"County":1.0,"City":1.0,"District":1.0,"Street":[1.0],"PostalCode":1.0},"Location":{"LocationId":"NT_5I0.euq80PlW67wJbZHY9D_l_956612010_L","LocationType":"point","DisplayPosition":{"Latitude":51.31873,"Longitude":-0.55732},"MapView":{"TopLeft":{"Latitude":51.31957,"Longitude":-0.55756},"BottomRight":{"Latitude":51.31873,"Longitude":-0.55732}},"Address":{"Label":"Church Path, Woking, GU21 6, United Kingdom","Country":"GBR","State":"England","County":"Surrey","City":"Woking","District":"Woking","Street":"Church Path","PostalCode":"GU21 6","AdditionalData":[{"value":"United Kingdom","key":"CountryName"},{"value":"England","key":"StateName"},{"value":"Surrey","key":"CountyName"}]},"MapReference":{"ReferenceId":"956612010","Spot":0.0,"SideOfStreet":"left","StateId":"20248595","CountyId":"20338357","CityId":"20338645","DistrictId":"20338646"}}},{"Relevance":1.0,"Distance":34.1,"MatchLevel":"houseNumber","MatchQuality":{"Country":1.0,"State":1.0,"County":1.0,"City":1.0,"District":1.0,"Street":[1.0],"HouseNumber":1.0,"PostalCode":1.0},"MatchType":"interpolated","Location":{"LocationId":"NT_lVyqUu5rywKfnshWwQ0OvA_l_940997918_L_zA","LocationType":"point","DisplayPosition":{"Latitude":51.31842,"Longitude":-0.5581},"MapView":{"TopLeft":{"Latitude":51.3195442,"Longitude":-0.5598987},"BottomRight":{"Latitude":51.3172959,"Longitude":-0.5563013}},"Address":{"Label":"3 Chapel Street, Woking, GU21 6BY, United Kingdom","Country":"GBR","State":"England","County":"Surrey","City":"Woking","District":"Woking","Street":"Chapel Street","HouseNumber":"3","PostalCode":"GU21 6BY","AdditionalData":[{"value":"United Kingdom","key":"CountryName"},{"value":"England","key":"StateName"},{"value":"Surrey","key":"CountyName"}]},"MapReference":{"ReferenceId":"940997918","Spot":0.0,"SideOfStreet":"left","StateId":"20248595","CountyId":"20338357","CityId":"20338645","DistrictId":"20338646"}}},{"Relevance":1.0,"Distance":44.3,"MatchLevel":"postalCode","MatchQuality":{"PostalCode":1.0},"MatchType":"interpolated","Location":{"LocationId":"NT_IrXT9HSe3yKN0RDiM75WJD_l_25536519_L_xMD","LocationType":"point","DisplayPosition":{"Latitude":51.31841,"Longitude":-0.55826},"MapView":{"TopLeft":{"Latitude":51.3274032,"Longitude":-0.5726493},"BottomRight":{"Latitude":51.3094168,"Longitude":-0.5438707}},"Address":{"Label":"GU21 6BL, Woking, England, United Kingdom","Country":"GBR","State":"England","County":"Surrey","City":"Woking","PostalCode":"GU21 6BL","AdditionalData":[{"value":"United Kingdom","key":"CountryName"},{"value":"England","key":"StateName"},{"value":"Surrey","key":"CountyName"}]},"MapReference":{"ReferenceId":"25536519","Spot":0.84,"SideOfStreet":"neither","StateId":"20248595","CountyId":"20338357","CityId":"20338645"}}},{"Relevance":1.0,"Distance":44.9,"MatchLevel":"houseNumber","MatchQuality":{"Country":1.0,"State":1.0,"County":1.0,"City":1.0,"District":1.0,"Street":[1.0],"HouseNumber":1.0,"PostalCode":1.0},"MatchType":"interpolated","Location":{"LocationId":"NT_IrXT9HSe3yKN0RDiM75WJD_l_956612009_L_0A","LocationType":"point","DisplayPosition":{"Latitude":51.3188,"Longitude":-0.55714},"MapView":{"TopLeft":{"Latitude":51.3199242,"Longitude":-0.5589386},"BottomRight":{"Latitude":51.3176759,"Longitude":-0.5553413}},"Address":{"Label":"4 High Street, Woking, GU21 6BG, United Kingdom","Country":"GBR","State":"England","County":"Surrey","City":"Woking","District":"Woking","Street":"High Street","HouseNumber":"4","PostalCode":"GU21 6BG","AdditionalData":[{"value":"United Kingdom","key":"CountryName"},{"value":"England","key":"StateName"},{"value":"Surrey","key":"CountyName"}]},"MapReference":{"ReferenceId":"956612009","Spot":0.27,"SideOfStreet":"left","StateId":"20248595","CountyId":"20338357","CityId":"20338645","DistrictId":"20338646"}}},{"Relevance":1.0,"Distance":52.5,"MatchLevel":"houseNumber","MatchQuality":{"Country":1.0,"State":1.0,"County":1.0,"City":1.0,"District":1.0,"Street":[1.0],"HouseNumber":1.0,"PostalCode":1.0},"MatchType":"interpolated","Location":{"LocationId":"NT_IrXT9HSe3yKN0RDiM75WJD_l_25536519_L_xMD","LocationType":"point","DisplayPosition":{"Latitude":51.3183099,"Longitude":-0.5583587},"MapView":{"TopLeft":{"Latitude":51.3194341,"Longitude":-0.5601573},"BottomRight":{"Latitude":51.3171858,"Longitude":-0.55656}},"Address":{"Label":"13 High Street, Woking, GU21 6BL, United Kingdom","Country":"GBR","State":"England","County":"Surrey","City":"Woking","District":"Woking","Street":"High Street","HouseNumber":"13","PostalCode":"GU21 6BL","AdditionalData":[{"value":"United Kingdom","key":"CountryName"},{"value":"England","key":"StateName"},{"value":"Surrey","key":"CountyName"}]},"MapReference":{"ReferenceId":"25536519","Spot":0.84,"SideOfStreet":"left","StateId":"20248595","CountyId":"20338357","CityId":"20338645","DistrictId":"20338646"}}},{"Relevance":1.0,"Distance":57.6,"MatchLevel":"houseNumber","MatchQuality":{"Country":1.0,"State":1.0,"County":1.0,"City":1.0,"District":1.0,"Street":[1.0],"HouseNumber":1.0,"PostalCode":1.0},"MatchType":"interpolated","Location":{"LocationId":"NT_ooJTXa1Pl-Ud1toiBBv22B_l_1266640089_R_zAD","LocationType":"point","DisplayPosition":{"Latitude":51.319118,"Longitude":-0.558292},"MapView":{"TopLeft":{"Latitude":51.3202422,"Longitude":-0.5600907},"BottomRight":{"Latitude":51.3179939,"Longitude":-0.5564933}},"Address":{"Label":"30 Commercial Way, Woking, GU21 6XX, United Kingdom","Country":"GBR","State":"England","County":"Surrey","City":"Woking","District":"Woking","Street":"Commercial Way","HouseNumber":"30","PostalCode":"GU21 6XX","AdditionalData":[{"value":"United Kingdom","key":"CountryName"},{"value":"England","key":"StateName"},{"value":"Surrey","key":"CountyName"}]},"MapReference":{"ReferenceId":"1266640089","Spot":0.44,"SideOfStreet":"right","StateId":"20248595","CountyId":"20338357","CityId":"20338645","DistrictId":"20338646"}}},{"Relevance":1.0,"Distance":59.6,"MatchLevel":"houseNumber","MatchQuality":{"Country":1.0,"State":1.0,"County":1.0,"City":1.0,"District":1.0,"Street":[1.0],"HouseNumber":1.0,"PostalCode":1.0},"MatchType":"interpolated","Location":{"LocationId":"NT_lVyqUu5rywKfnshWwQ0OvA_l_940997919_L_1A","LocationType":"point","DisplayPosition":{"Latitude":51.3187862,"Longitude":-0.5584916},"MapView":{"TopLeft":{"Latitude":51.3199103,"Longitude":-0.5602903},"BottomRight":{"Latitude":51.317662,"Longitude":-0.5566929}},"Address":{"Label":"5 Chapel Street, Woking, GU21 6BY, United Kingdom","Country":"GBR","State":"England","County":"Surrey","City":"Woking","District":"Woking","Street":"Chapel Street","HouseNumber":"5","PostalCode":"GU21 6BY","AdditionalData":[{"value":"United Kingdom","key":"CountryName"},{"value":"England","key":"StateName"},{"value":"Surrey","key":"CountyName"}]},"MapReference":{"ReferenceId":"940997919","Spot":0.49,"SideOfStreet":"left","StateId":"20248595","CountyId":"20338357","CityId":"20338645","DistrictId":"20338646"}}}]}]}}