{"Response":{"MetaInfo":{"Timestamp":"2020-03-28T11:39:27.015+0000","NextPageInformation":"2"},"View":[{"_type":"SearchResultsViewType","ViewId":0,"Result":[{"Relevance":1.0,"Distance":0.0,"Direction":0.0,"MatchLevel":"city","MatchQuality":{"Country":1.0,"State":1.0,"County":1.0,"City":1.0,"PostalCode":1.0},"Location":{"LocationId":"NT_dksDn3GHaneEhOjn1ZVNWC","LocationType":"point","DisplayPosition":{"Latitude":51.3071677,"Longitude":3.138291},"MapView":{"TopLeft":{"Latitude":51.32635,"Longitude":3.10438},"BottomRight":{"Latitude":51.27644,"Longitude":3.17684}},"Address":{"Label":"Blankenberge, Vlaanderen, België","Country":"BEL","State":"Vlaanderen","County":"West-Vlaanderen","City":"Blankenberge","PostalCode":"8370","AdditionalData":[{"value":"België","key":"CountryName"},{"value":"Vlaanderen","key":"StateName"},{"value":"West-Vlaanderen","key":"CountyName"}]},"MapReference":{"ReferenceId":"1205106749","SideOfStreet":"neither","CountryId":"20128886","StateId":"20204377","CountyId":"20204694","CityId":"20204700"}}},{"Relevance":1.0,"Distance":9.2,"MatchLevel":"houseNumber","MatchQuality":{"Country":1.0,"State":1.0,"County":1.0,"City":1.0,"Street":[1.0],"HouseNumber":1.0,"PostalCode":1.0},"MatchType":"interpolated","Location":{"LocationId":"NT_8vTOvuoAskRrveC.NqlHGD_yEE","LocationType":"point","DisplayPosition":{"Latitude":51.30725,"Longitude":3.13829},"MapView":{"TopLeft":{"Latitude":51.3083742,"Longitude":3.1364918},"BottomRight":{"Latitude":51.3061258,"Longitude":3.1400882}},"Address":{"Label":"Uitkerkestraat 2A, 8370 Blankenberge, België","Country":"BEL","State":"Vlaanderen","County":"West-Vlaanderen","City":"Blankenberge","Street":"Uitkerkestraat","HouseNumber":"2A","PostalCode":"8370","AdditionalData":[{"value":"België","key":"CountryName"},{"value":"Vlaanderen","key":"StateName"},{"value":"West-Vlaanderen","key":"CountyName"}]},"MapReference":{"ReferenceId":"1268113051","Spot":0.85,"SideOfStreet":"right","CountryId":"20128886","StateId":"20204377","CountyId":"20204694","CityId":"20204700","AddressId":"737353458","RoadLinkId":"595090386"}}},{"Relevance":1.0,"Distance":11.9,"MatchLevel":"houseNumber","MatchQuality":{"Country":1.0,"State":1.0,"County":1.0,"City":1.0,"Street":[1.0],"HouseNumber":1.0,"PostalCode":1.0},"MatchType":"interpolated","Location":{"LocationId":"NT_ifDoovM7M36SoOGXieL1jC_ykzN","LocationType":"point","DisplayPosition":{"Latitude":51.30726,"Longitude":3.1387},"MapView":{"TopLeft":{"Latitude":51.3083842,"Longitude":3.1369018},"BottomRight":{"Latitude":51.3061358,"Longitude":3.1404982}},"Address":{"Label":"Kerkstraat 297, 8370 Blankenberge, België","Country":"BEL","State":"Vlaanderen","County":"West-Vlaanderen","City":"Blankenberge","Street":"Kerkstraat","HouseNumber":"297","PostalCode":"8370","AdditionalData":[{"value":"België","key":"CountryName"},{"value":"Vlaanderen","key":"StateName"},{"value":"West-Vlaanderen","key":"CountyName"}]},"MapReference":{"ReferenceId":"1131247088","Spot":0.71,"SideOfStreet":"left","CountryId":"20128886","StateId":"20204377","CountyId":"20204694","CityId":"20204700","AddressId":"399761444","RoadLinkId":"441246411"}}},{"Relevance":1.0,"Distance":20.6,"MatchLevel":"houseNumber","MatchQuality":{"Country":1.0,"State":1.0,"County":1.0,"City":1.0,"Street":[1.0],"HouseNumber":1.0,"PostalCode":1.0},"MatchType":"interpolated","Location":{"LocationId":"NT_ifDoovM7M36SoOGXieL1jC_ykTO","LocationType":"point","DisplayPosition":{"Latitude":51.30717,"Longitude":3.13879},"MapView":{"TopLeft":{"Latitude":51.3082942,"Longitude":3.1369918},"BottomRight":{"Latitude":51.3060458,"Longitude":3.1405882}},"Address":{"Label":"Kerkstraat 299, 8370 Blankenberge, België","Country":"BEL","State":"Vlaanderen","County":"West-Vlaanderen","City":"Blankenberge","Street":"Kerkstraat","HouseNumber":"299","PostalCode":"8370","AdditionalData":[{"value":"België","key":"CountryName"},{"value":"Vlaanderen","key":"StateName"},{"value":"West-Vlaanderen","key":"CountyName"}]},"MapReference":{"ReferenceId":"1131247087","Spot":0.99,"SideOfStreet":"left","CountryId":"20128886","StateId":"20204377","CountyId":"20204694","CityId":"20204700","AddressId":"399761433","RoadLinkId":"441246410"}}},{"Relevance":1.0,"Distance":22.3,"MatchLevel":"street","MatchQuality":{"Country":1.0,"State":1.0,"County":1.0,"City":1.0,"Street":[1.0],"PostalCode":1.0},"Location":{"LocationId":"NT_8vTOvuoAskRrveC.NqlHGD_l_1268113052_R","LocationType":"point","DisplayPosition":{"Latitude":51.30733,"Longitude":3.13848},"MapView":{"TopLeft":{"Latitude":51.30737,"Longitude":3.13848},"BottomRight":{"Latitude":51.30733,"Longitude":3.13857}},"Address":{"Label":"Uitkerkestraat, 8370 Blankenberge, België","Country":"BEL","State":"Vlaanderen","County":"West-Vlaanderen","City":"Blankenberge","Street":"Uitkerkestraat","PostalCode":"8370","AdditionalData":[{"value":"België","key":"CountryName"},{"value":"Vlaanderen","key":"StateName"},{"value":"West-Vlaanderen","key":"CountyName"}]},"MapReference":{"ReferenceId":"1268113052","Spot":0.0,"SideOfStreet":"right","CountryId":"20128886","StateId":"20204377","CountyId":"20204694","CityId":"20204700"}}},{"Relevance":1.0,"Distance":22.3,"MatchLevel":"street","MatchQuality":{"Country":1.0,"State":1.0,"County":1.0,"City":1.0,"PostalCode":1.0},"Location":{"LocationId":"NT_hbtvSRsJEgkfaJmGJ3hGED_l_1268113050_L","LocationType":"point","DisplayPosition":{"Latitude":51.30733,"Longitude":3.13848},"MapView":{"TopLeft":{"Latitude":51.30733,"Longitude":3.13848},"BottomRight":{"Latitude":51.30662,"Longitude":3.1393}},"Address":{"Label":"8370 Blankenberge, België","Country":"BEL","State":"Vlaanderen","County":"West-Vlaanderen","City":"Blankenberge","PostalCode":"8370","AdditionalData":[{"value":"België","key":"CountryName"},{"value":"Vlaanderen","key":"StateName"},{"value":"West-Vlaanderen","key":"CountyName"}]},"MapReference":{"ReferenceId":"1268113050","Spot":1.0,"SideOfStreet":"left","CountryId":"20128886","StateId":"20204377","CountyId":"20204694","CityId":"20204700"}}},{"Relevance":1.0,"Distance":23.6,"MatchLevel":"street","MatchQuality":{"Country":1.0,"State":1.0,"County":1.0,"City":1.0,"PostalCode":1.0},"Location":{"LocationId":"NT_hbtvSRsJEgkfaJmGJ3hGED_l_1268113053_L","LocationType":"point","DisplayPosition":{"Latitude":51.3073552,"Longitude":3.1384504},"MapView":{"TopLeft":{"Latitude":51.30858,"Longitude":3.13701},"BottomRight":{"Latitude":51.30733,"Longitude":3.13848}},"Address":{"Label":"8370 Blankenberge, België","Country":"BEL","State":"Vlaanderen","County":"West-Vlaanderen","City":"Blankenberge","PostalCode":"8370","AdditionalData":[{"value":"België","key":"CountryName"},{"value":"Vlaanderen","key":"StateName"},{"value":"West-Vlaanderen","key":"CountyName"}]},"MapReference":{"ReferenceId":"1268113053","Spot":0.02,"SideOfStreet":"left","CountryId":"20128886","StateId":"20204377","CountyId":"20204694","CityId":"20204700"}}},{"Relevance":1.0,"Distance":25.7,"MatchLevel":"houseNumber","MatchQuality":{"Country":1.0,"State":1.0,"County":1.0,"City":1.0,"Street":[1.0],"HouseNumber":1.0,"PostalCode":1.0},"MatchType":"interpolated","Location":{"LocationId":"NT_ifDoovM7M36SoOGXieL1jC_ykTN","LocationType":"point","DisplayPosition":{"Latitude":51.3075,"Longitude":3.13842},"MapView":{"TopLeft":{"Latitude":51.3086242,"Longitude":3.1366218},"BottomRight":{"Latitude":51.3063758,"Longitude":3.1402182}},"Address":{"Label":"Kerkstraat 295, 8370 Blankenberge, België","Country":"BEL","State":"Vlaanderen","County":"West-Vlaanderen","City":"Blankenberge","Street":"Kerkstraat","HouseNumber":"295","PostalCode":"8370","AdditionalData":[{"value":"België","key":"CountryName"},{"value":"Vlaanderen","key":"StateName"},{"value":"West-Vlaanderen","key":"CountyName"}]},"MapReference":{"ReferenceId":"819155035","Spot":0.21,"SideOfStreet":"left","CountryId":"20128886","StateId":"20204377","CountyId":"20204694","CityId":"20204700","AddressId":"399693076","RoadLinkId":"206350371"}}},{"Relevance":1.0,"Distance":28.8,"MatchLevel":"houseNumber","MatchQuality":{"Country":1.0,"State":1.0,"County":1.0,"City":1.0,"Street":[1.0],"HouseNumber":1.0,"PostalCode":1.0},"MatchType":"interpolated","Location":{"LocationId":"NT_ifDoovM7M36SoOGXieL1jC_ycDN","LocationType":"point","DisplayPosition":{"Latitude":51.30734,"Longitude":3.1386},"MapView":{"TopLeft":{"Latitude":51.3084642,"Longitude":3.1368018},"BottomRight":{"Latitude":51.3062158,"Longitude":3.1403982}},"Address":{"Label":"Kerkstraat 274, 8370 Blankenberge, België","Country":"BEL","State":"Vlaanderen","County":"West-Vlaanderen","City":"Blankenberge","Street":"Kerkstraat","HouseNumber":"274","PostalCode":"8370","AdditionalData":[{"value":"België","key":"CountryName"},{"value":"Vlaanderen","key":"StateName"},{"value":"West-Vlaanderen","key":"CountyName"}]},"MapReference":{"ReferenceId":"727581680","Spot":0.65,"SideOfStreet":"right","CountryId":"20128886","StateId":"20204377","CountyId":"20204694","CityId":"20204700","AddressId":"401444993","RoadLinkId":"130450980"}}},{"Relevance":1.0,"Distance":31.3,"MatchLevel":"houseNumber","MatchQuality":{"Country":1.0,"State":1.0,"County":1.0,"City":1.0,"Street":[1.0],"HouseNumber":1.0,"PostalCode":1.0},"MatchType":"interpolated","Location":{"LocationId":"NT_ifDoovM7M36SoOGXieL1jC_ycDM","LocationType":"point","DisplayPosition":{"Latitude":51.30741,"Longitude":3.13852},"MapView":{"TopLeft":{"Latitude":51.3085342,"Longitude":3.1367218},"BottomRight":{"Latitude":51.3062858,"Longitude":3.1403182}},"Address":{"Label":"Kerkstraat 270, 8370 Blankenberge, België","Country":"BEL","State":"Vlaanderen","County":"West-Vlaanderen","City":"Blankenberge","Street":"Kerkstraat","HouseNumber":"270","PostalCode":"8370","AdditionalData":[{"value":"België","key":"CountryName"},{"value":"Vlaanderen","key":"StateName"},{"value":"West-Vlaanderen","key":"CountyName"}]},"MapReference":{"ReferenceId":"727581711","Spot":0.69,"SideOfStreet":"right","CountryId":"20128886","StateId":"20204377","CountyId":"20204694","CityId":"20204700","AddressId":"400473553","RoadLinkId":"130451042"}}}]}]}}