{"Response":{"MetaInfo":{"Timestamp":"2020-03-28T11:56:56.138+0000","NextPageInformation":"2"},"View":[{"_type":"SearchResultsViewType","ViewId":0,"Result":[{"Relevance":1.0,"Distance":0.0,"Direction":0.0,"MatchLevel":"district","MatchQuality":{"Country":1.0,"State":1.0,"County":1.0,"City":1.0,"District":1.0,"PostalCode":1.0},"Location":{"LocationId":"NT_8-YuS7hj516VU-sPc4xrQB","LocationType":"point","DisplayPosition":{"Latitude":51.3885587,"Longitude":1.3937495},"MapView":{"TopLeft":{"Latitude":51.39379,"Longitude":1.31987},"BottomRight":{"Latitude":51.36242,"Longitude":1.442}},"Address":{"Label":"Margate, England, United Kingdom","Country":"GBR","State":"England","County":"Kent","City":"Margate","District":"Margate","PostalCode":"CT9 1","AdditionalData":[{"value":"United Kingdom","key":"CountryName"},{"value":"England","key":"StateName"},{"value":"Kent","key":"CountyName"}]},"MapReference":{"ReferenceId":"837664185","SideOfStreet":"neither","StateId":"20248595","CountyId":"20336836","CityId":"20337223","DistrictId":"20337224"}}},{"Relevance":1.0,"Distance":7.9,"MatchLevel":"houseNumber","MatchQuality":{"Country":1.0,"State":1.0,"County":1.0,"City":1.0,"District":1.0,"Street":[1.0],"HouseNumber":1.0,"PostalCode":1.0},"MatchType":"interpolated","Location":{"LocationId":"NT_WwmQ5wk08u-oqVAHa4cyfD_l_25626918_L_xQjM","LocationType":"point","DisplayPosition":{"Latitude":51.3886431,"Longitude":1.3938731},"MapView":{"TopLeft":{"Latitude":51.3897672,"Longitude":1.3920717},"BottomRight":{"Latitude":51.3875189,"Longitude":1.3956745}},"Address":{"Label":"142 Northdown Road, Margate, CT9 2QN, United Kingdom","Country":"GBR","State":"England","County":"Kent","City":"Margate","District":"Margate","Street":"Northdown Road","HouseNumber":"142","PostalCode":"CT9 2QN","AdditionalData":[{"value":"United Kingdom","key":"CountryName"},{"value":"England","key":"StateName"},{"value":"Kent","key":"CountyName"}]},"MapReference":{"ReferenceId":"25626918","Spot":0.67,"SideOfStreet":"left","StateId":"20248595","CountyId":"20336836","CityId":"20337223","DistrictId":"20337224"}}},{"Relevance":1.0,"Distance":9.7,"MatchLevel":"street","MatchQuality":{"Country":1.0,"State":1.0,"County":1.0,"City":1.0,"District":1.0,"Street":[1.0],"PostalCode":1.0},"Location":{"LocationId":"NT_oDG7u8baX8XBs8.UETPutA_l_25626938_R","LocationType":"point","DisplayPosition":{"Latitude":51.3886385,"Longitude":1.3936922},"MapView":{"TopLeft":{"Latitude":51.38868,"Longitude":1.39336},"BottomRight":{"Latitude":51.3884,"Longitude":1.39375}},"Address":{"Label":"Wilderness Hill, Margate, CT9 2, United Kingdom","Country":"GBR","State":"England","County":"Kent","City":"Margate","District":"Margate","Street":"Wilderness Hill","PostalCode":"CT9 2","AdditionalData":[{"value":"United Kingdom","key":"CountryName"},{"value":"England","key":"StateName"},{"value":"Kent","key":"CountyName"}]},"MapReference":{"ReferenceId":"25626938","Spot":0.85,"SideOfStreet":"right","StateId":"20248595","CountyId":"20336836","CityId":"20337223","DistrictId":"20337224"}}},{"Relevance":1.0,"Distance":18.6,"MatchLevel":"houseNumber","MatchQuality":{"Country":1.0,"State":1.0,"County":1.0,"City":1.0,"District":1.0,"Street":[1.0],"HouseNumber":1.0,"PostalCode":1.0},"MatchType":"interpolated","Location":{"LocationId":"NT_WwmQ5wk08u-oqVAHa4cyfD_l_25626910_L_xMjM","LocationType":"point","DisplayPosition":{"Latitude":51.38874,"Longitude":1.39356},"MapView":{"TopLeft":{"Latitude":51.3898642,"Longitude":1.3917585},"BottomRight":{"Latitude":51.3876159,"Longitude":1.3953614}},"Address":{"Label":"132 Northdown Road, Margate, CT9 2RB, United Kingdom","Country":"GBR","State":"England","County":"Kent","City":"Margate","District":"Margate","Street":"Northdown Road","HouseNumber":"132","PostalCode":"CT9 2RB","AdditionalData":[{"value":"United Kingdom","key":"CountryName"},{"value":"England","key":"StateName"},{"value":"Kent","key":"CountyName"}]},"MapReference":{"ReferenceId":"25626910","Spot":0.24,"SideOfStreet":"left","StateId":"20248595","CountyId":"20336836","CityId":"20337223","DistrictId":"20337224"}}},{"Relevance":1.0,"Distance":29.0,"MatchLevel":"houseNumber","MatchQuality":{"Country":1.0,"State":1.0,"County":1.0,"City":1.0,"District":1.0,"Street":[1.0],"HouseNumber":1.0,"PostalCode":1.0},"MatchType":"interpolated","Location":{"LocationId":"NT_YZV6I9iAeQiuS54eS8LQsC_l_25626917_R_zA","LocationType":"point","DisplayPosition":{"Latitude":51.3887,"Longitude":1.3941},"MapView":{"TopLeft":{"Latitude":51.3898242,"Longitude":1.3922986},"BottomRight":{"Latitude":51.3875759,"Longitude":1.3959014}},"Address":{"Label":"3 Edgar Road, Margate, CT9 2EL, United Kingdom","Country":"GBR","State":"England","County":"Kent","City":"Margate","District":"Margate","Street":"Edgar Road","HouseNumber":"3","PostalCode":"CT9 2EL","AdditionalData":[{"value":"United Kingdom","key":"CountryName"},{"value":"England","key":"StateName"},{"value":"Kent","key":"CountyName"}]},"MapReference":{"ReferenceId":"25626917","Spot":0.34,"SideOfStreet":"right","StateId":"20248595","CountyId":"20336836","CityId":"20337223","DistrictId":"20337224"}}},{"Relevance":1.0,"Distance":33.1,"MatchLevel":"postalCode","MatchQuality":{"PostalCode":1.0},"MatchType":"interpolated","Location":{"LocationId":"NT_YZV6I9iAeQiuS54eS8LQsC_l_25626917_R_zA","LocationType":"point","DisplayPosition":{"Latitude":51.38871,"Longitude":1.39416},"MapView":{"TopLeft":{"Latitude":51.3977032,"Longitude":1.3797486},"BottomRight":{"Latitude":51.3797168,"Longitude":1.4085714}},"Address":{"Label":"CT9 2EL, Margate, England, United Kingdom","Country":"GBR","State":"England","County":"Kent","City":"Margate","PostalCode":"CT9 2EL","AdditionalData":[{"value":"United Kingdom","key":"CountryName"},{"value":"England","key":"StateName"},{"value":"Kent","key":"CountyName"}]},"MapReference":{"ReferenceId":"25626917","Spot":0.34,"SideOfStreet":"neither","StateId":"20248595","CountyId":"20336836","CityId":"20337223"}}},{"Relevance":1.0,"Distance":42.9,"MatchLevel":"postalCode","MatchQuality":{"PostalCode":1.0},"MatchType":"interpolated","Location":{"LocationId":"NT_oDG7u8baX8XBs8.UETPutA_l_25626958_R_yA","LocationType":"point","DisplayPosition":{"Latitude":51.3883,"Longitude":1.39329},"MapView":{"TopLeft":{"Latitude":51.3972932,"Longitude":1.3788787},"BottomRight":{"Latitude":51.3793068,"Longitude":1.4077013}},"Address":{"Label":"CT9 2QF, Margate, England, United Kingdom","Country":"GBR","State":"England","County":"Kent","City":"Margate","PostalCode":"CT9 2QF","AdditionalData":[{"value":"United Kingdom","key":"CountryName"},{"value":"England","key":"StateName"},{"value":"Kent","key":"CountyName"}]},"MapReference":{"ReferenceId":"25626958","Spot":0.51,"SideOfStreet":"neither","StateId":"20248595","CountyId":"20336836","CityId":"20337223"}}},{"Relevance":1.0,"Distance":43.6,"MatchLevel":"houseNumber","MatchQuality":{"Country":1.0,"State":1.0,"County":1.0,"City":1.0,"District":1.0,"Street":[1.0],"HouseNumber":1.0,"PostalCode":1.0},"MatchType":"interpolated","Location":{"LocationId":"NT_-lZqFlffk0CNFSs3GyKJ6A_l_25627076_R_xA","LocationType":"point","DisplayPosition":{"Latitude":51.3881022,"Longitude":1.3933474},"MapView":{"TopLeft":{"Latitude":51.3892263,"Longitude":1.391546},"BottomRight":{"Latitude":51.386978,"Longitude":1.3951488}},"Address":{"Label":"1 Clarendon Road, Margate, CT9 2, United Kingdom","Country":"GBR","State":"England","County":"Kent","City":"Margate","District":"Margate","Street":"Clarendon Road","HouseNumber":"1","PostalCode":"CT9 2","AdditionalData":[{"value":"United Kingdom","key":"CountryName"},{"value":"England","key":"StateName"},{"value":"Kent","key":"CountyName"}]},"MapReference":{"ReferenceId":"25627076","Spot":0.89,"SideOfStreet":"right","StateId":"20248595","CountyId":"20336836","CityId":"20337223","DistrictId":"20337224"}}},{"Relevance":1.0,"Distance":44.7,"MatchLevel":"houseNumber","MatchQuality":{"Country":1.0,"State":1.0,"County":1.0,"City":1.0,"District":1.0,"Street":[1.0],"HouseNumber":1.0,"PostalCode":1.0},"MatchType":"interpolated","Location":{"LocationId":"NT_WwmQ5wk08u-oqVAHa4cyfD_l_25626979_L_xQDO","LocationType":"point","DisplayPosition":{"Latitude":51.3885007,"Longitude":1.3943868},"MapView":{"TopLeft":{"Latitude":51.3896249,"Longitude":1.3925854},"BottomRight":{"Latitude":51.3873766,"Longitude":1.3961882}},"Address":{"Label":"148 Northdown Road, Margate, CT9 2QN, United Kingdom","Country":"GBR","State":"England","County":"Kent","City":"Margate","District":"Margate","Street":"Northdown Road","HouseNumber":"148","PostalCode":"CT9 2QN","AdditionalData":[{"value":"United Kingdom","key":"CountryName"},{"value":"England","key":"StateName"},{"value":"Kent","key":"CountyName"}]},"MapReference":{"ReferenceId":"25626979","Spot":0.88,"SideOfStreet":"left","StateId":"20248595","CountyId":"20336836","CityId":"20337223","DistrictId":"20337224"}}},{"Relevance":1.0,"Distance":46.1,"MatchLevel":"houseNumber","MatchQuality":{"Country":1.0,"State":1.0,"County":1.0,"City":1.0,"District":1.0,"Street":[1.0],"HouseNumber":1.0,"PostalCode":1.0},"MatchType":"interpolated","Location":{"LocationId":"NT_oDG7u8baX8XBs8.UETPutA_l_25626958_R_yA","LocationType":"point","DisplayPosition":{"Latitude":51.3883112,"Longitude":1.393217},"MapView":{"TopLeft":{"Latitude":51.3894354,"Longitude":1.3914155},"BottomRight":{"Latitude":51.3871871,"Longitude":1.3950184}},"Address":{"Label":"2 Wilderness Hill, Margate, CT9 2QF, United Kingdom","Country":"GBR","State":"England","County":"Kent","City":"Margate","District":"Margate","Street":"Wilderness Hill","HouseNumber":"2","PostalCode":"CT9 2QF","AdditionalData":[{"value":"United Kingdom","key":"CountryName"},{"value":"England","key":"StateName"},{"value":"Kent","key":"CountyName"}]},"MapReference":{"ReferenceId":"25626958","Spot":0.51,"SideOfStreet":"right","StateId":"20248595","CountyId":"20336836","CityId":"20337223","DistrictId":"20337224"}}}]}]}}