{"Response":{"MetaInfo":{"Timestamp":"2020-03-28T10:38:51.727+0000","NextPageInformation":"2"},"View":[{"_type":"SearchResultsViewType","ViewId":0,"Result":[{"Relevance":1.0,"Distance":0.0,"Direction":0.0,"MatchLevel":"district","MatchQuality":{"Country":1.0,"State":1.0,"County":1.0,"City":1.0,"District":1.0,"PostalCode":1.0},"Location":{"LocationId":"NT_0y5xZVyrRxdHCbW196OevD","LocationType":"point","DisplayPosition":{"Latitude":51.3451989,"Longitude":-0.798239},"MapView":{"TopLeft":{"Latitude":51.35872,"Longitude":-0.81665},"BottomRight":{"Latitude":51.33293,"Longitude":-0.75827}},"Address":{"Label":"Sandhurst, England, United Kingdom","Country":"GBR","State":"England","County":"Berkshire","City":"Sandhurst","District":"Sandhurst","PostalCode":"GU47 9","AdditionalData":[{"value":"United Kingdom","key":"CountryName"},{"value":"England","key":"StateName"},{"value":"Berkshire","key":"CountyName"}]},"MapReference":{"ReferenceId":"867420079","SideOfStreet":"neither","StateId":"20248595","CountyId":"20334448","CityId":"20334657","DistrictId":"20334658"}}},{"Relevance":1.0,"Distance":40.9,"MatchLevel":"houseNumber","MatchQuality":{"Country":1.0,"State":1.0,"County":1.0,"City":1.0,"District":1.0,"Street":[1.0],"HouseNumber":1.0,"PostalCode":1.0},"MatchType":"interpolated","Location":{"LocationId":"NT_NU0xkx6pOR54y2AZFU05YD_l_836030026_L_3AD","LocationType":"point","DisplayPosition":{"Latitude":51.3456482,"Longitude":-0.7979198},"MapView":{"TopLeft":{"Latitude":51.3467723,"Longitude":-0.7997196},"BottomRight":{"Latitude":51.344524,"Longitude":-0.7961201}},"Address":{"Label":"70 Yorktown Road, Sandhurst, GU47 9BT, United Kingdom","Country":"GBR","State":"England","County":"Berkshire","City":"Sandhurst","District":"Sandhurst","Street":"Yorktown Road","HouseNumber":"70","PostalCode":"GU47 9BT","AdditionalData":[{"value":"United Kingdom","key":"CountryName"},{"value":"England","key":"StateName"},{"value":"Berkshire","key":"CountyName"}]},"MapReference":{"ReferenceId":"836030026","Spot":0.69,"SideOfStreet":"left","StateId":"20248595","CountyId":"20334448","CityId":"20334657","DistrictId":"20334658"}}},{"Relevance":1.0,"Distance":42.0,"MatchLevel":"houseNumber","MatchQuality":{"Country":1.0,"State":1.0,"County":1.0,"City":1.0,"District":1.0,"Street":[1.0],"HouseNumber":1.0,"PostalCode":1.0},"MatchType":"interpolated","Location":{"LocationId":"NT_EMCX4iN4elNc8AoTBroSjB_l_25695199_R_yAD","LocationType":"point","DisplayPosition":{"Latitude":51.3447771,"Longitude":-0.7986956},"MapView":{"TopLeft":{"Latitude":51.3459012,"Longitude":-0.8004953},"BottomRight":{"Latitude":51.3436529,"Longitude":-0.7968959}},"Address":{"Label":"20 Gough's Meadow, Sandhurst, GU47 9BY, United Kingdom","Country":"GBR","State":"England","County":"Berkshire","City":"Sandhurst","District":"Sandhurst","Street":"Gough's Meadow","HouseNumber":"20","PostalCode":"GU47 9BY","AdditionalData":[{"value":"United Kingdom","key":"CountryName"},{"value":"England","key":"StateName"},{"value":"Berkshire","key":"CountyName"}]},"MapReference":{"ReferenceId":"25695199","Spot":0.45,"SideOfStreet":"right","StateId":"20248595","CountyId":"20334448","CityId":"20334657","DistrictId":"20334658"}}},{"Relevance":1.0,"Distance":43.8,"MatchLevel":"houseNumber","MatchQuality":{"Country":1.0,"State":1.0,"County":1.0,"City":1.0,"District":1.0,"Street":[1.0],"HouseNumber":1.0,"PostalCode":1.0},"MatchType":"interpolated","Location":{"LocationId":"NT_NU0xkx6pOR54y2AZFU05YD_l_759734997_L_2gD","LocationType":"point","DisplayPosition":{"Latitude":51.3457,"Longitude":-0.7984601},"MapView":{"TopLeft":{"Latitude":51.3468242,"Longitude":-0.8002599},"BottomRight":{"Latitude":51.3445759,"Longitude":-0.7966604}},"Address":{"Label":"68 Yorktown Road, Sandhurst, GU47 9BT, United Kingdom","Country":"GBR","State":"England","County":"Berkshire","City":"Sandhurst","District":"Sandhurst","Street":"Yorktown Road","HouseNumber":"68","PostalCode":"GU47 9BT","AdditionalData":[{"value":"United Kingdom","key":"CountryName"},{"value":"England","key":"StateName"},{"value":"Berkshire","key":"CountyName"}]},"MapReference":{"ReferenceId":"759734997","Spot":0.19,"SideOfStreet":"left","StateId":"20248595","CountyId":"20334448","CityId":"20334657","DistrictId":"20334658"}}},{"Relevance":1.0,"Distance":49.1,"MatchLevel":"postalCode","MatchQuality":{"PostalCode":1.0},"MatchType":"interpolated","Location":{"LocationId":"NT_NU0xkx6pOR54y2AZFU05YD_l_836030026_L_3AD","LocationType":"point","DisplayPosition":{"Latitude":51.34564,"Longitude":-0.79823},"MapView":{"TopLeft":{"Latitude":51.3546332,"Longitude":-0.8126279},"BottomRight":{"Latitude":51.3366468,"Longitude":-0.7838321}},"Address":{"Label":"GU47 9BT, Sandhurst, England, United Kingdom","Country":"GBR","State":"England","County":"Berkshire","City":"Sandhurst","PostalCode":"GU47 9BT","AdditionalData":[{"value":"United Kingdom","key":"CountryName"},{"value":"England","key":"StateName"},{"value":"Berkshire","key":"CountyName"}]},"MapReference":{"ReferenceId":"836030026","Spot":0.69,"SideOfStreet":"neither","StateId":"20248595","CountyId":"20334448","CityId":"20334657"}}},{"Relevance":1.0,"Distance":51.3,"MatchLevel":"postalCode","MatchQuality":{"PostalCode":1.0},"MatchType":"interpolated","Location":{"LocationId":"NT_EMCX4iN4elNc8AoTBroSjB_l_25695199_R_yAD","LocationType":"point","DisplayPosition":{"Latitude":51.34482,"Longitude":-0.79866},"MapView":{"TopLeft":{"Latitude":51.3538132,"Longitude":-0.8130576},"BottomRight":{"Latitude":51.3358268,"Longitude":-0.7842624}},"Address":{"Label":"GU47 9BY, Sandhurst, England, United Kingdom","Country":"GBR","State":"England","County":"Berkshire","City":"Sandhurst","PostalCode":"GU47 9BY","AdditionalData":[{"value":"United Kingdom","key":"CountryName"},{"value":"England","key":"StateName"},{"value":"Berkshire","key":"CountyName"}]},"MapReference":{"ReferenceId":"25695199","Spot":0.45,"SideOfStreet":"neither","StateId":"20248595","CountyId":"20334448","CityId":"20334657"}}},{"Relevance":1.0,"Distance":62.8,"MatchLevel":"houseNumber","MatchQuality":{"Country":1.0,"State":1.0,"County":1.0,"City":1.0,"District":1.0,"Street":[1.0],"HouseNumber":1.0,"PostalCode":1.0},"MatchType":"interpolated","Location":{"LocationId":"NT_vkueVLIlTI0hn50NQLDtjA_l_25695015_R_yA","LocationType":"point","DisplayPosition":{"Latitude":51.3458202,"Longitude":-0.7981899},"MapView":{"TopLeft":{"Latitude":51.3469443,"Longitude":-0.7999897},"BottomRight":{"Latitude":51.344696,"Longitude":-0.7963902}},"Address":{"Label":"2 Albion Road, Sandhurst, GU47 9BP, United Kingdom","Country":"GBR","State":"England","County":"Berkshire","City":"Sandhurst","District":"Sandhurst","Street":"Albion Road","HouseNumber":"2","PostalCode":"GU47 9BP","AdditionalData":[{"value":"United Kingdom","key":"CountryName"},{"value":"England","key":"StateName"},{"value":"Berkshire","key":"CountyName"}]},"MapReference":{"ReferenceId":"25695015","Spot":0.04,"SideOfStreet":"right","StateId":"20248595","CountyId":"20334448","CityId":"20334657","DistrictId":"20334658"}}},{"Relevance":1.0,"Distance":73.4,"MatchLevel":"postalCode","MatchQuality":{"PostalCode":1.0},"MatchType":"interpolated","Location":{"LocationId":"NT_NU0xkx6pOR54y2AZFU05YD_l_759734997_L_2gD","LocationType":"point","DisplayPosition":{"Latitude":51.34578,"Longitude":-0.79874},"MapView":{"TopLeft":{"Latitude":51.3547732,"Longitude":-0.8131379},"BottomRight":{"Latitude":51.3367868,"Longitude":-0.7843421}},"Address":{"Label":"GU47 9BS, Sandhurst, England, United Kingdom","Country":"GBR","State":"England","County":"Berkshire","City":"Sandhurst","PostalCode":"GU47 9BS","AdditionalData":[{"value":"United Kingdom","key":"CountryName"},{"value":"England","key":"StateName"},{"value":"Berkshire","key":"CountyName"}]},"MapReference":{"ReferenceId":"759734997","Spot":0.19,"SideOfStreet":"neither","StateId":"20248595","CountyId":"20334448","CityId":"20334657"}}},{"Relevance":1.0,"Distance":87.1,"MatchLevel":"houseNumber","MatchQuality":{"Country":1.0,"State":1.0,"County":1.0,"City":1.0,"District":1.0,"Street":[1.0],"HouseNumber":1.0,"PostalCode":1.0},"MatchType":"interpolated","Location":{"LocationId":"NT_NU0xkx6pOR54y2AZFU05YD_l_836030025_L_4ID","LocationType":"point","DisplayPosition":{"Latitude":51.34548,"Longitude":-0.796975},"MapView":{"TopLeft":{"Latitude":51.3466042,"Longitude":-0.7987747},"BottomRight":{"Latitude":51.3443559,"Longitude":-0.7951753}},"Address":{"Label":"82 Yorktown Road, Sandhurst, GU47 9BH, United Kingdom","Country":"GBR","State":"England","County":"Berkshire","City":"Sandhurst","District":"Sandhurst","Street":"Yorktown Road","HouseNumber":"82","PostalCode":"GU47 9BH","AdditionalData":[{"value":"United Kingdom","key":"CountryName"},{"value":"England","key":"StateName"},{"value":"Berkshire","key":"CountyName"}]},"MapReference":{"ReferenceId":"836030025","Spot":0.5,"SideOfStreet":"left","StateId":"20248595","CountyId":"20334448","CityId":"20334657","DistrictId":"20334658"}}},{"Relevance":1.0,"Distance":91.2,"MatchLevel":"street","MatchQuality":{"Country":1.0,"State":1.0,"County":1.0,"City":1.0,"District":1.0,"Street":[1.0],"PostalCode":1.0},"Location":{"LocationId":"NT_PiiSeVN0rRQsawfzUEcpkD_l_565990436_L","LocationType":"point","DisplayPosition":{"Latitude":51.34477,"Longitude":-0.79712},"MapView":{"TopLeft":{"Latitude":51.34543,"Longitude":-0.79713},"BottomRight":{"Latitude":51.34443,"Longitude":-0.79674}},"Address":{"Label":"Coachmans Grove, Sandhurst, GU47 9, United Kingdom","Country":"GBR","State":"England","County":"Berkshire","City":"Sandhurst","District":"Sandhurst","Street":"Coachmans Grove","PostalCode":"GU47 9","AdditionalData":[{"value":"United Kingdom","key":"CountryName"},{"value":"England","key":"StateName"},{"value":"Berkshire","key":"CountyName"}]},"MapReference":{"ReferenceId":"565990436","Spot":0.45,"SideOfStreet":"left","StateId":"20248595","CountyId":"20334448","CityId":"20334657","DistrictId":"20334658"}}}]}]}}