{"Response":{"MetaInfo":{"Timestamp":"2020-03-28T11:18:08.267+0000","NextPageInformation":"2"},"View":[{"_type":"SearchResultsViewType","ViewId":0,"Result":[{"Relevance":1.0,"Distance":0.0,"Direction":0.0,"MatchLevel":"district","MatchQuality":{"Country":1.0,"State":1.0,"County":1.0,"City":1.0,"District":1.0,"PostalCode":1.0},"Location":{"LocationId":"NT_LJRlO8rAG0rHzkAFE038nD","LocationType":"point","DisplayPosition":{"Latitude":51.3317027,"Longitude":-0.5617435},"MapView":{"TopLeft":{"Latitude":51.34162,"Longitude":-0.57601},"BottomRight":{"Latitude":51.32397,"Longitude":-0.54592}},"Address":{"Label":"Horsell, Woking, England, United Kingdom","Country":"GBR","State":"England","County":"Surrey","City":"Woking","District":"Horsell","PostalCode":"GU21 4","AdditionalData":[{"value":"United Kingdom","key":"CountryName"},{"value":"England","key":"StateName"},{"value":"Surrey","key":"CountyName"}]},"MapReference":{"ReferenceId":"25534225","SideOfStreet":"neither","StateId":"20248595","CountyId":"20338357","CityId":"20338645","DistrictId":"20338650"}}},{"Relevance":1.0,"Distance":24.5,"MatchLevel":"street","MatchQuality":{"Country":1.0,"State":1.0,"County":1.0,"City":1.0,"District":1.0,"Street":[1.0],"PostalCode":1.0},"Location":{"LocationId":"NT_TI3LZywglVVY8Hmd6vdg8D_l_566013609_R","LocationType":"point","DisplayPosition":{"Latitude":51.3319,"Longitude":-0.5619},"MapView":{"TopLeft":{"Latitude":51.33245,"Longitude":-0.56197},"BottomRight":{"Latitude":51.3319,"Longitude":-0.5619}},"Address":{"Label":"Pentire Close, Woking, GU21 4, United Kingdom","Country":"GBR","State":"England","County":"Surrey","City":"Woking","District":"Horsell","Street":"Pentire Close","PostalCode":"GU21 4","AdditionalData":[{"value":"United Kingdom","key":"CountryName"},{"value":"England","key":"StateName"},{"value":"Surrey","key":"CountyName"}]},"MapReference":{"ReferenceId":"566013609","Spot":0.0,"SideOfStreet":"right","StateId":"20248595","CountyId":"20338357","CityId":"20338645","DistrictId":"20338650"}}},{"Relevance":1.0,"Distance":49.8,"MatchLevel":"street","MatchQuality":{"Country":1.0,"State":1.0,"County":1.0,"City":1.0,"District":1.0,"Street":[1.0],"PostalCode":1.0},"Location":{"LocationId":"NT_akwH.llKowKtodSBQPQEtA_l_25534383_L","LocationType":"point","DisplayPosition":{"Latitude":51.33139,"Longitude":-0.56123},"MapView":{"TopLeft":{"Latitude":51.33144,"Longitude":-0.56126},"BottomRight":{"Latitude":51.33096,"Longitude":-0.56038}},"Address":{"Label":"Mylor Close, Woking, GU21 4, United Kingdom","Country":"GBR","State":"England","County":"Surrey","City":"Woking","District":"Horsell","Street":"Mylor Close","PostalCode":"GU21 4","AdditionalData":[{"value":"United Kingdom","key":"CountryName"},{"value":"England","key":"StateName"},{"value":"Surrey","key":"CountyName"}]},"MapReference":{"ReferenceId":"25534383","Spot":0.36,"SideOfStreet":"left","StateId":"20248595","CountyId":"20338357","CityId":"20338645","DistrictId":"20338650"}}},{"Relevance":1.0,"Distance":53.2,"MatchLevel":"postalCode","MatchQuality":{"PostalCode":1.0},"Location":{"LocationId":"NT_TI3LZywglVVY8Hmd6vdg8D_l_566013609_R","LocationType":"point","DisplayPosition":{"Latitude":51.33216,"Longitude":-0.56197},"MapView":{"TopLeft":{"Latitude":51.3411532,"Longitude":-0.5763636},"BottomRight":{"Latitude":51.3231668,"Longitude":-0.5475764}},"Address":{"Label":"GU21 4PZ, Woking, England, United Kingdom","Country":"GBR","State":"England","County":"Surrey","City":"Woking","PostalCode":"GU21 4PZ","AdditionalData":[{"value":"United Kingdom","key":"CountryName"},{"value":"England","key":"StateName"},{"value":"Surrey","key":"CountyName"}]},"MapReference":{"ReferenceId":"566013609","Spot":0.0,"SideOfStreet":"neither","StateId":"20248595","CountyId":"20338357","CityId":"20338645"}}},{"Relevance":1.0,"Distance":66.9,"MatchLevel":"postalCode","MatchQuality":{"PostalCode":1.0},"Location":{"LocationId":"NT_akwH.llKowKtodSBQPQEtA_l_25534383_L","LocationType":"point","DisplayPosition":{"Latitude":51.33119,"Longitude":-0.56124},"MapView":{"TopLeft":{"Latitude":51.3401832,"Longitude":-0.5756333},"BottomRight":{"Latitude":51.3221968,"Longitude":-0.5468467}},"Address":{"Label":"GU21 4DD, Woking, England, United Kingdom","Country":"GBR","State":"England","County":"Surrey","City":"Woking","PostalCode":"GU21 4DD","AdditionalData":[{"value":"United Kingdom","key":"CountryName"},{"value":"England","key":"StateName"},{"value":"Surrey","key":"CountyName"}]},"MapReference":{"ReferenceId":"25534383","Spot":0.36,"SideOfStreet":"neither","StateId":"20248595","CountyId":"20338357","CityId":"20338645"}}},{"Relevance":1.0,"Distance":72.3,"MatchLevel":"street","MatchQuality":{"Country":1.0,"State":1.0,"County":1.0,"City":1.0,"District":1.0,"Street":[1.0],"PostalCode":1.0},"Location":{"LocationId":"NT_voOupBdSq7aEFi9hRQwqbC_l_25534374_L","LocationType":"point","DisplayPosition":{"Latitude":51.33111,"Longitude":-0.56217},"MapView":{"TopLeft":{"Latitude":51.33111,"Longitude":-0.56299},"BottomRight":{"Latitude":51.33106,"Longitude":-0.56217}},"Address":{"Label":"Mulberry Close, Woking, GU21 4, United Kingdom","Country":"GBR","State":"England","County":"Surrey","City":"Woking","District":"Horsell","Street":"Mulberry Close","PostalCode":"GU21 4","AdditionalData":[{"value":"United Kingdom","key":"CountryName"},{"value":"England","key":"StateName"},{"value":"Surrey","key":"CountyName"}]},"MapReference":{"ReferenceId":"25534374","Spot":1.0,"SideOfStreet":"left","StateId":"20248595","CountyId":"20338357","CityId":"20338645","DistrictId":"20338650"}}},{"Relevance":1.0,"Distance":77.1,"MatchLevel":"postalCode","MatchQuality":{"PostalCode":1.0},"Location":{"LocationId":"NT_voOupBdSq7aEFi9hRQwqbC_l_25534374_L","LocationType":"point","DisplayPosition":{"Latitude":51.33106,"Longitude":-0.56216},"MapView":{"TopLeft":{"Latitude":51.3400532,"Longitude":-0.5765533},"BottomRight":{"Latitude":51.3220668,"Longitude":-0.5477667}},"Address":{"Label":"GU21 4JE, Woking, England, United Kingdom","Country":"GBR","State":"England","County":"Surrey","City":"Woking","PostalCode":"GU21 4JE","AdditionalData":[{"value":"United Kingdom","key":"CountryName"},{"value":"England","key":"StateName"},{"value":"Surrey","key":"CountyName"}]},"MapReference":{"ReferenceId":"25534374","Spot":1.0,"SideOfStreet":"neither","StateId":"20248595","CountyId":"20338357","CityId":"20338645"}}},{"Relevance":1.0,"Distance":82.0,"MatchLevel":"postalCode","MatchQuality":{"PostalCode":1.0},"Location":{"LocationId":"NT_EaptC127S1QdgHxi1ErfUA_l_566013607_R","LocationType":"point","DisplayPosition":{"Latitude":51.33241,"Longitude":-0.56141},"MapView":{"TopLeft":{"Latitude":51.3414032,"Longitude":-0.5758037},"BottomRight":{"Latitude":51.3234168,"Longitude":-0.5470163}},"Address":{"Label":"GU21 4BY, Woking, England, United Kingdom","Country":"GBR","State":"England","County":"Surrey","City":"Woking","PostalCode":"GU21 4BY","AdditionalData":[{"value":"United Kingdom","key":"CountryName"},{"value":"England","key":"StateName"},{"value":"Surrey","key":"CountyName"}]},"MapReference":{"ReferenceId":"566013607","Spot":0.2,"SideOfStreet":"neither","StateId":"20248595","CountyId":"20338357","CityId":"20338645"}}},{"Relevance":1.0,"Distance":83.1,"MatchLevel":"landmark","MatchQuality":{"Country":1.0,"State":1.0,"County":1.0,"City":1.0,"District":1.0,"Street":[1.0],"PostalCode":1.0,"Name":1.0},"Location":{"LocationId":"NT_O2Gb.jG-hviyo8w8xrFSvB_p_Zm66C-OkRmeV0fO7Bz9wYA","LocationType":"park","Name":"Horsell Common","DisplayPosition":{"Latitude":51.33321,"Longitude":-0.54883},"MapView":{"TopLeft":{"Latitude":51.34346,"Longitude":-0.58456},"BottomRight":{"Latitude":51.32925,"Longitude":-0.54205}},"Address":{"Label":"Shores Road, Woking, GU21 4, United Kingdom","Country":"GBR","State":"England","County":"Surrey","City":"Woking","District":"Horsell","Street":"Shores Road","PostalCode":"GU21 4","AdditionalData":[{"value":"United Kingdom","key":"CountryName"},{"value":"England","key":"StateName"},{"value":"Surrey","key":"CountyName"}]},"MapReference":{"StateId":"20248595","CountyId":"20338357","CityId":"20338645","DistrictId":"20338650","PlaceId":"1103602879"}}},{"Relevance":1.0,"Distance":83.1,"MatchLevel":"street","MatchQuality":{"Country":1.0,"State":1.0,"County":1.0,"City":1.0,"District":1.0,"Street":[1.0],"PostalCode":1.0},"Location":{"LocationId":"NT_EaptC127S1QdgHxi1ErfUA_l_566013607_R","LocationType":"point","DisplayPosition":{"Latitude":51.33245,"Longitude":-0.5617435},"MapView":{"TopLeft":{"Latitude":51.33249,"Longitude":-0.56197},"BottomRight":{"Latitude":51.33245,"Longitude":-0.56081}},"Address":{"Label":"Shores Road, Woking, GU21 4, United Kingdom","Country":"GBR","State":"England","County":"Surrey","City":"Woking","District":"Horsell","Street":"Shores Road","PostalCode":"GU21 4","AdditionalData":[{"value":"United Kingdom","key":"CountryName"},{"value":"England","key":"StateName"},{"value":"Surrey","key":"CountyName"}]},"MapReference":{"ReferenceId":"566013607","Spot":0.2,"SideOfStreet":"right","StateId":"20248595","CountyId":"20338357","CityId":"20338645","DistrictId":"20338650"}}}]}]}}