{"Response":{"MetaInfo":{"Timestamp":"2020-03-28T11:15:26.306+0000","NextPageInformation":"2"},"View":[{"_type":"SearchResultsViewType","ViewId":0,"Result":[{"Relevance":1.0,"Distance":0.0,"Direction":0.0,"MatchLevel":"district","MatchQuality":{"Country":1.0,"State":1.0,"County":1.0,"City":1.0,"District":1.0,"PostalCode":1.0},"Location":{"LocationId":"NT_aEXD5nZh9deK0-ugDpJIKA","LocationType":"point","DisplayPosition":{"Latitude":51.3129631,"Longitude":0.0345938},"MapView":{"TopLeft":{"Latitude":51.32191,"Longitude":0.01683},"BottomRight":{"Latitude":51.30147,"Longitude":0.05035}},"Address":{"Label":"Biggin Hill, Westerham, England, United Kingdom","Country":"GBR","State":"England","County":"Kent","City":"Westerham","District":"Biggin Hill","PostalCode":"TN16 3","AdditionalData":[{"value":"United Kingdom","key":"CountryName"},{"value":"England","key":"StateName"},{"value":"Kent","key":"CountyName"}]},"MapReference":{"ReferenceId":"25442445","SideOfStreet":"neither","StateId":"20248595","CountyId":"20336836","CityId":"20337438","DistrictId":"20337441"}}},{"Relevance":1.0,"Distance":10.8,"MatchLevel":"houseNumber","MatchQuality":{"Country":1.0,"State":1.0,"County":1.0,"City":1.0,"District":1.0,"Street":[1.0],"HouseNumber":1.0,"PostalCode":1.0},"MatchType":"interpolated","Location":{"LocationId":"NT_aqxZ5iNDSpJqULau7jT.vD_xMD","LocationType":"point","DisplayPosition":{"Latitude":51.31287,"Longitude":0.03451},"MapView":{"TopLeft":{"Latitude":51.3139942,"Longitude":0.0327116},"BottomRight":{"Latitude":51.3117458,"Longitude":0.0363084}},"Address":{"Label":"13 Maple Leaf Close, Westerham, TN16 3JW, United Kingdom","Country":"GBR","State":"England","County":"Kent","City":"Westerham","District":"Biggin Hill","Street":"Maple Leaf Close","HouseNumber":"13","PostalCode":"TN16 3JW","AdditionalData":[{"value":"United Kingdom","key":"CountryName"},{"value":"England","key":"StateName"},{"value":"Kent","key":"CountyName"}]},"MapReference":{"ReferenceId":"25457239","Spot":1.0,"SideOfStreet":"right","StateId":"20248595","CountyId":"20336836","CityId":"20337438","DistrictId":"20337441","AddressId":"748850949","RoadLinkId":"82499967"}}},{"Relevance":1.0,"Distance":22.8,"MatchLevel":"postalCode","MatchQuality":{"PostalCode":1.0},"MatchType":"interpolated","Location":{"LocationId":"NT_aqxZ5iNDSpJqULau7jT.vD_xMD","LocationType":"point","DisplayPosition":{"Latitude":51.31276,"Longitude":0.03455},"MapView":{"TopLeft":{"Latitude":51.3217532,"Longitude":0.0201624},"BottomRight":{"Latitude":51.3037668,"Longitude":0.0489376}},"Address":{"Label":"TN16 3JW, Westerham, England, United Kingdom","Country":"GBR","State":"England","County":"Kent","City":"Westerham","PostalCode":"TN16 3JW","AdditionalData":[{"value":"United Kingdom","key":"CountryName"},{"value":"England","key":"StateName"},{"value":"Kent","key":"CountyName"}]},"MapReference":{"ReferenceId":"25457239","Spot":1.0,"SideOfStreet":"neither","StateId":"20248595","CountyId":"20336836","CityId":"20337438"}}},{"Relevance":1.0,"Distance":32.2,"MatchLevel":"street","MatchQuality":{"Country":1.0,"State":1.0,"County":1.0,"City":1.0,"District":1.0,"PostalCode":1.0},"Location":{"LocationId":"NT_ovz1qnADSFUP1POTmzAWfC_l_1232684008_R","LocationType":"point","DisplayPosition":{"Latitude":51.31325,"Longitude":0.03453},"MapView":{"TopLeft":{"Latitude":51.31325,"Longitude":0.03358},"BottomRight":{"Latitude":51.31312,"Longitude":0.03453}},"Address":{"Label":"Westerham, TN16 3, United Kingdom","Country":"GBR","State":"England","County":"Kent","City":"Westerham","District":"Biggin Hill","PostalCode":"TN16 3","AdditionalData":[{"value":"United Kingdom","key":"CountryName"},{"value":"England","key":"StateName"},{"value":"Kent","key":"CountyName"}]},"MapReference":{"ReferenceId":"1232684008","Spot":1.0,"SideOfStreet":"right","StateId":"20248595","CountyId":"20336836","CityId":"20337438","DistrictId":"20337441"}}},{"Relevance":1.0,"Distance":36.1,"MatchLevel":"houseNumber","MatchQuality":{"Country":1.0,"State":1.0,"County":1.0,"City":1.0,"District":1.0,"Street":[1.0],"HouseNumber":1.0,"PostalCode":1.0},"MatchType":"interpolated","Location":{"LocationId":"NT_Ig5VHCF8bdql5B49igyhOA_xUTO","LocationType":"point","DisplayPosition":{"Latitude":51.31319,"Longitude":0.03356},"MapView":{"TopLeft":{"Latitude":51.3143142,"Longitude":0.0317615},"BottomRight":{"Latitude":51.3120658,"Longitude":0.0353585}},"Address":{"Label":"159 Main Road, Westerham, TN16 3, United Kingdom","Country":"GBR","State":"England","County":"Kent","City":"Westerham","District":"Biggin Hill","Street":"Main Road","HouseNumber":"159","PostalCode":"TN16 3","AdditionalData":[{"value":"United Kingdom","key":"CountryName"},{"value":"England","key":"StateName"},{"value":"Kent","key":"CountyName"}]},"MapReference":{"ReferenceId":"1232684007","Spot":0.16,"SideOfStreet":"right","StateId":"20248595","CountyId":"20336836","CityId":"20337438","DistrictId":"20337441","AddressId":"763630583","RoadLinkId":"552714967"}}},{"Relevance":1.0,"Distance":38.8,"MatchLevel":"postalCode","MatchQuality":{"PostalCode":1.0},"MatchType":"interpolated","Location":{"LocationId":"NT_Ig5VHCF8bdql5B49igyhOA_xgzN","LocationType":"point","DisplayPosition":{"Latitude":51.31276,"Longitude":0.03414},"MapView":{"TopLeft":{"Latitude":51.3217532,"Longitude":0.0197524},"BottomRight":{"Latitude":51.3037668,"Longitude":0.0485276}},"Address":{"Label":"TN16 3JR, Westerham, England, United Kingdom","Country":"GBR","State":"England","County":"Kent","City":"Westerham","PostalCode":"TN16 3JR","AdditionalData":[{"value":"United Kingdom","key":"CountryName"},{"value":"England","key":"StateName"},{"value":"Kent","key":"CountyName"}]},"MapReference":{"ReferenceId":"25442372","Spot":0.24,"SideOfStreet":"neither","StateId":"20248595","CountyId":"20336836","CityId":"20337438"}}},{"Relevance":1.0,"Distance":50.9,"MatchLevel":"houseNumber","MatchQuality":{"Country":1.0,"State":1.0,"County":1.0,"City":1.0,"District":1.0,"Street":[1.0],"HouseNumber":1.0,"PostalCode":1.0},"MatchType":"interpolated","Location":{"LocationId":"NT_xZzaP8bqN-li7Fe7KCIB8D_l_1232684006_R_xczN","LocationType":"point","DisplayPosition":{"Latitude":51.3127901,"Longitude":0.0337},"MapView":{"TopLeft":{"Latitude":51.3139142,"Longitude":0.0319015},"BottomRight":{"Latitude":51.3116659,"Longitude":0.0354984}},"Address":{"Label":"177 Main Road, Westerham, TN16 3JR, United Kingdom","Country":"GBR","State":"England","County":"Kent","City":"Westerham","District":"Biggin Hill","Street":"Main Road","HouseNumber":"177","PostalCode":"TN16 3JR","AdditionalData":[{"value":"United Kingdom","key":"CountryName"},{"value":"England","key":"StateName"},{"value":"Kent","key":"CountyName"}]},"MapReference":{"ReferenceId":"1232684006","Spot":0.28,"SideOfStreet":"right","StateId":"20248595","CountyId":"20336836","CityId":"20337438","DistrictId":"20337441"}}},{"Relevance":1.0,"Distance":53.7,"MatchLevel":"postalCode","MatchQuality":{"PostalCode":1.0},"MatchType":"interpolated","Location":{"LocationId":"NT_xZzaP8bqN-li7Fe7KCIB8D_l_1232684006_R_xczN","LocationType":"point","DisplayPosition":{"Latitude":51.31322,"Longitude":0.03394},"MapView":{"TopLeft":{"Latitude":51.3222132,"Longitude":0.0195523},"BottomRight":{"Latitude":51.3042268,"Longitude":0.0483277}},"Address":{"Label":"TN16 3JS, Westerham, England, United Kingdom","Country":"GBR","State":"England","County":"Kent","City":"Westerham","PostalCode":"TN16 3JS","AdditionalData":[{"value":"United Kingdom","key":"CountryName"},{"value":"England","key":"StateName"},{"value":"Kent","key":"CountyName"}]},"MapReference":{"ReferenceId":"1232684006","Spot":0.28,"SideOfStreet":"neither","StateId":"20248595","CountyId":"20336836","CityId":"20337438"}}},{"Relevance":1.0,"Distance":57.2,"MatchLevel":"houseNumber","MatchQuality":{"Country":1.0,"State":1.0,"County":1.0,"City":1.0,"District":1.0,"Street":[1.0],"HouseNumber":1.0,"PostalCode":1.0},"MatchType":"interpolated","Location":{"LocationId":"NT_Ig5VHCF8bdql5B49igyhOA_xgzN","LocationType":"point","DisplayPosition":{"Latitude":51.31232,"Longitude":0.034},"MapView":{"TopLeft":{"Latitude":51.3134442,"Longitude":0.0322016},"BottomRight":{"Latitude":51.3111958,"Longitude":0.0357984}},"Address":{"Label":"187 Main Road, Westerham, TN16 3JR, United Kingdom","Country":"GBR","State":"England","County":"Kent","City":"Westerham","District":"Biggin Hill","Street":"Main Road","HouseNumber":"187","PostalCode":"TN16 3JR","AdditionalData":[{"value":"United Kingdom","key":"CountryName"},{"value":"England","key":"StateName"},{"value":"Kent","key":"CountyName"}]},"MapReference":{"ReferenceId":"25442372","Spot":0.24,"SideOfStreet":"right","StateId":"20248595","CountyId":"20336836","CityId":"20337438","DistrictId":"20337441","AddressId":"763516488","RoadLinkId":"82786126"}}},{"Relevance":1.0,"Distance":75.7,"MatchLevel":"houseNumber","MatchQuality":{"Country":1.0,"State":1.0,"County":1.0,"City":1.0,"District":1.0,"Street":[1.0],"HouseNumber":1.0,"PostalCode":1.0},"MatchType":"interpolated","Location":{"LocationId":"NT_hhUwwoXYhHe-rO4DoTIg.C_xA","LocationType":"point","DisplayPosition":{"Latitude":51.31362,"Longitude":0.03373},"MapView":{"TopLeft":{"Latitude":51.3147442,"Longitude":0.0319315},"BottomRight":{"Latitude":51.3124958,"Longitude":0.0355285}},"Address":{"Label":"1 Kingsmead, Westerham, TN16 3, United Kingdom","Country":"GBR","State":"England","County":"Kent","City":"Westerham","District":"Biggin Hill","Street":"Kingsmead","HouseNumber":"1","PostalCode":"TN16 3","AdditionalData":[{"value":"United Kingdom","key":"CountryName"},{"value":"England","key":"StateName"},{"value":"Kent","key":"CountyName"}]},"MapReference":{"ReferenceId":"25442311","Spot":0.15,"SideOfStreet":"right","StateId":"20248595","CountyId":"20336836","CityId":"20337438","DistrictId":"20337441","AddressId":"748900898","RoadLinkId":"82683581"}}}]}]}}