{"Response":{"MetaInfo":{"Timestamp":"2020-03-28T11:58:05.303+0000","NextPageInformation":"2"},"View":[{"_type":"SearchResultsViewType","ViewId":0,"Result":[{"Relevance":1.0,"Distance":0.0,"Direction":0.0,"MatchLevel":"district","MatchQuality":{"Country":1.0,"State":1.0,"County":1.0,"City":1.0,"District":1.0,"PostalCode":1.0},"Location":{"LocationId":"NT_3LhR3YZNl9r9t2pDkoss.C","LocationType":"point","DisplayPosition":{"Latitude":51.3208839,"Longitude":-0.1392464},"MapView":{"TopLeft":{"Latitude":51.32836,"Longitude":-0.16313},"BottomRight":{"Latitude":51.28688,"Longitude":-0.09988}},"Address":{"Label":"Coulsdon, England, United Kingdom","Country":"GBR","State":"England","County":"Surrey","City":"Coulsdon","District":"Coulsdon","PostalCode":"CR5 2","AdditionalData":[{"value":"United Kingdom","key":"CountryName"},{"value":"England","key":"StateName"},{"value":"Surrey","key":"CountyName"}]},"MapReference":{"ReferenceId":"77744072","SideOfStreet":"neither","StateId":"20248595","CountyId":"20338357","CityId":"20338397","DistrictId":"20338398"}}},{"Relevance":1.0,"Distance":8.3,"MatchLevel":"houseNumber","MatchQuality":{"Country":1.0,"State":1.0,"County":1.0,"City":1.0,"District":1.0,"Street":[1.0],"HouseNumber":1.0,"PostalCode":1.0},"MatchType":"interpolated","Location":{"LocationId":"NT_7ViMW-HZTaJXLwvfSAyh0B_ygD","LocationType":"point","DisplayPosition":{"Latitude":51.3207,"Longitude":-0.13916},"MapView":{"TopLeft":{"Latitude":51.3218242,"Longitude":-0.1409588},"BottomRight":{"Latitude":51.3195758,"Longitude":-0.1373612}},"Address":{"Label":"28 Chipstead Valley Road, Coulsdon, CR5 2RA, United Kingdom","Country":"GBR","State":"England","County":"Surrey","City":"Coulsdon","District":"Coulsdon","Street":"Chipstead Valley Road","HouseNumber":"28","PostalCode":"CR5 2RA","AdditionalData":[{"value":"United Kingdom","key":"CountryName"},{"value":"England","key":"StateName"},{"value":"Surrey","key":"CountyName"}]},"MapReference":{"ReferenceId":"1187220521","Spot":0.75,"SideOfStreet":"left","StateId":"20248595","CountyId":"20338357","CityId":"20338397","DistrictId":"20338398","AddressId":"749330514","RoadLinkId":"495880052"}}},{"Relevance":1.0,"Distance":16.3,"MatchLevel":"postalCode","MatchQuality":{"PostalCode":1.0},"MatchType":"interpolated","Location":{"LocationId":"NT_7ViMW-HZTaJXLwvfSAyh0B_ygD","LocationType":"point","DisplayPosition":{"Latitude":51.32076,"Longitude":-0.13912},"MapView":{"TopLeft":{"Latitude":51.3297532,"Longitude":-0.1535101},"BottomRight":{"Latitude":51.3117668,"Longitude":-0.1247299}},"Address":{"Label":"CR5 2RA, Coulsdon, England, United Kingdom","Country":"GBR","State":"England","County":"Surrey","City":"Coulsdon","PostalCode":"CR5 2RA","AdditionalData":[{"value":"United Kingdom","key":"CountryName"},{"value":"England","key":"StateName"},{"value":"Surrey","key":"CountyName"}]},"MapReference":{"ReferenceId":"1187220521","Spot":0.75,"SideOfStreet":"neither","StateId":"20248595","CountyId":"20338357","CityId":"20338397"}}},{"Relevance":1.0,"Distance":31.7,"MatchLevel":"houseNumber","MatchQuality":{"Country":1.0,"State":1.0,"County":1.0,"City":1.0,"District":1.0,"Street":[1.0],"HouseNumber":1.0,"PostalCode":1.0},"MatchType":"interpolated","Location":{"LocationId":"NT_7ViMW-HZTaJXLwvfSAyh0B_xID","LocationType":"point","DisplayPosition":{"Latitude":51.32083,"Longitude":-0.13872},"MapView":{"TopLeft":{"Latitude":51.3219542,"Longitude":-0.1405188},"BottomRight":{"Latitude":51.3197058,"Longitude":-0.1369212}},"Address":{"Label":"12 Chipstead Valley Road, Coulsdon, CR5 2RA, United Kingdom","Country":"GBR","State":"England","County":"Surrey","City":"Coulsdon","District":"Coulsdon","Street":"Chipstead Valley Road","HouseNumber":"12","PostalCode":"CR5 2RA","AdditionalData":[{"value":"United Kingdom","key":"CountryName"},{"value":"England","key":"StateName"},{"value":"Surrey","key":"CountyName"}]},"MapReference":{"ReferenceId":"1187220522","Spot":0.19,"SideOfStreet":"left","StateId":"20248595","CountyId":"20338357","CityId":"20338397","DistrictId":"20338398","AddressId":"749378174","RoadLinkId":"495880053"}}},{"Relevance":1.0,"Distance":36.7,"MatchLevel":"postalCode","MatchQuality":{"PostalCode":1.0},"MatchType":"interpolated","Location":{"LocationId":"NT_7ViMW-HZTaJXLwvfSAyh0B_xID","LocationType":"point","DisplayPosition":{"Latitude":51.32077,"Longitude":-0.13875},"MapView":{"TopLeft":{"Latitude":51.3297632,"Longitude":-0.1531401},"BottomRight":{"Latitude":51.3117768,"Longitude":-0.1243599}},"Address":{"Label":"CR5 2YQ, Coulsdon, England, United Kingdom","Country":"GBR","State":"England","County":"Surrey","City":"Coulsdon","PostalCode":"CR5 2YQ","AdditionalData":[{"value":"United Kingdom","key":"CountryName"},{"value":"England","key":"StateName"},{"value":"Surrey","key":"CountyName"}]},"MapReference":{"ReferenceId":"1187220522","Spot":0.19,"SideOfStreet":"neither","StateId":"20248595","CountyId":"20338357","CityId":"20338397"}}},{"Relevance":1.0,"Distance":45.9,"MatchLevel":"houseNumber","MatchQuality":{"Country":1.0,"State":1.0,"County":1.0,"City":1.0,"District":1.0,"Street":[1.0],"HouseNumber":1.0,"PostalCode":1.0},"MatchType":"interpolated","Location":{"LocationId":"NT_P4fzcU0l0L6TMH4l-KcxlD_xYjM","LocationType":"point","DisplayPosition":{"Latitude":51.32046,"Longitude":-0.13862},"MapView":{"TopLeft":{"Latitude":51.3215842,"Longitude":-0.1404187},"BottomRight":{"Latitude":51.3193358,"Longitude":-0.1368213}},"Address":{"Label":"162 Brighton Road, Coulsdon, CR5 2NE, United Kingdom","Country":"GBR","State":"England","County":"Surrey","City":"Coulsdon","District":"Coulsdon","Street":"Brighton Road","HouseNumber":"162","PostalCode":"CR5 2NE","AdditionalData":[{"value":"United Kingdom","key":"CountryName"},{"value":"England","key":"StateName"},{"value":"Surrey","key":"CountyName"}]},"MapReference":{"ReferenceId":"77744071","Spot":0.7,"SideOfStreet":"left","StateId":"20248595","CountyId":"20338357","CityId":"20338397","DistrictId":"20338398","AddressId":"749342137","RoadLinkId":"82536074"}}},{"Relevance":1.0,"Distance":62.3,"MatchLevel":"postalCode","MatchQuality":{"PostalCode":1.0},"MatchType":"interpolated","Location":{"LocationId":"NT_P4fzcU0l0L6TMH4l-KcxlD_xYjM","LocationType":"point","DisplayPosition":{"Latitude":51.32045,"Longitude":-0.13868},"MapView":{"TopLeft":{"Latitude":51.3294432,"Longitude":-0.15307},"BottomRight":{"Latitude":51.3114568,"Longitude":-0.12429}},"Address":{"Label":"CR5 2NE, Coulsdon, England, United Kingdom","Country":"GBR","State":"England","County":"Surrey","City":"Coulsdon","PostalCode":"CR5 2NE","AdditionalData":[{"value":"United Kingdom","key":"CountryName"},{"value":"England","key":"StateName"},{"value":"Surrey","key":"CountyName"}]},"MapReference":{"ReferenceId":"77744071","Spot":0.7,"SideOfStreet":"neither","StateId":"20248595","CountyId":"20338357","CityId":"20338397"}}},{"Relevance":1.0,"Distance":63.0,"MatchLevel":"houseNumber","MatchQuality":{"Country":1.0,"State":1.0,"County":1.0,"City":1.0,"District":1.0,"Street":[1.0],"HouseNumber":1.0,"PostalCode":1.0},"MatchType":"interpolated","Location":{"LocationId":"NT_1T3aF3RbTGodY9Zlb213vA_zUD","LocationType":"point","DisplayPosition":{"Latitude":51.32153,"Longitude":-0.13935},"MapView":{"TopLeft":{"Latitude":51.3226542,"Longitude":-0.1411488},"BottomRight":{"Latitude":51.3204058,"Longitude":-0.1375512}},"Address":{"Label":"35 Malcolm Road, Coulsdon, CR5 2DB, United Kingdom","Country":"GBR","State":"England","County":"Surrey","City":"Coulsdon","District":"Coulsdon North","Street":"Malcolm Road","HouseNumber":"35","PostalCode":"CR5 2DB","AdditionalData":[{"value":"United Kingdom","key":"CountryName"},{"value":"England","key":"StateName"},{"value":"Surrey","key":"CountyName"}]},"MapReference":{"ReferenceId":"25442104","Spot":0.37,"SideOfStreet":"right","StateId":"20248595","CountyId":"20338357","CityId":"20338397","DistrictId":"20338400","AddressId":"749304174","RoadLinkId":"82455380"}}},{"Relevance":1.0,"Distance":63.9,"MatchLevel":"street","MatchQuality":{"Country":1.0,"State":1.0,"County":1.0,"City":1.0,"District":1.0,"PostalCode":1.0},"Location":{"LocationId":"NT_8MGW.W0Q29pEhWZu-4II4B_l_1067290145_R","LocationType":"point","DisplayPosition":{"Latitude":51.32031,"Longitude":-0.1393},"MapView":{"TopLeft":{"Latitude":51.32032,"Longitude":-0.14005},"BottomRight":{"Latitude":51.32002,"Longitude":-0.1393}},"Address":{"Label":"Coulsdon, CR5 2, United Kingdom","Country":"GBR","State":"England","County":"Surrey","City":"Coulsdon","District":"Coulsdon","PostalCode":"CR5 2","AdditionalData":[{"value":"United Kingdom","key":"CountryName"},{"value":"England","key":"StateName"},{"value":"Surrey","key":"CountyName"}]},"MapReference":{"ReferenceId":"1067290145","Spot":0.0,"SideOfStreet":"right","StateId":"20248595","CountyId":"20338357","CityId":"20338397","DistrictId":"20338398"}}},{"Relevance":1.0,"Distance":72.9,"MatchLevel":"houseNumber","MatchQuality":{"Country":1.0,"State":1.0,"County":1.0,"City":1.0,"District":1.0,"Street":[1.0],"HouseNumber":1.0,"PostalCode":1.0},"MatchType":"interpolated","Location":{"LocationId":"NT_-RnoJhxJeTuQKjiUdpQ4RB_xQjNhB","LocationType":"point","DisplayPosition":{"Latitude":51.32107,"Longitude":-0.13801},"MapView":{"TopLeft":{"Latitude":51.3221942,"Longitude":-0.1398088},"BottomRight":{"Latitude":51.3199458,"Longitude":-0.1362112}},"Address":{"Label":"146a Brighton Road, Coulsdon, CR5 2, United Kingdom","Country":"GBR","State":"England","County":"Surrey","City":"Coulsdon","District":"Coulsdon North","Street":"Brighton Road","HouseNumber":"146a","PostalCode":"CR5 2","AdditionalData":[{"value":"United Kingdom","key":"CountryName"},{"value":"England","key":"StateName"},{"value":"Surrey","key":"CountyName"}]},"MapReference":{"ReferenceId":"25442112","Spot":0.2,"SideOfStreet":"left","StateId":"20248595","CountyId":"20338357","CityId":"20338397","DistrictId":"20338400","AddressId":"748697317","RoadLinkId":"82463738"}}}]}]}}