{"Response":{"MetaInfo":{"Timestamp":"2020-03-28T09:53:13.920+0000","NextPageInformation":"2"},"View":[{"_type":"SearchResultsViewType","ViewId":0,"Result":[{"Relevance":1.0,"Distance":0.0,"Direction":0.0,"MatchLevel":"district","MatchQuality":{"Country":1.0,"State":1.0,"County":1.0,"City":1.0,"District":1.0,"PostalCode":1.0},"Location":{"LocationId":"NT_pC4lAu7zbGlCv-LNeYBXpB","LocationType":"point","DisplayPosition":{"Latitude":51.378968,"Longitude":-2.3607956},"MapView":{"TopLeft":{"Latitude":51.40918,"Longitude":-2.41116},"BottomRight":{"Latitude":51.34861,"Longitude":-2.3158}},"Address":{"Label":"Bath, England, United Kingdom","Country":"GBR","State":"England","County":"Avon","City":"Bath","District":"Bath","PostalCode":"BA1 2","AdditionalData":[{"value":"United Kingdom","key":"CountryName"},{"value":"England","key":"StateName"},{"value":"Avon","key":"CountyName"}]},"MapReference":{"ReferenceId":"779111400","SideOfStreet":"neither","StateId":"20248595","CountyId":"20352323","CityId":"20352336","DistrictId":"20352337"}}},{"Relevance":1.0,"Distance":1.1,"MatchLevel":"houseNumber","MatchQuality":{"Country":1.0,"State":1.0,"County":1.0,"City":1.0,"District":1.0,"Street":[1.0],"HouseNumber":1.0,"PostalCode":1.0},"MatchType":"interpolated","Location":{"LocationId":"NT_B0acKN-JUSnjpZsF66aIUA_l_26756790_L_yAD","LocationType":"point","DisplayPosition":{"Latitude":51.3790933,"Longitude":-2.360681},"MapView":{"TopLeft":{"Latitude":51.3802175,"Longitude":-2.362482},"BottomRight":{"Latitude":51.3779692,"Longitude":-2.3588799}},"Address":{"Label":"20 St James's Parade, Bath, BA1 1UL, United Kingdom","Country":"GBR","State":"England","County":"Avon","City":"Bath","District":"Bath","Street":"St James's Parade","HouseNumber":"20","PostalCode":"BA1 1UL","AdditionalData":[{"value":"United Kingdom","key":"CountryName"},{"value":"England","key":"StateName"},{"value":"Avon","key":"CountyName"}]},"MapReference":{"ReferenceId":"26756790","Spot":0.36,"SideOfStreet":"left","StateId":"20248595","CountyId":"20352323","CityId":"20352336","DistrictId":"20352337"}}},{"Relevance":1.0,"Distance":10.2,"MatchLevel":"street","MatchQuality":{"Country":1.0,"State":1.0,"County":1.0,"City":1.0,"District":1.0,"Street":[1.0],"PostalCode":1.0},"Location":{"LocationId":"NT_T87oWoYmhz.opEThqSk0ZD_l_26756789_R","LocationType":"point","DisplayPosition":{"Latitude":51.3788764,"Longitude":-2.3608026},"MapView":{"TopLeft":{"Latitude":51.3789,"Longitude":-2.36111},"BottomRight":{"Latitude":51.37885,"Longitude":-2.36053}},"Address":{"Label":"Corn Street, Bath, BA1 1, United Kingdom","Country":"GBR","State":"England","County":"Avon","City":"Bath","District":"Bath","Street":"Corn Street","PostalCode":"BA1 1","AdditionalData":[{"value":"United Kingdom","key":"CountryName"},{"value":"England","key":"StateName"},{"value":"Avon","key":"CountyName"}]},"MapReference":{"ReferenceId":"26756789","Spot":0.47,"SideOfStreet":"right","StateId":"20248595","CountyId":"20352323","CityId":"20352336","DistrictId":"20352337"}}},{"Relevance":1.0,"Distance":22.6,"MatchLevel":"street","MatchQuality":{"Country":1.0,"State":1.0,"County":1.0,"City":1.0,"District":1.0,"Street":[1.0],"PostalCode":1.0},"Location":{"LocationId":"NT_hgD5mu9DQeMbof3CDfsZGA_l_26540188_R","LocationType":"point","DisplayPosition":{"Latitude":51.37885,"Longitude":-2.36053},"MapView":{"TopLeft":{"Latitude":51.37885,"Longitude":-2.36053},"BottomRight":{"Latitude":51.37881,"Longitude":-2.3603}},"Address":{"Label":"A367, Bath, BA1 1, United Kingdom","Country":"GBR","State":"England","County":"Avon","City":"Bath","District":"Bath","Street":"A367","PostalCode":"BA1 1","AdditionalData":[{"value":"United Kingdom","key":"CountryName"},{"value":"England","key":"StateName"},{"value":"Avon","key":"CountyName"}]},"MapReference":{"ReferenceId":"26540188","Spot":1.0,"SideOfStreet":"right","StateId":"20248595","CountyId":"20352323","CityId":"20352336","DistrictId":"20352337"}}},{"Relevance":1.0,"Distance":22.6,"MatchLevel":"street","MatchQuality":{"Country":1.0,"State":1.0,"County":1.0,"City":1.0,"District":1.0,"PostalCode":1.0},"Location":{"LocationId":"NT_pVN.sUUpAlyQmi.aRU05vB_l_26540186_L","LocationType":"point","DisplayPosition":{"Latitude":51.37885,"Longitude":-2.36053},"MapView":{"TopLeft":{"Latitude":51.37892,"Longitude":-2.36053},"BottomRight":{"Latitude":51.37885,"Longitude":-2.36045}},"Address":{"Label":"Bath, BA1 1, United Kingdom","Country":"GBR","State":"England","County":"Avon","City":"Bath","District":"Bath","PostalCode":"BA1 1","AdditionalData":[{"value":"United Kingdom","key":"CountryName"},{"value":"England","key":"StateName"},{"value":"Avon","key":"CountyName"}]},"MapReference":{"ReferenceId":"26540186","Spot":0.0,"SideOfStreet":"left","StateId":"20248595","CountyId":"20352323","CityId":"20352336","DistrictId":"20352337"}}},{"Relevance":1.0,"Distance":23.1,"MatchLevel":"street","MatchQuality":{"Country":1.0,"State":1.0,"County":1.0,"City":1.0,"District":1.0,"Street":[1.0],"PostalCode":1.0},"Location":{"LocationId":"NT_T87oWoYmhz.opEThqSk0ZD_l_850474821_R","LocationType":"point","DisplayPosition":{"Latitude":51.3789,"Longitude":-2.36111},"MapView":{"TopLeft":{"Latitude":51.3789,"Longitude":-2.36125},"BottomRight":{"Latitude":51.37854,"Longitude":-2.36111}},"Address":{"Label":"Ambury, Bath, BA1 1, United Kingdom","Country":"GBR","State":"England","County":"Avon","City":"Bath","District":"Bath","Street":"Ambury","PostalCode":"BA1 1","AdditionalData":[{"value":"United Kingdom","key":"CountryName"},{"value":"England","key":"StateName"},{"value":"Avon","key":"CountyName"}]},"MapReference":{"ReferenceId":"850474821","Spot":1.0,"SideOfStreet":"right","StateId":"20248595","CountyId":"20352323","CityId":"20352336","DistrictId":"20352337"}}},{"Relevance":1.0,"Distance":24.6,"MatchLevel":"street","MatchQuality":{"Country":1.0,"State":1.0,"County":1.0,"City":1.0,"District":1.0,"Street":[1.0],"PostalCode":1.0},"Location":{"LocationId":"NT_aS-UNv3vKM6ilBhwQVO3KD_l_26540179_L","LocationType":"point","DisplayPosition":{"Latitude":51.37892,"Longitude":-2.36045},"MapView":{"TopLeft":{"Latitude":51.37946,"Longitude":-2.36045},"BottomRight":{"Latitude":51.37892,"Longitude":-2.36028}},"Address":{"Label":"Wine Street, Bath, BA1 1, United Kingdom","Country":"GBR","State":"England","County":"Avon","City":"Bath","District":"Bath","Street":"Wine Street","PostalCode":"BA1 1","AdditionalData":[{"value":"United Kingdom","key":"CountryName"},{"value":"England","key":"StateName"},{"value":"Avon","key":"CountyName"}]},"MapReference":{"ReferenceId":"26540179","Spot":0.0,"SideOfStreet":"left","StateId":"20248595","CountyId":"20352323","CityId":"20352336","DistrictId":"20352337"}}},{"Relevance":1.0,"Distance":29.1,"MatchLevel":"houseNumber","MatchQuality":{"Country":1.0,"State":1.0,"County":1.0,"City":1.0,"District":1.0,"Street":[1.0],"HouseNumber":1.0,"PostalCode":1.0},"MatchType":"interpolated","Location":{"LocationId":"NT_T87oWoYmhz.opEThqSk0ZD_l_26737815_R_zQD","LocationType":"point","DisplayPosition":{"Latitude":51.3789228,"Longitude":-2.3612181},"MapView":{"TopLeft":{"Latitude":51.3800469,"Longitude":-2.3630191},"BottomRight":{"Latitude":51.3777986,"Longitude":-2.359417}},"Address":{"Label":"34 Corn Street, Bath, BA1 1UF, United Kingdom","Country":"GBR","State":"England","County":"Avon","City":"Bath","District":"Bath","Street":"Corn Street","HouseNumber":"34","PostalCode":"BA1 1UF","AdditionalData":[{"value":"United Kingdom","key":"CountryName"},{"value":"England","key":"StateName"},{"value":"Avon","key":"CountyName"}]},"MapReference":{"ReferenceId":"26737815","Spot":0.57,"SideOfStreet":"right","StateId":"20248595","CountyId":"20352323","CityId":"20352336","DistrictId":"20352337"}}},{"Relevance":1.0,"Distance":31.3,"MatchLevel":"houseNumber","MatchQuality":{"Country":1.0,"State":1.0,"County":1.0,"City":1.0,"District":1.0,"Street":[1.0],"HouseNumber":1.0,"PostalCode":1.0},"MatchType":"interpolated","Location":{"LocationId":"NT_B0acKN-JUSnjpZsF66aIUA_l_26540187_R_zAD","LocationType":"point","DisplayPosition":{"Latitude":51.3788652,"Longitude":-2.3603753},"MapView":{"TopLeft":{"Latitude":51.3799894,"Longitude":-2.3621763},"BottomRight":{"Latitude":51.3777411,"Longitude":-2.3585742}},"Address":{"Label":"30 St James's Parade, Bath, BA1 1UJ, United Kingdom","Country":"GBR","State":"England","County":"Avon","City":"Bath","District":"Bath","Street":"St James's Parade","HouseNumber":"30","PostalCode":"BA1 1UJ","AdditionalData":[{"value":"United Kingdom","key":"CountryName"},{"value":"England","key":"StateName"},{"value":"Avon","key":"CountyName"}]},"MapReference":{"ReferenceId":"26540187","Spot":0.5,"SideOfStreet":"right","StateId":"20248595","CountyId":"20352323","CityId":"20352336","DistrictId":"20352337"}}},{"Relevance":1.0,"Distance":31.8,"MatchLevel":"postalCode","MatchQuality":{"PostalCode":1.0},"MatchType":"interpolated","Location":{"LocationId":"NT_B0acKN-JUSnjpZsF66aIUA_l_26540187_R_zAD","LocationType":"point","DisplayPosition":{"Latitude":51.37894,"Longitude":-2.36034},"MapView":{"TopLeft":{"Latitude":51.3879332,"Longitude":-2.3747484},"BottomRight":{"Latitude":51.3699468,"Longitude":-2.3459316}},"Address":{"Label":"BA1 1UJ, Bath, England, United Kingdom","Country":"GBR","State":"England","County":"Avon","City":"Bath","PostalCode":"BA1 1UJ","AdditionalData":[{"value":"United Kingdom","key":"CountryName"},{"value":"England","key":"StateName"},{"value":"Avon","key":"CountyName"}]},"MapReference":{"ReferenceId":"26540187","Spot":0.5,"SideOfStreet":"neither","StateId":"20248595","CountyId":"20352323","CityId":"20352336"}}}]}]}}