{"Response":{"MetaInfo":{"Timestamp":"2020-03-28T10:08:49.721+0000","NextPageInformation":"2"},"View":[{"_type":"SearchResultsViewType","ViewId":0,"Result":[{"Relevance":1.0,"Distance":0.0,"Direction":0.0,"MatchLevel":"district","MatchQuality":{"Country":1.0,"State":1.0,"County":1.0,"City":1.0,"District":1.0,"PostalCode":1.0},"Location":{"LocationId":"NT_9U30jff2vKPYzlfjYnRx1A","LocationType":"point","DisplayPosition":{"Latitude":51.3528067,"Longitude":-1.9878109},"MapView":{"TopLeft":{"Latitude":51.37107,"Longitude":-2.02318},"BottomRight":{"Latitude":51.33656,"Longitude":-1.95833}},"Address":{"Label":"Devizes, England, United Kingdom","Country":"GBR","State":"England","County":"Wiltshire","City":"Devizes","District":"Devizes","PostalCode":"SN10 1","AdditionalData":[{"value":"United Kingdom","key":"CountryName"},{"value":"England","key":"StateName"},{"value":"Wiltshire","key":"CountyName"}]},"MapReference":{"ReferenceId":"906563320","SideOfStreet":"neither","StateId":"20248595","CountyId":"20338966","CityId":"20351916","DistrictId":"20351917"}}},{"Relevance":1.0,"Distance":0.6,"MatchLevel":"landmark","MatchQuality":{"Country":1.0,"State":1.0,"County":1.0,"City":1.0,"District":1.0,"PostalCode":1.0,"Name":1.0},"Location":{"LocationId":"NT_1Z0Dlgtimjz0Op4MOMDSwB","LocationType":"industrialComplex","Name":"Estcourt Street Industrial Estate","DisplayPosition":{"Latitude":51.35261,"Longitude":-1.98884},"MapView":{"TopLeft":{"Latitude":51.35347,"Longitude":-1.98988},"BottomRight":{"Latitude":51.35174,"Longitude":-1.98731}},"Address":{"Label":"Devizes, SN10 1, United Kingdom","Country":"GBR","State":"England","County":"Wiltshire","City":"Devizes","District":"Devizes","PostalCode":"SN10 1","AdditionalData":[{"value":"United Kingdom","key":"CountryName"},{"value":"England","key":"StateName"},{"value":"Wiltshire","key":"CountyName"}]},"MapReference":{"StateId":"20248595","CountyId":"20338966","CityId":"20351916","DistrictId":"20351917","PlaceId":"1407234751"}}},{"Relevance":1.0,"Distance":26.0,"MatchLevel":"houseNumber","MatchQuality":{"Country":1.0,"State":1.0,"County":1.0,"City":1.0,"District":1.0,"Street":[1.0],"HouseNumber":1.0,"PostalCode":1.0},"MatchType":"interpolated","Location":{"LocationId":"NT_HwoXlY-WvE46kHvpuic-9B_l_577367409_L_ykD","LocationType":"point","DisplayPosition":{"Latitude":51.3524591,"Longitude":-1.9876272},"MapView":{"TopLeft":{"Latitude":51.3535833,"Longitude":-1.9894272},"BottomRight":{"Latitude":51.351335,"Longitude":-1.9858272}},"Address":{"Label":"29 Estcourt Street, Devizes, SN10 1, United Kingdom","Country":"GBR","State":"England","County":"Wiltshire","City":"Devizes","District":"Devizes","Street":"Estcourt Street","HouseNumber":"29","PostalCode":"SN10 1","AdditionalData":[{"value":"United Kingdom","key":"CountryName"},{"value":"England","key":"StateName"},{"value":"Wiltshire","key":"CountyName"}]},"MapReference":{"ReferenceId":"577367409","Spot":0.45,"SideOfStreet":"left","StateId":"20248595","CountyId":"20338966","CityId":"20351916","DistrictId":"20351917"}}},{"Relevance":1.0,"Distance":29.7,"MatchLevel":"street","MatchQuality":{"Country":1.0,"State":1.0,"County":1.0,"City":1.0,"District":1.0,"PostalCode":1.0},"Location":{"LocationId":"NT_Qhg.t1APRIKUdDxVsxHX0D_l_802851366_R","LocationType":"point","DisplayPosition":{"Latitude":51.35273,"Longitude":-1.98822},"MapView":{"TopLeft":{"Latitude":51.35343,"Longitude":-1.98857},"BottomRight":{"Latitude":51.35273,"Longitude":-1.98822}},"Address":{"Label":"Devizes, SN10 1, United Kingdom","Country":"GBR","State":"England","County":"Wiltshire","City":"Devizes","District":"Devizes","PostalCode":"SN10 1","AdditionalData":[{"value":"United Kingdom","key":"CountryName"},{"value":"England","key":"StateName"},{"value":"Wiltshire","key":"CountyName"}]},"MapReference":{"ReferenceId":"802851366","Spot":0.0,"SideOfStreet":"right","StateId":"20248595","CountyId":"20338966","CityId":"20351916","DistrictId":"20351917"}}},{"Relevance":1.0,"Distance":31.4,"MatchLevel":"street","MatchQuality":{"Country":1.0,"State":1.0,"County":1.0,"City":1.0,"District":1.0,"PostalCode":1.0},"Location":{"LocationId":"NT_Qhg.t1APRIKUdDxVsxHX0D_l_577367410_R","LocationType":"point","DisplayPosition":{"Latitude":51.352651,"Longitude":-1.9881873},"MapView":{"TopLeft":{"Latitude":51.35273,"Longitude":-1.98822},"BottomRight":{"Latitude":51.35244,"Longitude":-1.9881}},"Address":{"Label":"Devizes, SN10 1, United Kingdom","Country":"GBR","State":"England","County":"Wiltshire","City":"Devizes","District":"Devizes","PostalCode":"SN10 1","AdditionalData":[{"value":"United Kingdom","key":"CountryName"},{"value":"England","key":"StateName"},{"value":"Wiltshire","key":"CountyName"}]},"MapReference":{"ReferenceId":"577367410","Spot":0.73,"SideOfStreet":"right","StateId":"20248595","CountyId":"20338966","CityId":"20351916","DistrictId":"20351917"}}},{"Relevance":1.0,"Distance":36.9,"MatchLevel":"street","MatchQuality":{"Country":1.0,"State":1.0,"County":1.0,"City":1.0,"District":1.0,"Street":[1.0],"PostalCode":1.0},"Location":{"LocationId":"NT_ufSuHa7ezGsZaQ3dcfz9FB_l_773922335_L","LocationType":"point","DisplayPosition":{"Latitude":51.3528067,"Longitude":-1.98728},"MapView":{"TopLeft":{"Latitude":51.35306,"Longitude":-1.98728},"BottomRight":{"Latitude":51.3527,"Longitude":-1.98705}},"Address":{"Label":"Estcort Crescent, Devizes, SN10 1, United Kingdom","Country":"GBR","State":"England","County":"Wiltshire","City":"Devizes","District":"Devizes","Street":"Estcort Crescent","PostalCode":"SN10 1","AdditionalData":[{"value":"United Kingdom","key":"CountryName"},{"value":"England","key":"StateName"},{"value":"Wiltshire","key":"CountyName"}]},"MapReference":{"ReferenceId":"773922335","Spot":0.23,"SideOfStreet":"left","StateId":"20248595","CountyId":"20338966","CityId":"20351916","DistrictId":"20351917"}}},{"Relevance":1.0,"Distance":38.7,"MatchLevel":"street","MatchQuality":{"Country":1.0,"State":1.0,"County":1.0,"City":1.0,"District":1.0,"Street":[1.0],"PostalCode":1.0},"Location":{"LocationId":"NT_ufSuHa7ezGsZaQ3dcfz9FB_l_577367412_L","LocationType":"point","DisplayPosition":{"Latitude":51.3527,"Longitude":-1.98728},"MapView":{"TopLeft":{"Latitude":51.3527,"Longitude":-1.98728},"BottomRight":{"Latitude":51.35256,"Longitude":-1.98723}},"Address":{"Label":"Estcort Crescent, Devizes, SN10 1, United Kingdom","Country":"GBR","State":"England","County":"Wiltshire","City":"Devizes","District":"Devizes","Street":"Estcort Crescent","PostalCode":"SN10 1","AdditionalData":[{"value":"United Kingdom","key":"CountryName"},{"value":"England","key":"StateName"},{"value":"Wiltshire","key":"CountyName"}]},"MapReference":{"ReferenceId":"577367412","Spot":1.0,"SideOfStreet":"left","StateId":"20248595","CountyId":"20338966","CityId":"20351916","DistrictId":"20351917"}}},{"Relevance":1.0,"Distance":40.9,"MatchLevel":"landmark","MatchQuality":{"Country":1.0,"State":1.0,"County":1.0,"City":1.0,"District":1.0,"Street":[1.0],"PostalCode":1.0,"Name":1.0},"Location":{"LocationId":"NT_KNMPK8hoNNdBKzbqwYyzkC_p_ZOjFY92be.eZBBcAlvr.KC","LocationType":"park","Name":"Small Green","DisplayPosition":{"Latitude":51.35157,"Longitude":-1.9889},"MapView":{"TopLeft":{"Latitude":51.35283,"Longitude":-1.98916},"BottomRight":{"Latitude":51.35132,"Longitude":-1.98564}},"Address":{"Label":"Nursteed Road, Devizes, SN10 3, United Kingdom","Country":"GBR","State":"England","County":"Wiltshire","City":"Devizes","District":"Devizes","Street":"Nursteed Road","PostalCode":"SN10 3","AdditionalData":[{"value":"United Kingdom","key":"CountryName"},{"value":"England","key":"StateName"},{"value":"Wiltshire","key":"CountyName"}]},"MapReference":{"StateId":"20248595","CountyId":"20338966","CityId":"20351916","DistrictId":"20351917","PlaceId":"18114199"}}},{"Relevance":1.0,"Distance":43.0,"MatchLevel":"street","MatchQuality":{"Country":1.0,"State":1.0,"County":1.0,"City":1.0,"District":1.0,"PostalCode":1.0},"Location":{"LocationId":"NT_Qhg.t1APRIKUdDxVsxHX0D_l_1207330568_R","LocationType":"point","DisplayPosition":{"Latitude":51.3524377,"Longitude":-1.9879954},"MapView":{"TopLeft":{"Latitude":51.35245,"Longitude":-1.9881},"BottomRight":{"Latitude":51.35239,"Longitude":-1.98795}},"Address":{"Label":"Devizes, SN10 1, United Kingdom","Country":"GBR","State":"England","County":"Wiltshire","City":"Devizes","District":"Devizes","PostalCode":"SN10 1","AdditionalData":[{"value":"United Kingdom","key":"CountryName"},{"value":"England","key":"StateName"},{"value":"Wiltshire","key":"CountyName"}]},"MapReference":{"ReferenceId":"1207330568","Spot":0.4,"SideOfStreet":"right","StateId":"20248595","CountyId":"20338966","CityId":"20351916","DistrictId":"20351917"}}},{"Relevance":1.0,"Distance":45.4,"MatchLevel":"street","MatchQuality":{"Country":1.0,"State":1.0,"County":1.0,"City":1.0,"District":1.0,"PostalCode":1.0},"Location":{"LocationId":"NT_Qhg.t1APRIKUdDxVsxHX0D_l_1207330569_L","LocationType":"point","DisplayPosition":{"Latitude":51.35244,"Longitude":-1.9881},"MapView":{"TopLeft":{"Latitude":51.35244,"Longitude":-1.98815},"BottomRight":{"Latitude":51.35236,"Longitude":-1.9881}},"Address":{"Label":"Devizes, SN10 1, United Kingdom","Country":"GBR","State":"England","County":"Wiltshire","City":"Devizes","District":"Devizes","PostalCode":"SN10 1","AdditionalData":[{"value":"United Kingdom","key":"CountryName"},{"value":"England","key":"StateName"},{"value":"Wiltshire","key":"CountyName"}]},"MapReference":{"ReferenceId":"1207330569","Spot":1.0,"SideOfStreet":"left","StateId":"20248595","CountyId":"20338966","CityId":"20351916","DistrictId":"20351917"}}}]}]}}