{"Response":{"MetaInfo":{"Timestamp":"2020-03-28T10:02:31.036+0000","NextPageInformation":"2"},"View":[{"_type":"SearchResultsViewType","ViewId":0,"Result":[{"Relevance":1.0,"Distance":0.0,"Direction":0.0,"MatchLevel":"district","MatchQuality":{"Country":1.0,"State":1.0,"County":1.0,"City":1.0,"District":1.0,"PostalCode":1.0},"Location":{"LocationId":"NT_yInALOOT.PZOeGz2AhQZNC","LocationType":"point","DisplayPosition":{"Latitude":51.3555704,"Longitude":11.0992542},"MapView":{"TopLeft":{"Latitude":51.36247,"Longitude":11.08551},"BottomRight":{"Latitude":51.34732,"Longitude":11.11952}},"Address":{"Label":"Bad Frankenhausen/Kyffhäuser, Thüringen, Deutschland","Country":"DEU","State":"Thüringen","County":"Kyffhäuserkreis","City":"Bad Frankenhausen/Kyffhäuser","District":"Bad Frankenhausen/Kyffhäuser","PostalCode":"06567","AdditionalData":[{"value":"Deutschland","key":"CountryName"},{"value":"Thüringen","key":"StateName"},{"value":"Kyffhäuserkreis","key":"CountyName"}]},"MapReference":{"ReferenceId":"1221243610","SideOfStreet":"neither","CountryId":"20147700","StateId":"20196974","CountyId":"20197683","CityId":"20197711","DistrictId":"20197713"}}},{"Relevance":1.0,"Distance":10.7,"MatchLevel":"houseNumber","MatchQuality":{"Country":1.0,"State":1.0,"County":1.0,"City":1.0,"District":1.0,"Street":[1.0],"HouseNumber":1.0,"PostalCode":1.0},"MatchType":"interpolated","Location":{"LocationId":"NT_bNEUgAhUFxTUChN-ZON.YC_xEE","LocationType":"point","DisplayPosition":{"Latitude":51.35545,"Longitude":11.09912},"MapView":{"TopLeft":{"Latitude":51.3565742,"Longitude":11.0973199},"BottomRight":{"Latitude":51.3543258,"Longitude":11.1009201}},"Address":{"Label":"Quergasse 1A, 06567 Bad Frankenhausen/Kyffhäuser, Deutschland","Country":"DEU","State":"Thüringen","County":"Kyffhäuserkreis","City":"Bad Frankenhausen/Kyffhäuser","District":"Bad Frankenhausen/Kyffhäuser","Street":"Quergasse","HouseNumber":"1A","PostalCode":"06567","AdditionalData":[{"value":"Deutschland","key":"CountryName"},{"value":"Thüringen","key":"StateName"},{"value":"Kyffhäuserkreis","key":"CountyName"}]},"MapReference":{"ReferenceId":"547990295","Spot":0.25,"SideOfStreet":"right","CountryId":"20147700","StateId":"20196974","CountyId":"20197683","CityId":"20197711","DistrictId":"20197713","AddressId":"189216053","RoadLinkId":"39982258"}}},{"Relevance":1.0,"Distance":22.4,"MatchLevel":"houseNumber","MatchQuality":{"Country":1.0,"State":1.0,"County":1.0,"City":1.0,"District":1.0,"Street":[1.0],"HouseNumber":1.0,"PostalCode":1.0},"MatchType":"interpolated","Location":{"LocationId":"NT_bNEUgAhUFxTUChN-ZON.YC_xA","LocationType":"point","DisplayPosition":{"Latitude":51.35538,"Longitude":11.09947},"MapView":{"TopLeft":{"Latitude":51.3565042,"Longitude":11.0976699},"BottomRight":{"Latitude":51.3542558,"Longitude":11.1012701}},"Address":{"Label":"Quergasse 1, 06567 Bad Frankenhausen/Kyffhäuser, Deutschland","Country":"DEU","State":"Thüringen","County":"Kyffhäuserkreis","City":"Bad Frankenhausen/Kyffhäuser","District":"Bad Frankenhausen/Kyffhäuser","Street":"Quergasse","HouseNumber":"1","PostalCode":"06567","AdditionalData":[{"value":"Deutschland","key":"CountryName"},{"value":"Thüringen","key":"StateName"},{"value":"Kyffhäuserkreis","key":"CountyName"}]},"MapReference":{"ReferenceId":"547990283","Spot":0.72,"SideOfStreet":"right","CountryId":"20147700","StateId":"20196974","CountyId":"20197683","CityId":"20197711","DistrictId":"20197713","AddressId":"189283824","RoadLinkId":"39590185"}}},{"Relevance":1.0,"Distance":28.8,"MatchLevel":"houseNumber","MatchQuality":{"Country":1.0,"State":1.0,"County":1.0,"City":1.0,"District":1.0,"Street":[1.0],"HouseNumber":1.0,"PostalCode":1.0},"MatchType":"interpolated","Location":{"LocationId":"NT_6meZwrPZeluBDfomIN6JLC_xcD","LocationType":"point","DisplayPosition":{"Latitude":51.35576,"Longitude":11.09875},"MapView":{"TopLeft":{"Latitude":51.3568842,"Longitude":11.0969499},"BottomRight":{"Latitude":51.3546358,"Longitude":11.1005501}},"Address":{"Label":"Klosterstraße 17, 06567 Bad Frankenhausen/Kyffhäuser, Deutschland","Country":"DEU","State":"Thüringen","County":"Kyffhäuserkreis","City":"Bad Frankenhausen/Kyffhäuser","District":"Bad Frankenhausen/Kyffhäuser","Street":"Klosterstraße","HouseNumber":"17","PostalCode":"06567","AdditionalData":[{"value":"Deutschland","key":"CountryName"},{"value":"Thüringen","key":"StateName"},{"value":"Kyffhäuserkreis","key":"CountyName"}]},"MapReference":{"ReferenceId":"547990304","Spot":0.19,"SideOfStreet":"right","CountryId":"20147700","StateId":"20196974","CountyId":"20197683","CityId":"20197711","DistrictId":"20197713","AddressId":"189527007","RoadLinkId":"39675747"}}},{"Relevance":1.0,"Distance":37.7,"MatchLevel":"houseNumber","MatchQuality":{"Country":1.0,"State":1.0,"County":1.0,"City":1.0,"District":1.0,"Street":[1.0],"HouseNumber":1.0,"PostalCode":1.0},"MatchType":"interpolated","Location":{"LocationId":"NT_6meZwrPZeluBDfomIN6JLC_yUD","LocationType":"point","DisplayPosition":{"Latitude":51.35545,"Longitude":11.09863},"MapView":{"TopLeft":{"Latitude":51.3565742,"Longitude":11.0968299},"BottomRight":{"Latitude":51.3543258,"Longitude":11.1004301}},"Address":{"Label":"Klosterstraße 25, 06567 Bad Frankenhausen/Kyffhäuser, Deutschland","Country":"DEU","State":"Thüringen","County":"Kyffhäuserkreis","City":"Bad Frankenhausen/Kyffhäuser","District":"Bad Frankenhausen/Kyffhäuser","Street":"Klosterstraße","HouseNumber":"25","PostalCode":"06567","AdditionalData":[{"value":"Deutschland","key":"CountryName"},{"value":"Thüringen","key":"StateName"},{"value":"Kyffhäuserkreis","key":"CountyName"}]},"MapReference":{"ReferenceId":"547990303","Spot":0.9,"SideOfStreet":"right","CountryId":"20147700","StateId":"20196974","CountyId":"20197683","CityId":"20197711","DistrictId":"20197713","AddressId":"189579389","RoadLinkId":"40078376"}}},{"Relevance":1.0,"Distance":51.9,"MatchLevel":"houseNumber","MatchQuality":{"Country":1.0,"State":1.0,"County":1.0,"City":1.0,"District":1.0,"Street":[1.0],"HouseNumber":1.0,"PostalCode":1.0},"MatchType":"interpolated","Location":{"LocationId":"NT_llp1eIJy6KDRT0lLpcizxA_xAD","LocationType":"point","DisplayPosition":{"Latitude":51.35535,"Longitude":11.10001},"MapView":{"TopLeft":{"Latitude":51.3564742,"Longitude":11.0982099},"BottomRight":{"Latitude":51.3542258,"Longitude":11.1018101}},"Address":{"Label":"Ratstraße 10, 06567 Bad Frankenhausen/Kyffhäuser, Deutschland","Country":"DEU","State":"Thüringen","County":"Kyffhäuserkreis","City":"Bad Frankenhausen/Kyffhäuser","District":"Bad Frankenhausen/Kyffhäuser","Street":"Ratstraße","HouseNumber":"10","PostalCode":"06567","AdditionalData":[{"value":"Deutschland","key":"CountryName"},{"value":"Thüringen","key":"StateName"},{"value":"Kyffhäuserkreis","key":"CountyName"}]},"MapReference":{"ReferenceId":"547990265","Spot":0.24,"SideOfStreet":"left","CountryId":"20147700","StateId":"20196974","CountyId":"20197683","CityId":"20197711","DistrictId":"20197713","AddressId":"189633627","RoadLinkId":"40030069"}}},{"Relevance":1.0,"Distance":54.6,"MatchLevel":"houseNumber","MatchQuality":{"Country":1.0,"State":1.0,"County":1.0,"City":1.0,"District":1.0,"Street":[1.0],"HouseNumber":1.0,"PostalCode":1.0},"MatchType":"interpolated","Location":{"LocationId":"NT_llp1eIJy6KDRT0lLpcizxA_xID","LocationType":"point","DisplayPosition":{"Latitude":51.3552,"Longitude":11.09994},"MapView":{"TopLeft":{"Latitude":51.3563242,"Longitude":11.0981399},"BottomRight":{"Latitude":51.3540758,"Longitude":11.1017401}},"Address":{"Label":"Ratstraße 12, 06567 Bad Frankenhausen/Kyffhäuser, Deutschland","Country":"DEU","State":"Thüringen","County":"Kyffhäuserkreis","City":"Bad Frankenhausen/Kyffhäuser","District":"Bad Frankenhausen/Kyffhäuser","Street":"Ratstraße","HouseNumber":"12","PostalCode":"06567","AdditionalData":[{"value":"Deutschland","key":"CountryName"},{"value":"Thüringen","key":"StateName"},{"value":"Kyffhäuserkreis","key":"CountyName"}]},"MapReference":{"ReferenceId":"547990271","Spot":0.49,"SideOfStreet":"left","CountryId":"20147700","StateId":"20196974","CountyId":"20197683","CityId":"20197711","DistrictId":"20197713","AddressId":"189564434","RoadLinkId":"39794348"}}},{"Relevance":1.0,"Distance":58.2,"MatchLevel":"street","MatchQuality":{"Country":1.0,"State":1.0,"County":1.0,"City":1.0,"District":1.0,"Street":[1.0],"PostalCode":1.0},"Location":{"LocationId":"NT_j-rjcatOXbUbTPxsEYtS6A_l_547990266_L","LocationType":"point","DisplayPosition":{"Latitude":51.35553,"Longitude":11.10009},"MapView":{"TopLeft":{"Latitude":51.35553,"Longitude":11.10009},"BottomRight":{"Latitude":51.35547,"Longitude":11.10094}},"Address":{"Label":"Markt, 06567 Bad Frankenhausen/Kyffhäuser, Deutschland","Country":"DEU","State":"Thüringen","County":"Kyffhäuserkreis","City":"Bad Frankenhausen/Kyffhäuser","District":"Bad Frankenhausen/Kyffhäuser","Street":"Markt","PostalCode":"06567","AdditionalData":[{"value":"Deutschland","key":"CountryName"},{"value":"Thüringen","key":"StateName"},{"value":"Kyffhäuserkreis","key":"CountyName"}]},"MapReference":{"ReferenceId":"547990266","Spot":1.0,"SideOfStreet":"left","CountryId":"20147700","StateId":"20196974","CountyId":"20197683","CityId":"20197711","DistrictId":"20197713"}}},{"Relevance":1.0,"Distance":66.4,"MatchLevel":"houseNumber","MatchQuality":{"Country":1.0,"State":1.0,"County":1.0,"City":1.0,"District":1.0,"Street":[1.0],"HouseNumber":1.0,"PostalCode":1.0},"MatchType":"interpolated","Location":{"LocationId":"NT_llp1eIJy6KDRT0lLpcizxA_xYD","LocationType":"point","DisplayPosition":{"Latitude":51.35503,"Longitude":11.09985},"MapView":{"TopLeft":{"Latitude":51.3561542,"Longitude":11.0980499},"BottomRight":{"Latitude":51.3539058,"Longitude":11.1016501}},"Address":{"Label":"Ratstraße 16, 06567 Bad Frankenhausen/Kyffhäuser, Deutschland","Country":"DEU","State":"Thüringen","County":"Kyffhäuserkreis","City":"Bad Frankenhausen/Kyffhäuser","District":"Bad Frankenhausen/Kyffhäuser","Street":"Ratstraße","HouseNumber":"16","PostalCode":"06567","AdditionalData":[{"value":"Deutschland","key":"CountryName"},{"value":"Thüringen","key":"StateName"},{"value":"Kyffhäuserkreis","key":"CountyName"}]},"MapReference":{"ReferenceId":"547990276","Spot":0.89,"SideOfStreet":"left","CountryId":"20147700","StateId":"20196974","CountyId":"20197683","CityId":"20197711","DistrictId":"20197713","AddressId":"189487128","RoadLinkId":"40115853"}}},{"Relevance":1.0,"Distance":67.8,"MatchLevel":"houseNumber","MatchQuality":{"Country":1.0,"State":1.0,"County":1.0,"City":1.0,"District":1.0,"Street":[1.0],"HouseNumber":1.0,"PostalCode":1.0},"MatchType":"interpolated","Location":{"LocationId":"NT_Xd6yk3ocD56SW19kl2RnEC_yA","LocationType":"point","DisplayPosition":{"Latitude":51.35497,"Longitude":11.09908},"MapView":{"TopLeft":{"Latitude":51.3560942,"Longitude":11.0972799},"BottomRight":{"Latitude":51.3538458,"Longitude":11.1008801}},"Address":{"Label":"August-Zierfuß-Straße 2, 06567 Bad Frankenhausen/Kyffhäuser, Deutschland","Country":"DEU","State":"Thüringen","County":"Kyffhäuserkreis","City":"Bad Frankenhausen/Kyffhäuser","District":"Bad Frankenhausen/Kyffhäuser","Street":"August-Zierfuß-Straße","HouseNumber":"2","PostalCode":"06567","AdditionalData":[{"value":"Deutschland","key":"CountryName"},{"value":"Thüringen","key":"StateName"},{"value":"Kyffhäuserkreis","key":"CountyName"}]},"MapReference":{"ReferenceId":"547990286","Spot":0.5,"SideOfStreet":"left","CountryId":"20147700","StateId":"20196974","CountyId":"20197683","CityId":"20197711","DistrictId":"20197713","AddressId":"189547209","RoadLinkId":"39939803"}}}]}]}}