{"Response":{"MetaInfo":{"Timestamp":"2020-03-28T11:55:31.735+0000","NextPageInformation":"2"},"View":[{"_type":"SearchResultsViewType","ViewId":0,"Result":[{"Relevance":1.0,"Distance":0.0,"Direction":0.0,"MatchLevel":"district","MatchQuality":{"Country":1.0,"State":1.0,"County":1.0,"City":1.0,"District":1.0,"PostalCode":1.0},"Location":{"LocationId":"NT_8-YuS7hj516VU-sPc4xrQB","LocationType":"point","DisplayPosition":{"Latitude":51.3880335,"Longitude":1.3957723},"MapView":{"TopLeft":{"Latitude":51.39379,"Longitude":1.31987},"BottomRight":{"Latitude":51.36242,"Longitude":1.442}},"Address":{"Label":"Margate, England, United Kingdom","Country":"GBR","State":"England","County":"Kent","City":"Margate","District":"Margate","PostalCode":"CT9 1","AdditionalData":[{"value":"United Kingdom","key":"CountryName"},{"value":"England","key":"StateName"},{"value":"Kent","key":"CountyName"}]},"MapReference":{"ReferenceId":"837664185","SideOfStreet":"neither","StateId":"20248595","CountyId":"20336836","CityId":"20337223","DistrictId":"20337224"}}},{"Relevance":1.0,"Distance":2.8,"MatchLevel":"houseNumber","MatchQuality":{"Country":1.0,"State":1.0,"County":1.0,"City":1.0,"District":1.0,"Street":[1.0],"HouseNumber":1.0,"PostalCode":1.0},"MatchType":"interpolated","Location":{"LocationId":"NT_WwmQ5wk08u-oqVAHa4cyfD_l_25626979_L_xgjN","LocationType":"point","DisplayPosition":{"Latitude":51.3881445,"Longitude":1.3957883},"MapView":{"TopLeft":{"Latitude":51.3892687,"Longitude":1.3939869},"BottomRight":{"Latitude":51.3870204,"Longitude":1.3975897}},"Address":{"Label":"186 Northdown Road, Margate, CT9 2QN, United Kingdom","Country":"GBR","State":"England","County":"Kent","City":"Margate","District":"Margate","Street":"Northdown Road","HouseNumber":"186","PostalCode":"CT9 2QN","AdditionalData":[{"value":"United Kingdom","key":"CountryName"},{"value":"England","key":"StateName"},{"value":"Kent","key":"CountyName"}]},"MapReference":{"ReferenceId":"25626979","Spot":0.28,"SideOfStreet":"left","StateId":"20248595","CountyId":"20336836","CityId":"20337223","DistrictId":"20337224"}}},{"Relevance":1.0,"Distance":36.2,"MatchLevel":"postalCode","MatchQuality":{"PostalCode":1.0},"MatchType":"interpolated","Location":{"LocationId":"NT_WwmQ5wk08u-oqVAHa4cyfD_l_25626979_L_xgjN","LocationType":"point","DisplayPosition":{"Latitude":51.38829,"Longitude":1.39545},"MapView":{"TopLeft":{"Latitude":51.3972832,"Longitude":1.3810387},"BottomRight":{"Latitude":51.3792968,"Longitude":1.4098613}},"Address":{"Label":"CT9 2QY, Margate, England, United Kingdom","Country":"GBR","State":"England","County":"Kent","City":"Margate","PostalCode":"CT9 2QY","AdditionalData":[{"value":"United Kingdom","key":"CountryName"},{"value":"England","key":"StateName"},{"value":"Kent","key":"CountyName"}]},"MapReference":{"ReferenceId":"25626979","Spot":0.28,"SideOfStreet":"neither","StateId":"20248595","CountyId":"20336836","CityId":"20337223"}}},{"Relevance":1.0,"Distance":38.5,"MatchLevel":"postalCode","MatchQuality":{"PostalCode":1.0},"Location":{"LocationId":"NT_z2xzPD8l682KfMuHwOmgHA_l_25627075_L","LocationType":"point","DisplayPosition":{"Latitude":51.38778,"Longitude":1.39615},"MapView":{"TopLeft":{"Latitude":51.3967732,"Longitude":1.3817389},"BottomRight":{"Latitude":51.3787868,"Longitude":1.4105611}},"Address":{"Label":"CT9 2RA, Margate, England, United Kingdom","Country":"GBR","State":"England","County":"Kent","City":"Margate","PostalCode":"CT9 2RA","AdditionalData":[{"value":"United Kingdom","key":"CountryName"},{"value":"England","key":"StateName"},{"value":"Kent","key":"CountyName"}]},"MapReference":{"ReferenceId":"25627075","Spot":0.58,"SideOfStreet":"neither","StateId":"20248595","CountyId":"20336836","CityId":"20337223"}}},{"Relevance":1.0,"Distance":43.5,"MatchLevel":"houseNumber","MatchQuality":{"Country":1.0,"State":1.0,"County":1.0,"City":1.0,"District":1.0,"Street":[1.0],"HouseNumber":1.0,"PostalCode":1.0},"MatchType":"interpolated","Location":{"LocationId":"NT_H.W9VQzSMzF.HhkFmBbBqC_l_25626985_L_4AD","LocationType":"point","DisplayPosition":{"Latitude":51.3881446,"Longitude":1.3965927},"MapView":{"TopLeft":{"Latitude":51.3892688,"Longitude":1.3947913},"BottomRight":{"Latitude":51.3870205,"Longitude":1.3983941}},"Address":{"Label":"80 Sweyn Road, Margate, CT9 2DD, United Kingdom","Country":"GBR","State":"England","County":"Kent","City":"Margate","District":"Cliftonville","Street":"Sweyn Road","HouseNumber":"80","PostalCode":"CT9 2DD","AdditionalData":[{"value":"United Kingdom","key":"CountryName"},{"value":"England","key":"StateName"},{"value":"Kent","key":"CountyName"}]},"MapReference":{"ReferenceId":"25626985","Spot":0.19,"SideOfStreet":"left","StateId":"20248595","CountyId":"20336836","CityId":"20337223","DistrictId":"20337225"}}},{"Relevance":1.0,"Distance":46.0,"MatchLevel":"street","MatchQuality":{"Country":1.0,"State":1.0,"County":1.0,"City":1.0,"District":1.0,"Street":[1.0],"PostalCode":1.0},"Location":{"LocationId":"NT_WwmQ5wk08u-oqVAHa4cyfD_l_25626986_L","LocationType":"point","DisplayPosition":{"Latitude":51.38798,"Longitude":1.39643},"MapView":{"TopLeft":{"Latitude":51.38798,"Longitude":1.39643},"BottomRight":{"Latitude":51.38794,"Longitude":1.3966}},"Address":{"Label":"Northdown Road, Margate, CT9 2, United Kingdom","Country":"GBR","State":"England","County":"Kent","City":"Margate","District":"Margate","Street":"Northdown Road","PostalCode":"CT9 2","AdditionalData":[{"value":"United Kingdom","key":"CountryName"},{"value":"England","key":"StateName"},{"value":"Kent","key":"CountyName"}]},"MapReference":{"ReferenceId":"25626986","Spot":1.0,"SideOfStreet":"left","StateId":"20248595","CountyId":"20336836","CityId":"20337223","DistrictId":"20337224"}}},{"Relevance":1.0,"Distance":46.6,"MatchLevel":"street","MatchQuality":{"Country":1.0,"State":1.0,"County":1.0,"City":1.0,"District":1.0,"Street":[1.0],"PostalCode":1.0},"Location":{"LocationId":"NT_z2xzPD8l682KfMuHwOmgHA_l_25627075_L","LocationType":"point","DisplayPosition":{"Latitude":51.3876779,"Longitude":1.3961279},"MapView":{"TopLeft":{"Latitude":51.38798,"Longitude":1.39571},"BottomRight":{"Latitude":51.38726,"Longitude":1.39643}},"Address":{"Label":"Madeira Road, Margate, CT9 2, United Kingdom","Country":"GBR","State":"England","County":"Kent","City":"Margate","District":"Margate","Street":"Madeira Road","PostalCode":"CT9 2","AdditionalData":[{"value":"United Kingdom","key":"CountryName"},{"value":"England","key":"StateName"},{"value":"Kent","key":"CountyName"}]},"MapReference":{"ReferenceId":"25627075","Spot":0.58,"SideOfStreet":"left","StateId":"20248595","CountyId":"20336836","CityId":"20337223","DistrictId":"20337224"}}},{"Relevance":1.0,"Distance":63.7,"MatchLevel":"postalCode","MatchQuality":{"PostalCode":1.0},"MatchType":"interpolated","Location":{"LocationId":"NT_-lZqFlffk0CNFSs3GyKJ6A_l_25627076_R_yAD","LocationType":"point","DisplayPosition":{"Latitude":51.38748,"Longitude":1.39601},"MapView":{"TopLeft":{"Latitude":51.3964732,"Longitude":1.381599},"BottomRight":{"Latitude":51.3784868,"Longitude":1.410421}},"Address":{"Label":"CT9 2QJ, Margate, England, United Kingdom","Country":"GBR","State":"England","County":"Kent","City":"Margate","PostalCode":"CT9 2QJ","AdditionalData":[{"value":"United Kingdom","key":"CountryName"},{"value":"England","key":"StateName"},{"value":"Kent","key":"CountyName"}]},"MapReference":{"ReferenceId":"25627076","Spot":0.19,"SideOfStreet":"neither","StateId":"20248595","CountyId":"20336836","CityId":"20337223"}}},{"Relevance":1.0,"Distance":68.2,"MatchLevel":"houseNumber","MatchQuality":{"Country":1.0,"State":1.0,"County":1.0,"City":1.0,"District":1.0,"Street":[1.0],"HouseNumber":1.0,"PostalCode":1.0},"MatchType":"interpolated","Location":{"LocationId":"NT_-lZqFlffk0CNFSs3GyKJ6A_l_25627076_R_yAD","LocationType":"point","DisplayPosition":{"Latitude":51.3873836,"Longitude":1.3951976},"MapView":{"TopLeft":{"Latitude":51.3885077,"Longitude":1.3933962},"BottomRight":{"Latitude":51.3862594,"Longitude":1.396999}},"Address":{"Label":"20 Clarendon Road, Margate, CT9 2QJ, United Kingdom","Country":"GBR","State":"England","County":"Kent","City":"Margate","District":"Margate","Street":"Clarendon Road","HouseNumber":"20","PostalCode":"CT9 2QJ","AdditionalData":[{"value":"United Kingdom","key":"CountryName"},{"value":"England","key":"StateName"},{"value":"Kent","key":"CountyName"}]},"MapReference":{"ReferenceId":"25627076","Spot":0.19,"SideOfStreet":"right","StateId":"20248595","CountyId":"20336836","CityId":"20337223","DistrictId":"20337224"}}},{"Relevance":1.0,"Distance":70.8,"MatchLevel":"postalCode","MatchQuality":{"PostalCode":1.0},"MatchType":"interpolated","Location":{"LocationId":"NT_9A4B3nXqgSlhhY279q8xuB_l_25627001_L_yADM","LocationType":"point","DisplayPosition":{"Latitude":51.38785,"Longitude":1.39675},"MapView":{"TopLeft":{"Latitude":51.3968432,"Longitude":1.3823388},"BottomRight":{"Latitude":51.3788568,"Longitude":1.4111612}},"Address":{"Label":"CT9 2QU, Margate, England, United Kingdom","Country":"GBR","State":"England","County":"Kent","City":"Margate","PostalCode":"CT9 2QU","AdditionalData":[{"value":"United Kingdom","key":"CountryName"},{"value":"England","key":"StateName"},{"value":"Kent","key":"CountyName"}]},"MapReference":{"ReferenceId":"25627001","Spot":0.64,"SideOfStreet":"neither","StateId":"20248595","CountyId":"20336836","CityId":"20337223"}}}]}]}}