{"Response":{"MetaInfo":{"Timestamp":"2020-03-28T10:11:09.598+0000","NextPageInformation":"2"},"View":[{"_type":"SearchResultsViewType","ViewId":0,"Result":[{"Relevance":1.0,"Distance":0.0,"Direction":0.0,"MatchLevel":"district","MatchQuality":{"Country":1.0,"State":1.0,"County":1.0,"City":1.0,"District":1.0,"PostalCode":1.0},"Location":{"LocationId":"NT_lZpy3AMXs70FBcsJZbc0dA","LocationType":"point","DisplayPosition":{"Latitude":51.3475969,"Longitude":-2.2529184},"MapView":{"TopLeft":{"Latitude":51.35875,"Longitude":-2.26552},"BottomRight":{"Latitude":51.33561,"Longitude":-2.23249}},"Address":{"Label":"Bradford on Avon, England, United Kingdom","Country":"GBR","State":"England","County":"Wiltshire","City":"Bradford on Avon","District":"Bradford on Avon","PostalCode":"BA15 1","AdditionalData":[{"value":"United Kingdom","key":"CountryName"},{"value":"England","key":"StateName"},{"value":"Wiltshire","key":"CountyName"}]},"MapReference":{"ReferenceId":"26541658","SideOfStreet":"neither","StateId":"20248595","CountyId":"20338966","CityId":"20351796","DistrictId":"20351797"}}},{"Relevance":1.0,"Distance":3.8,"MatchLevel":"street","MatchQuality":{"Country":1.0,"State":1.0,"County":1.0,"City":1.0,"District":1.0,"PostalCode":1.0},"Location":{"LocationId":"NT_4x6F1k4qWU6en0kkH6187B_l_905960933_L","LocationType":"point","DisplayPosition":{"Latitude":51.3475632,"Longitude":-2.2529123},"MapView":{"TopLeft":{"Latitude":51.34758,"Longitude":-2.25326},"BottomRight":{"Latitude":51.3475,"Longitude":-2.25282}},"Address":{"Label":"Bradford on Avon, BA15 1, United Kingdom","Country":"GBR","State":"England","County":"Wiltshire","City":"Bradford on Avon","District":"Bradford on Avon","PostalCode":"BA15 1","AdditionalData":[{"value":"United Kingdom","key":"CountryName"},{"value":"England","key":"StateName"},{"value":"Wiltshire","key":"CountyName"}]},"MapReference":{"ReferenceId":"905960933","Spot":0.79,"SideOfStreet":"neither","StateId":"20248595","CountyId":"20338966","CityId":"20351796","DistrictId":"20351797"}}},{"Relevance":1.0,"Distance":7.1,"MatchLevel":"street","MatchQuality":{"Country":1.0,"State":1.0,"County":1.0,"City":1.0,"District":1.0,"PostalCode":1.0},"Location":{"LocationId":"NT_4x6F1k4qWU6en0kkH6187B_l_834028766_L","LocationType":"point","DisplayPosition":{"Latitude":51.34758,"Longitude":-2.25282},"MapView":{"TopLeft":{"Latitude":51.34787,"Longitude":-2.25282},"BottomRight":{"Latitude":51.34758,"Longitude":-2.25239}},"Address":{"Label":"Bradford on Avon, BA15 1, United Kingdom","Country":"GBR","State":"England","County":"Wiltshire","City":"Bradford on Avon","District":"Bradford on Avon","PostalCode":"BA15 1","AdditionalData":[{"value":"United Kingdom","key":"CountryName"},{"value":"England","key":"StateName"},{"value":"Wiltshire","key":"CountyName"}]},"MapReference":{"ReferenceId":"834028766","Spot":0.0,"SideOfStreet":"left","StateId":"20248595","CountyId":"20338966","CityId":"20351796","DistrictId":"20351797"}}},{"Relevance":1.0,"Distance":7.1,"MatchLevel":"street","MatchQuality":{"Country":1.0,"State":1.0,"County":1.0,"City":1.0,"District":1.0,"PostalCode":1.0},"Location":{"LocationId":"NT_4x6F1k4qWU6en0kkH6187B_l_834028765_L","LocationType":"point","DisplayPosition":{"Latitude":51.34758,"Longitude":-2.25282},"MapView":{"TopLeft":{"Latitude":51.34758,"Longitude":-2.25282},"BottomRight":{"Latitude":51.34748,"Longitude":-2.25274}},"Address":{"Label":"Bradford on Avon, BA15 1, United Kingdom","Country":"GBR","State":"England","County":"Wiltshire","City":"Bradford on Avon","District":"Bradford on Avon","PostalCode":"BA15 1","AdditionalData":[{"value":"United Kingdom","key":"CountryName"},{"value":"England","key":"StateName"},{"value":"Wiltshire","key":"CountyName"}]},"MapReference":{"ReferenceId":"834028765","Spot":1.0,"SideOfStreet":"left","StateId":"20248595","CountyId":"20338966","CityId":"20351796","DistrictId":"20351797"}}},{"Relevance":1.0,"Distance":24.7,"MatchLevel":"houseNumber","MatchQuality":{"Country":1.0,"State":1.0,"County":1.0,"City":1.0,"District":1.0,"Street":[1.0],"HouseNumber":1.0,"PostalCode":1.0},"MatchType":"interpolated","Location":{"LocationId":"NT_nJbi1zgtvB3X.aNX-WarrD_l_26541687_L_zAD","LocationType":"point","DisplayPosition":{"Latitude":51.3475301,"Longitude":-2.2525397},"MapView":{"TopLeft":{"Latitude":51.3486542,"Longitude":-2.2543395},"BottomRight":{"Latitude":51.3464059,"Longitude":-2.2507399}},"Address":{"Label":"30 Church Street, Bradford on Avon, BA15 1, United Kingdom","Country":"GBR","State":"England","County":"Wiltshire","City":"Bradford on Avon","District":"Bradford on Avon","Street":"Church Street","HouseNumber":"30","PostalCode":"BA15 1","AdditionalData":[{"value":"United Kingdom","key":"CountryName"},{"value":"England","key":"StateName"},{"value":"Wiltshire","key":"CountyName"}]},"MapReference":{"ReferenceId":"26541687","Spot":0.12,"SideOfStreet":"left","StateId":"20248595","CountyId":"20338966","CityId":"20351796","DistrictId":"20351797"}}},{"Relevance":1.0,"Distance":26.1,"MatchLevel":"street","MatchQuality":{"Country":1.0,"State":1.0,"County":1.0,"City":1.0,"District":1.0,"Street":[1.0],"PostalCode":1.0},"Location":{"LocationId":"NT_e9zl7WO9agO6xk5.hQ6lOD_l_905960935_R","LocationType":"point","DisplayPosition":{"Latitude":51.3475,"Longitude":-2.25326},"MapView":{"TopLeft":{"Latitude":51.3475,"Longitude":-2.25354},"BottomRight":{"Latitude":51.34737,"Longitude":-2.25326}},"Address":{"Label":"Rosemary Walk, Bradford on Avon, BA15 1, United Kingdom","Country":"GBR","State":"England","County":"Wiltshire","City":"Bradford on Avon","District":"Bradford on Avon","Street":"Rosemary Walk","PostalCode":"BA15 1","AdditionalData":[{"value":"United Kingdom","key":"CountryName"},{"value":"England","key":"StateName"},{"value":"Wiltshire","key":"CountyName"}]},"MapReference":{"ReferenceId":"905960935","Spot":1.0,"SideOfStreet":"right","StateId":"20248595","CountyId":"20338966","CityId":"20351796","DistrictId":"20351797"}}},{"Relevance":1.0,"Distance":26.1,"MatchLevel":"street","MatchQuality":{"Country":1.0,"State":1.0,"County":1.0,"City":1.0,"District":1.0,"PostalCode":1.0},"Location":{"LocationId":"NT_4x6F1k4qWU6en0kkH6187B_l_905960934_R","LocationType":"point","DisplayPosition":{"Latitude":51.3475,"Longitude":-2.25326},"MapView":{"TopLeft":{"Latitude":51.34797,"Longitude":-2.25387},"BottomRight":{"Latitude":51.3475,"Longitude":-2.25326}},"Address":{"Label":"Bradford on Avon, BA15 1, United Kingdom","Country":"GBR","State":"England","County":"Wiltshire","City":"Bradford on Avon","District":"Bradford on Avon","PostalCode":"BA15 1","AdditionalData":[{"value":"United Kingdom","key":"CountryName"},{"value":"England","key":"StateName"},{"value":"Wiltshire","key":"CountyName"}]},"MapReference":{"ReferenceId":"905960934","Spot":0.0,"SideOfStreet":"right","StateId":"20248595","CountyId":"20338966","CityId":"20351796","DistrictId":"20351797"}}},{"Relevance":1.0,"Distance":26.3,"MatchLevel":"postalCode","MatchQuality":{"PostalCode":1.0},"MatchType":"interpolated","Location":{"LocationId":"NT_nJbi1zgtvB3X.aNX-WarrD_l_26541687_L_zAD","LocationType":"point","DisplayPosition":{"Latitude":51.34746,"Longitude":-2.25261},"MapView":{"TopLeft":{"Latitude":51.3564532,"Longitude":-2.2670085},"BottomRight":{"Latitude":51.3384668,"Longitude":-2.2382115}},"Address":{"Label":"BA15 1HB, Bradford on Avon, England, United Kingdom","Country":"GBR","State":"England","County":"Wiltshire","City":"Bradford on Avon","PostalCode":"BA15 1HB","AdditionalData":[{"value":"United Kingdom","key":"CountryName"},{"value":"England","key":"StateName"},{"value":"Wiltshire","key":"CountyName"}]},"MapReference":{"ReferenceId":"26541687","Spot":0.12,"SideOfStreet":"neither","StateId":"20248595","CountyId":"20338966","CityId":"20351796"}}},{"Relevance":1.0,"Distance":28.8,"MatchLevel":"houseNumber","MatchQuality":{"Country":1.0,"State":1.0,"County":1.0,"City":1.0,"District":1.0,"Street":[1.0],"HouseNumber":1.0,"PostalCode":1.0},"MatchType":"interpolated","Location":{"LocationId":"NT_nJbi1zgtvB3X.aNX-WarrD_l_26541741_L_yED","LocationType":"point","DisplayPosition":{"Latitude":51.3472863,"Longitude":-2.252914},"MapView":{"TopLeft":{"Latitude":51.3484105,"Longitude":-2.2547138},"BottomRight":{"Latitude":51.3461622,"Longitude":-2.2511142}},"Address":{"Label":"21 Church Street, Bradford on Avon, BA15 1, United Kingdom","Country":"GBR","State":"England","County":"Wiltshire","City":"Bradford on Avon","District":"Bradford on Avon","Street":"Church Street","HouseNumber":"21","PostalCode":"BA15 1","AdditionalData":[{"value":"United Kingdom","key":"CountryName"},{"value":"England","key":"StateName"},{"value":"Wiltshire","key":"CountyName"}]},"MapReference":{"ReferenceId":"26541741","Spot":0.89,"SideOfStreet":"left","StateId":"20248595","CountyId":"20338966","CityId":"20351796","DistrictId":"20351797"}}},{"Relevance":1.0,"Distance":34.2,"MatchLevel":"postalCode","MatchQuality":{"PostalCode":1.0},"Location":{"LocationId":"NT_e9zl7WO9agO6xk5.hQ6lOD_l_905960935_R","LocationType":"point","DisplayPosition":{"Latitude":51.34759,"Longitude":-2.25341},"MapView":{"TopLeft":{"Latitude":51.3565832,"Longitude":-2.2678085},"BottomRight":{"Latitude":51.3385968,"Longitude":-2.2390115}},"Address":{"Label":"BA15 1BP, Bradford on Avon, England, United Kingdom","Country":"GBR","State":"England","County":"Wiltshire","City":"Bradford on Avon","PostalCode":"BA15 1BP","AdditionalData":[{"value":"United Kingdom","key":"CountryName"},{"value":"England","key":"StateName"},{"value":"Wiltshire","key":"CountyName"}]},"MapReference":{"ReferenceId":"905960935","Spot":1.0,"SideOfStreet":"neither","StateId":"20248595","CountyId":"20338966","CityId":"20351796"}}}]}]}}