{"Response":{"MetaInfo":{"Timestamp":"2020-03-28T10:04:58.686+0000","NextPageInformation":"2"},"View":[{"_type":"SearchResultsViewType","ViewId":0,"Result":[{"Relevance":1.0,"Distance":0.0,"Direction":0.0,"MatchLevel":"district","MatchQuality":{"Country":1.0,"State":1.0,"County":1.0,"City":1.0,"District":1.0,"PostalCode":1.0},"Location":{"LocationId":"NT_mdiYzhekPX3Y27ryLGSy0D","LocationType":"point","DisplayPosition":{"Latitude":51.3243391,"Longitude":9.557054},"MapView":{"TopLeft":{"Latitude":51.33451,"Longitude":9.53701},"BottomRight":{"Latitude":51.31076,"Longitude":9.58695}},"Address":{"Label":"Sandershausen, Niestetal, Hessen, Deutschland","Country":"DEU","State":"Hessen","County":"Kassel (Landkreis)","City":"Niestetal","District":"Sandershausen","PostalCode":"34266","AdditionalData":[{"value":"Deutschland","key":"CountryName"},{"value":"Hessen","key":"StateName"},{"value":"Kassel (Landkreis)","key":"CountyName"}]},"MapReference":{"ReferenceId":"52564362","SideOfStreet":"neither","CountryId":"20147700","StateId":"20160993","CountyId":"20163285","CityId":"20163393","DistrictId":"20163396"}}},{"Relevance":1.0,"Distance":8.0,"MatchLevel":"houseNumber","MatchQuality":{"Country":1.0,"State":1.0,"County":1.0,"City":1.0,"District":1.0,"Street":[1.0],"HouseNumber":1.0,"PostalCode":1.0},"MatchType":"interpolated","Location":{"LocationId":"NT_fxtE.l7rBy85RkR1L4pqFB_2A","LocationType":"point","DisplayPosition":{"Latitude":51.3244,"Longitude":9.55691},"MapView":{"TopLeft":{"Latitude":51.3255242,"Longitude":9.5551111},"BottomRight":{"Latitude":51.3232758,"Longitude":9.5587089}},"Address":{"Label":"Am Heinzenberg 6, 34266 Niestetal, Deutschland","Country":"DEU","State":"Hessen","County":"Kassel (Landkreis)","City":"Niestetal","District":"Sandershausen","Street":"Am Heinzenberg","HouseNumber":"6","PostalCode":"34266","AdditionalData":[{"value":"Deutschland","key":"CountryName"},{"value":"Hessen","key":"StateName"},{"value":"Kassel (Landkreis)","key":"CountyName"}]},"MapReference":{"ReferenceId":"52569388","Spot":0.36,"SideOfStreet":"right","CountryId":"20147700","StateId":"20160993","CountyId":"20163285","CityId":"20163393","DistrictId":"20163396","AddressId":"187575557","RoadLinkId":"34697595"}}},{"Relevance":1.0,"Distance":62.7,"MatchLevel":"houseNumber","MatchQuality":{"Country":1.0,"State":1.0,"County":1.0,"City":1.0,"District":1.0,"Street":[1.0],"HouseNumber":1.0,"PostalCode":1.0},"MatchType":"interpolated","Location":{"LocationId":"NT_ObOD7yLhv2yZFt2yOSAspB_xkjQ","LocationType":"point","DisplayPosition":{"Latitude":51.32367,"Longitude":9.55736},"MapView":{"TopLeft":{"Latitude":51.3247942,"Longitude":9.5555611},"BottomRight":{"Latitude":51.3225458,"Longitude":9.5591589}},"Address":{"Label":"Ysenburgstraße 19B, 34266 Niestetal, Deutschland","Country":"DEU","State":"Hessen","County":"Kassel (Landkreis)","City":"Niestetal","District":"Sandershausen","Street":"Ysenburgstraße","HouseNumber":"19B","PostalCode":"34266","AdditionalData":[{"value":"Deutschland","key":"CountryName"},{"value":"Hessen","key":"StateName"},{"value":"Kassel (Landkreis)","key":"CountyName"}]},"MapReference":{"ReferenceId":"567327031","Spot":0.32,"SideOfStreet":"left","CountryId":"20147700","StateId":"20160993","CountyId":"20163285","CityId":"20163393","DistrictId":"20163396","AddressId":"186715052","RoadLinkId":"34134202"}}},{"Relevance":1.0,"Distance":83.4,"MatchLevel":"houseNumber","MatchQuality":{"Country":1.0,"State":1.0,"County":1.0,"City":1.0,"District":1.0,"Street":[1.0],"HouseNumber":1.0,"PostalCode":1.0},"MatchType":"interpolated","Location":{"LocationId":"NT_ObOD7yLhv2yZFt2yOSAspB_xkTQ","LocationType":"point","DisplayPosition":{"Latitude":51.32354,"Longitude":9.55664},"MapView":{"TopLeft":{"Latitude":51.3246642,"Longitude":9.5548411},"BottomRight":{"Latitude":51.3224158,"Longitude":9.5584389}},"Address":{"Label":"Ysenburgstraße 19A, 34266 Niestetal, Deutschland","Country":"DEU","State":"Hessen","County":"Kassel (Landkreis)","City":"Niestetal","District":"Sandershausen","Street":"Ysenburgstraße","HouseNumber":"19A","PostalCode":"34266","AdditionalData":[{"value":"Deutschland","key":"CountryName"},{"value":"Hessen","key":"StateName"},{"value":"Kassel (Landkreis)","key":"CountyName"}]},"MapReference":{"ReferenceId":"52569403","Spot":0.74,"SideOfStreet":"left","CountryId":"20147700","StateId":"20160993","CountyId":"20163285","CityId":"20163393","DistrictId":"20163396","AddressId":"621878103","RoadLinkId":"33995020"}}},{"Relevance":1.0,"Distance":96.9,"MatchLevel":"houseNumber","MatchQuality":{"Country":1.0,"State":1.0,"County":1.0,"City":1.0,"District":1.0,"Street":[1.0],"HouseNumber":1.0,"PostalCode":1.0},"MatchType":"interpolated","Location":{"LocationId":"NT_aMsbWIw92DqQWjm2ewt7OD_zA","LocationType":"point","DisplayPosition":{"Latitude":51.32406,"Longitude":9.55861},"MapView":{"TopLeft":{"Latitude":51.3251842,"Longitude":9.5568111},"BottomRight":{"Latitude":51.3229358,"Longitude":9.5604089}},"Address":{"Label":"Siedlerstraße 3, 34266 Niestetal, Deutschland","Country":"DEU","State":"Hessen","County":"Kassel (Landkreis)","City":"Niestetal","District":"Sandershausen","Street":"Siedlerstraße","HouseNumber":"3","PostalCode":"34266","AdditionalData":[{"value":"Deutschland","key":"CountryName"},{"value":"Hessen","key":"StateName"},{"value":"Kassel (Landkreis)","key":"CountyName"}]},"MapReference":{"ReferenceId":"52569379","Spot":0.2,"SideOfStreet":"left","CountryId":"20147700","StateId":"20160993","CountyId":"20163285","CityId":"20163393","DistrictId":"20163396","AddressId":"186746581","RoadLinkId":"34003082"}}},{"Relevance":1.0,"Distance":103.3,"MatchLevel":"houseNumber","MatchQuality":{"Country":1.0,"State":1.0,"County":1.0,"City":1.0,"District":1.0,"Street":[1.0],"HouseNumber":1.0,"PostalCode":1.0},"MatchType":"interpolated","Location":{"LocationId":"NT_QR-ChxAR98VoBo.-.R5TUD_0A","LocationType":"point","DisplayPosition":{"Latitude":51.32383,"Longitude":9.5555},"MapView":{"TopLeft":{"Latitude":51.3249542,"Longitude":9.5537011},"BottomRight":{"Latitude":51.3227058,"Longitude":9.5572989}},"Address":{"Label":"Spiekershäuser Straße 4, 34266 Niestetal, Deutschland","Country":"DEU","State":"Hessen","County":"Kassel (Landkreis)","City":"Niestetal","District":"Sandershausen","Street":"Spiekershäuser Straße","HouseNumber":"4","PostalCode":"34266","AdditionalData":[{"value":"Deutschland","key":"CountryName"},{"value":"Hessen","key":"StateName"},{"value":"Kassel (Landkreis)","key":"CountyName"}]},"MapReference":{"ReferenceId":"52569377","Spot":0.04,"SideOfStreet":"right","CountryId":"20147700","StateId":"20160993","CountyId":"20163285","CityId":"20163393","DistrictId":"20163396","AddressId":"186818002","RoadLinkId":"34668886"}}},{"Relevance":1.0,"Distance":106.0,"MatchLevel":"houseNumber","MatchQuality":{"Country":1.0,"State":1.0,"County":1.0,"City":1.0,"District":1.0,"Street":[1.0],"HouseNumber":1.0,"PostalCode":1.0},"MatchType":"interpolated","Location":{"LocationId":"NT_ObOD7yLhv2yZFt2yOSAspB_xgTQ","LocationType":"point","DisplayPosition":{"Latitude":51.32374,"Longitude":9.55824},"MapView":{"TopLeft":{"Latitude":51.3248642,"Longitude":9.5564411},"BottomRight":{"Latitude":51.3226158,"Longitude":9.5600389}},"Address":{"Label":"Ysenburgstraße 18A, 34266 Niestetal, Deutschland","Country":"DEU","State":"Hessen","County":"Kassel (Landkreis)","City":"Niestetal","District":"Sandershausen","Street":"Ysenburgstraße","HouseNumber":"18A","PostalCode":"34266","AdditionalData":[{"value":"Deutschland","key":"CountryName"},{"value":"Hessen","key":"StateName"},{"value":"Kassel (Landkreis)","key":"CountyName"}]},"MapReference":{"ReferenceId":"567327032","Spot":0.29,"SideOfStreet":"right","CountryId":"20147700","StateId":"20160993","CountyId":"20163285","CityId":"20163393","DistrictId":"20163396","AddressId":"186980305","RoadLinkId":"34886461"}}},{"Relevance":1.0,"Distance":107.1,"MatchLevel":"street","MatchQuality":{"Country":1.0,"State":1.0,"County":1.0,"City":1.0,"District":1.0,"PostalCode":1.0},"Location":{"LocationId":"NT_4IV813L7JemxGlcYPQl5fD_l_52569280_L","LocationType":"point","DisplayPosition":{"Latitude":51.32524,"Longitude":9.5576},"MapView":{"TopLeft":{"Latitude":51.32524,"Longitude":9.5576},"BottomRight":{"Latitude":51.32519,"Longitude":9.55864}},"Address":{"Label":"34266 Niestetal, Deutschland","Country":"DEU","State":"Hessen","County":"Kassel (Landkreis)","City":"Niestetal","District":"Sandershausen","PostalCode":"34266","AdditionalData":[{"value":"Deutschland","key":"CountryName"},{"value":"Hessen","key":"StateName"},{"value":"Kassel (Landkreis)","key":"CountyName"}]},"MapReference":{"ReferenceId":"52569280","Spot":1.0,"SideOfStreet":"left","CountryId":"20147700","StateId":"20160993","CountyId":"20163285","CityId":"20163393","DistrictId":"20163396"}}},{"Relevance":1.0,"Distance":122.8,"MatchLevel":"houseNumber","MatchQuality":{"Country":1.0,"State":1.0,"County":1.0,"City":1.0,"District":1.0,"Street":[1.0],"HouseNumber":1.0,"PostalCode":1.0},"MatchType":"interpolated","Location":{"LocationId":"NT_QR-ChxAR98VoBo.-.R5TUD_yA","LocationType":"point","DisplayPosition":{"Latitude":51.32366,"Longitude":9.55552},"MapView":{"TopLeft":{"Latitude":51.3247842,"Longitude":9.5537211},"BottomRight":{"Latitude":51.3225358,"Longitude":9.5573189}},"Address":{"Label":"Spiekershäuser Straße 2, 34266 Niestetal, Deutschland","Country":"DEU","State":"Hessen","County":"Kassel (Landkreis)","City":"Niestetal","District":"Sandershausen","Street":"Spiekershäuser Straße","HouseNumber":"2","PostalCode":"34266","AdditionalData":[{"value":"Deutschland","key":"CountryName"},{"value":"Hessen","key":"StateName"},{"value":"Kassel (Landkreis)","key":"CountyName"}]},"MapReference":{"ReferenceId":"52569404","Spot":0.76,"SideOfStreet":"right","CountryId":"20147700","StateId":"20160993","CountyId":"20163285","CityId":"20163393","DistrictId":"20163396","AddressId":"186652569","RoadLinkId":"34251147"}}},{"Relevance":1.0,"Distance":122.9,"MatchLevel":"houseNumber","MatchQuality":{"Country":1.0,"State":1.0,"County":1.0,"City":1.0,"District":1.0,"Street":[1.0],"HouseNumber":1.0,"PostalCode":1.0},"MatchType":"interpolated","Location":{"LocationId":"NT_QR-ChxAR98VoBo.-.R5TUD_xYD","LocationType":"point","DisplayPosition":{"Latitude":51.32494,"Longitude":9.55529},"MapView":{"TopLeft":{"Latitude":51.3260642,"Longitude":9.5534911},"BottomRight":{"Latitude":51.3238158,"Longitude":9.5570889}},"Address":{"Label":"Spiekershäuser Straße 16, 34266 Niestetal, Deutschland","Country":"DEU","State":"Hessen","County":"Kassel (Landkreis)","City":"Niestetal","District":"Sandershausen","Street":"Spiekershäuser Straße","HouseNumber":"16","PostalCode":"34266","AdditionalData":[{"value":"Deutschland","key":"CountryName"},{"value":"Hessen","key":"StateName"},{"value":"Kassel (Landkreis)","key":"CountyName"}]},"MapReference":{"ReferenceId":"780238935","Spot":0.03,"SideOfStreet":"right","CountryId":"20147700","StateId":"20160993","CountyId":"20163285","CityId":"20163393","DistrictId":"20163396","AddressId":"186768447","RoadLinkId":"173504687"}}}]}]}}