{"Response":{"MetaInfo":{"Timestamp":"2020-03-28T10:40:57.339+0000","NextPageInformation":"2"},"View":[{"_type":"SearchResultsViewType","ViewId":0,"Result":[{"Relevance":1.0,"Distance":0.0,"Direction":0.0,"MatchLevel":"district","MatchQuality":{"Country":1.0,"State":1.0,"County":1.0,"City":1.0,"District":1.0,"PostalCode":1.0},"Location":{"LocationId":"NT_tWqqr7Ro5JNLKDUtt6Wt1A","LocationType":"point","DisplayPosition":{"Latitude":51.4327783,"Longitude":-2.7602625},"MapView":{"TopLeft":{"Latitude":51.43996,"Longitude":-2.78531},"BottomRight":{"Latitude":51.41991,"Longitude":-2.73883}},"Address":{"Label":"Nailsea, Bristol, England, United Kingdom","Country":"GBR","State":"England","County":"Avon","City":"Bristol","District":"Nailsea","PostalCode":"BS48 1","AdditionalData":[{"value":"United Kingdom","key":"CountryName"},{"value":"England","key":"StateName"},{"value":"Avon","key":"CountyName"}]},"MapReference":{"ReferenceId":"26730950","SideOfStreet":"neither","StateId":"20248595","CountyId":"20352323","CityId":"20352420","DistrictId":"20352516"}}},{"Relevance":1.0,"Distance":19.6,"MatchLevel":"street","MatchQuality":{"Country":1.0,"State":1.0,"County":1.0,"City":1.0,"District":1.0,"PostalCode":1.0},"Location":{"LocationId":"NT_N6oZN8x4ldheay16070laB_l_960070382_R","LocationType":"point","DisplayPosition":{"Latitude":51.4326811,"Longitude":-2.7604987},"MapView":{"TopLeft":{"Latitude":51.43283,"Longitude":-2.76056},"BottomRight":{"Latitude":51.43266,"Longitude":-2.76049}},"Address":{"Label":"Bristol, BS48 1, United Kingdom","Country":"GBR","State":"England","County":"Avon","City":"Bristol","District":"Nailsea","PostalCode":"BS48 1","AdditionalData":[{"value":"United Kingdom","key":"CountryName"},{"value":"England","key":"StateName"},{"value":"Avon","key":"CountyName"}]},"MapReference":{"ReferenceId":"960070382","Spot":0.12,"SideOfStreet":"right","StateId":"20248595","CountyId":"20352323","CityId":"20352420","DistrictId":"20352516"}}},{"Relevance":1.0,"Distance":20.5,"MatchLevel":"street","MatchQuality":{"Country":1.0,"State":1.0,"County":1.0,"City":1.0,"District":1.0,"PostalCode":1.0},"Location":{"LocationId":"NT_N6oZN8x4ldheay16070laB_l_960070388_R","LocationType":"point","DisplayPosition":{"Latitude":51.43266,"Longitude":-2.76049},"MapView":{"TopLeft":{"Latitude":51.4328,"Longitude":-2.76152},"BottomRight":{"Latitude":51.43266,"Longitude":-2.76049}},"Address":{"Label":"Bristol, BS48 1, United Kingdom","Country":"GBR","State":"England","County":"Avon","City":"Bristol","District":"Nailsea","PostalCode":"BS48 1","AdditionalData":[{"value":"United Kingdom","key":"CountryName"},{"value":"England","key":"StateName"},{"value":"Avon","key":"CountyName"}]},"MapReference":{"ReferenceId":"960070388","Spot":0.0,"SideOfStreet":"right","StateId":"20248595","CountyId":"20352323","CityId":"20352420","DistrictId":"20352516"}}},{"Relevance":1.0,"Distance":20.5,"MatchLevel":"street","MatchQuality":{"Country":1.0,"State":1.0,"County":1.0,"City":1.0,"District":1.0,"PostalCode":1.0},"Location":{"LocationId":"NT_N6oZN8x4ldheay16070laB_l_960070381_R","LocationType":"point","DisplayPosition":{"Latitude":51.43266,"Longitude":-2.76049},"MapView":{"TopLeft":{"Latitude":51.43266,"Longitude":-2.76055},"BottomRight":{"Latitude":51.43252,"Longitude":-2.76049}},"Address":{"Label":"Bristol, BS48 1, United Kingdom","Country":"GBR","State":"England","County":"Avon","City":"Bristol","District":"Nailsea","PostalCode":"BS48 1","AdditionalData":[{"value":"United Kingdom","key":"CountryName"},{"value":"England","key":"StateName"},{"value":"Avon","key":"CountyName"}]},"MapReference":{"ReferenceId":"960070381","Spot":1.0,"SideOfStreet":"right","StateId":"20248595","CountyId":"20352323","CityId":"20352420","DistrictId":"20352516"}}},{"Relevance":1.0,"Distance":21.4,"MatchLevel":"street","MatchQuality":{"Country":1.0,"State":1.0,"County":1.0,"City":1.0,"District":1.0,"PostalCode":1.0},"Location":{"LocationId":"NT_N6oZN8x4ldheay16070laB_l_960070384_R","LocationType":"point","DisplayPosition":{"Latitude":51.43283,"Longitude":-2.76056},"MapView":{"TopLeft":{"Latitude":51.43296,"Longitude":-2.76063},"BottomRight":{"Latitude":51.43283,"Longitude":-2.76056}},"Address":{"Label":"Bristol, BS48 1, United Kingdom","Country":"GBR","State":"England","County":"Avon","City":"Bristol","District":"Nailsea","PostalCode":"BS48 1","AdditionalData":[{"value":"United Kingdom","key":"CountryName"},{"value":"England","key":"StateName"},{"value":"Avon","key":"CountyName"}]},"MapReference":{"ReferenceId":"960070384","Spot":0.0,"SideOfStreet":"right","StateId":"20248595","CountyId":"20352323","CityId":"20352420","DistrictId":"20352516"}}},{"Relevance":1.0,"Distance":21.4,"MatchLevel":"street","MatchQuality":{"Country":1.0,"State":1.0,"County":1.0,"City":1.0,"District":1.0,"PostalCode":1.0},"Location":{"LocationId":"NT_N6oZN8x4ldheay16070laB_l_960070383_L","LocationType":"point","DisplayPosition":{"Latitude":51.43283,"Longitude":-2.76056},"MapView":{"TopLeft":{"Latitude":51.43295,"Longitude":-2.76137},"BottomRight":{"Latitude":51.43283,"Longitude":-2.76056}},"Address":{"Label":"Bristol, BS48 1, United Kingdom","Country":"GBR","State":"England","County":"Avon","City":"Bristol","District":"Nailsea","PostalCode":"BS48 1","AdditionalData":[{"value":"United Kingdom","key":"CountryName"},{"value":"England","key":"StateName"},{"value":"Avon","key":"CountyName"}]},"MapReference":{"ReferenceId":"960070383","Spot":0.0,"SideOfStreet":"left","StateId":"20248595","CountyId":"20352323","CityId":"20352420","DistrictId":"20352516"}}},{"Relevance":1.0,"Distance":21.7,"MatchLevel":"street","MatchQuality":{"Country":1.0,"State":1.0,"County":1.0,"City":1.0,"District":1.0,"PostalCode":1.0},"Location":{"LocationId":"NT_N6oZN8x4ldheay16070laB_l_960070379_R","LocationType":"point","DisplayPosition":{"Latitude":51.43261,"Longitude":-2.76042},"MapView":{"TopLeft":{"Latitude":51.43266,"Longitude":-2.76049},"BottomRight":{"Latitude":51.43246,"Longitude":-2.76016}},"Address":{"Label":"Bristol, BS48 1, United Kingdom","Country":"GBR","State":"England","County":"Avon","City":"Bristol","District":"Nailsea","PostalCode":"BS48 1","AdditionalData":[{"value":"United Kingdom","key":"CountryName"},{"value":"England","key":"StateName"},{"value":"Avon","key":"CountyName"}]},"MapReference":{"ReferenceId":"960070379","Spot":0.78,"SideOfStreet":"right","StateId":"20248595","CountyId":"20352323","CityId":"20352420","DistrictId":"20352516"}}},{"Relevance":1.0,"Distance":28.2,"MatchLevel":"postalCode","MatchQuality":{"PostalCode":1.0},"Location":{"LocationId":"NT_N6oZN8x4ldheay16070laB_l_960070379_R","LocationType":"point","DisplayPosition":{"Latitude":51.43253,"Longitude":-2.76018},"MapView":{"TopLeft":{"Latitude":51.4415232,"Longitude":-2.7746052},"BottomRight":{"Latitude":51.4235368,"Longitude":-2.7457548}},"Address":{"Label":"BS48 2QW, Bristol, England, United Kingdom","Country":"GBR","State":"England","County":"Avon","City":"Bristol","PostalCode":"BS48 2QW","AdditionalData":[{"value":"United Kingdom","key":"CountryName"},{"value":"England","key":"StateName"},{"value":"Avon","key":"CountyName"}]},"MapReference":{"ReferenceId":"960070379","Spot":0.78,"SideOfStreet":"neither","StateId":"20248595","CountyId":"20352323","CityId":"20352420"}}},{"Relevance":1.0,"Distance":33.1,"MatchLevel":"street","MatchQuality":{"Country":1.0,"State":1.0,"County":1.0,"City":1.0,"District":1.0,"PostalCode":1.0},"Location":{"LocationId":"NT_N6oZN8x4ldheay16070laB_l_960070386_R","LocationType":"point","DisplayPosition":{"Latitude":51.43252,"Longitude":-2.7605},"MapView":{"TopLeft":{"Latitude":51.4328,"Longitude":-2.76159},"BottomRight":{"Latitude":51.43248,"Longitude":-2.7605}},"Address":{"Label":"Bristol, BS48 1, United Kingdom","Country":"GBR","State":"England","County":"Avon","City":"Bristol","District":"Nailsea","PostalCode":"BS48 1","AdditionalData":[{"value":"United Kingdom","key":"CountryName"},{"value":"England","key":"StateName"},{"value":"Avon","key":"CountyName"}]},"MapReference":{"ReferenceId":"960070386","Spot":0.0,"SideOfStreet":"right","StateId":"20248595","CountyId":"20352323","CityId":"20352420","DistrictId":"20352516"}}},{"Relevance":1.0,"Distance":33.9,"MatchLevel":"street","MatchQuality":{"Country":1.0,"State":1.0,"County":1.0,"City":1.0,"District":1.0,"PostalCode":1.0},"Location":{"LocationId":"NT_N6oZN8x4ldheay16070laB_l_960070380_R","LocationType":"point","DisplayPosition":{"Latitude":51.43249,"Longitude":-2.76042},"MapView":{"TopLeft":{"Latitude":51.43252,"Longitude":-2.7605},"BottomRight":{"Latitude":51.43241,"Longitude":-2.76031}},"Address":{"Label":"Bristol, BS48 1, United Kingdom","Country":"GBR","State":"England","County":"Avon","City":"Bristol","District":"Nailsea","PostalCode":"BS48 1","AdditionalData":[{"value":"United Kingdom","key":"CountryName"},{"value":"England","key":"StateName"},{"value":"Avon","key":"CountyName"}]},"MapReference":{"ReferenceId":"960070380","Spot":0.61,"SideOfStreet":"right","StateId":"20248595","CountyId":"20352323","CityId":"20352420","DistrictId":"20352516"}}}]}]}}