{"Response":{"MetaInfo":{"Timestamp":"2020-03-28T10:07:45.700+0000","NextPageInformation":"2"},"View":[{"_type":"SearchResultsViewType","ViewId":0,"Result":[{"Relevance":1.0,"Distance":0.0,"Direction":0.0,"MatchLevel":"district","MatchQuality":{"Country":1.0,"State":1.0,"County":1.0,"City":1.0,"District":1.0,"PostalCode":1.0},"Location":{"LocationId":"NT_9dPd96XKQJSKVraOmeJ4YA","LocationType":"point","DisplayPosition":{"Latitude":51.4859675,"Longitude":-0.2324907},"MapView":{"TopLeft":{"Latitude":51.4892,"Longitude":-0.25577},"BottomRight":{"Latitude":51.46507,"Longitude":-0.22172}},"Address":{"Label":"Barnes, London, England, United Kingdom","Country":"GBR","State":"England","County":"London","City":"London","District":"Barnes","PostalCode":"SW13 9","AdditionalData":[{"value":"United Kingdom","key":"CountryName"},{"value":"England","key":"StateName"},{"value":"London","key":"CountyName"}]},"MapReference":{"ReferenceId":"25408128","SideOfStreet":"neither","StateId":"20248595","CountyId":"20337453","CityId":"20337454"}}},{"Relevance":1.0,"Distance":2.5,"MatchLevel":"houseNumber","MatchQuality":{"Country":1.0,"State":1.0,"County":1.0,"City":1.0,"District":1.0,"Street":[1.0],"HouseNumber":1.0,"PostalCode":1.0},"MatchType":"interpolated","Location":{"LocationId":"NT_QuZMmIXc754iHf5K.6qNXB_yADN","LocationType":"point","DisplayPosition":{"Latitude":51.48606,"Longitude":-0.23265},"MapView":{"TopLeft":{"Latitude":51.4871842,"Longitude":-0.2344553},"BottomRight":{"Latitude":51.4849358,"Longitude":-0.2308447}},"Address":{"Label":"204 Castelnau, London, SW13 9DW, United Kingdom","Country":"GBR","State":"England","County":"London","City":"London","District":"Barnes","Street":"Castelnau","HouseNumber":"204","PostalCode":"SW13 9DW","AdditionalData":[{"value":"United Kingdom","key":"CountryName"},{"value":"England","key":"StateName"},{"value":"London","key":"CountyName"}]},"MapReference":{"ReferenceId":"25407845","Spot":0.51,"SideOfStreet":"right","StateId":"20248595","CountyId":"20337453","CityId":"20337454","AddressId":"747727665","RoadLinkId":"82676538"}}},{"Relevance":1.0,"Distance":13.7,"MatchLevel":"houseNumber","MatchQuality":{"Country":1.0,"State":1.0,"County":1.0,"City":1.0,"District":1.0,"Street":[1.0],"HouseNumber":1.0,"PostalCode":1.0},"MatchType":"interpolated","Location":{"LocationId":"NT_QuZMmIXc754iHf5K.6qNXB_xkDOhB","LocationType":"point","DisplayPosition":{"Latitude":51.48594,"Longitude":-0.23277},"MapView":{"TopLeft":{"Latitude":51.4870642,"Longitude":-0.2345753},"BottomRight":{"Latitude":51.4848158,"Longitude":-0.2309647}},"Address":{"Label":"198a Castelnau, London, SW13 9, United Kingdom","Country":"GBR","State":"England","County":"London","City":"London","District":"Barnes","Street":"Castelnau","HouseNumber":"198a","PostalCode":"SW13 9","AdditionalData":[{"value":"United Kingdom","key":"CountryName"},{"value":"England","key":"StateName"},{"value":"London","key":"CountyName"}]},"MapReference":{"ReferenceId":"25407848","Spot":0.95,"SideOfStreet":"right","StateId":"20248595","CountyId":"20337453","CityId":"20337454","AddressId":"747518411","RoadLinkId":"82525068"}}},{"Relevance":1.0,"Distance":18.0,"MatchLevel":"houseNumber","MatchQuality":{"Country":1.0,"State":1.0,"County":1.0,"City":1.0,"District":1.0,"Street":[1.0],"HouseNumber":1.0,"PostalCode":1.0},"MatchType":"interpolated","Location":{"LocationId":"NT_rCefYPO9CvFSF5rlW2M9uC_xEG","LocationType":"point","DisplayPosition":{"Latitude":51.48564,"Longitude":-0.23271},"MapView":{"TopLeft":{"Latitude":51.4867642,"Longitude":-0.2345153},"BottomRight":{"Latitude":51.4845158,"Longitude":-0.2309047}},"Address":{"Label":"1a Merthyr Terrace, London, SW13 9, United Kingdom","Country":"GBR","State":"England","County":"London","City":"London","District":"Barnes","Street":"Merthyr Terrace","HouseNumber":"1a","PostalCode":"SW13 9","AdditionalData":[{"value":"United Kingdom","key":"CountryName"},{"value":"England","key":"StateName"},{"value":"London","key":"CountyName"}]},"MapReference":{"ReferenceId":"25436866","Spot":0.45,"SideOfStreet":"right","StateId":"20248595","CountyId":"20337453","CityId":"20337454","AddressId":"747567697","RoadLinkId":"82483548"}}},{"Relevance":1.0,"Distance":20.1,"MatchLevel":"houseNumber","MatchQuality":{"Country":1.0,"State":1.0,"County":1.0,"City":1.0,"District":1.0,"Street":[1.0],"HouseNumber":1.0,"PostalCode":1.0},"MatchType":"interpolated","Location":{"LocationId":"NT_FaDXXFKq7MCx7rBdxCOsqC_yA","LocationType":"point","DisplayPosition":{"Latitude":51.48595,"Longitude":-0.23278},"MapView":{"TopLeft":{"Latitude":51.4870742,"Longitude":-0.2345853},"BottomRight":{"Latitude":51.4848258,"Longitude":-0.2309747}},"Address":{"Label":"2 Lonsdale Road, London, SW13 9, United Kingdom","Country":"GBR","State":"England","County":"London","City":"London","District":"Barnes","Street":"Lonsdale Road","HouseNumber":"2","PostalCode":"SW13 9","AdditionalData":[{"value":"United Kingdom","key":"CountryName"},{"value":"England","key":"StateName"},{"value":"London","key":"CountyName"}]},"MapReference":{"ReferenceId":"25407846","Spot":0.02,"SideOfStreet":"right","StateId":"20248595","CountyId":"20337453","CityId":"20337454","AddressId":"763588945","RoadLinkId":"82368490"}}},{"Relevance":1.0,"Distance":20.4,"MatchLevel":"postalCode","MatchQuality":{"PostalCode":1.0},"MatchType":"interpolated","Location":{"LocationId":"NT_QuZMmIXc754iHf5K.6qNXB_xkDOhB","LocationType":"point","DisplayPosition":{"Latitude":51.48588,"Longitude":-0.23275},"MapView":{"TopLeft":{"Latitude":51.4948732,"Longitude":-0.2471921},"BottomRight":{"Latitude":51.4768868,"Longitude":-0.2183079}},"Address":{"Label":"SW13 9DW, London, England, United Kingdom","Country":"GBR","State":"England","County":"London","City":"London","PostalCode":"SW13 9DW","AdditionalData":[{"value":"United Kingdom","key":"CountryName"},{"value":"England","key":"StateName"},{"value":"London","key":"CountyName"}]},"MapReference":{"ReferenceId":"25407848","Spot":0.95,"SideOfStreet":"neither","StateId":"20248595","CountyId":"20337453","CityId":"20337454"}}},{"Relevance":1.0,"Distance":21.7,"MatchLevel":"houseNumber","MatchQuality":{"Country":1.0,"State":1.0,"County":1.0,"City":1.0,"District":1.0,"Street":[1.0],"HouseNumber":1.0,"PostalCode":1.0},"MatchType":"interpolated","Location":{"LocationId":"NT_QuZMmIXc754iHf5K.6qNXB_l_25407842_L_yAzM","LocationType":"point","DisplayPosition":{"Latitude":51.48616,"Longitude":-0.23254},"MapView":{"TopLeft":{"Latitude":51.4872842,"Longitude":-0.2343453},"BottomRight":{"Latitude":51.4850359,"Longitude":-0.2307347}},"Address":{"Label":"203 Castelnau, London, SW13 9, United Kingdom","Country":"GBR","State":"England","County":"London","City":"London","District":"Barnes","Street":"Castelnau","HouseNumber":"203","PostalCode":"SW13 9","AdditionalData":[{"value":"United Kingdom","key":"CountryName"},{"value":"England","key":"StateName"},{"value":"London","key":"CountyName"}]},"MapReference":{"ReferenceId":"25407842","Spot":0.0,"SideOfStreet":"left","StateId":"20248595","CountyId":"20337453","CityId":"20337454"}}},{"Relevance":1.0,"Distance":38.4,"MatchLevel":"houseNumber","MatchQuality":{"Country":1.0,"State":1.0,"County":1.0,"City":1.0,"District":1.0,"Street":[1.0],"HouseNumber":1.0,"PostalCode":1.0},"MatchType":"interpolated","Location":{"LocationId":"NT_LNOF1QSIvfkcpY1bfQqjHA_2A","LocationType":"point","DisplayPosition":{"Latitude":51.48589,"Longitude":-0.23191},"MapView":{"TopLeft":{"Latitude":51.4870142,"Longitude":-0.2337153},"BottomRight":{"Latitude":51.4847658,"Longitude":-0.2301047}},"Address":{"Label":"6 Arundel Terrace, London, SW13 8DP, United Kingdom","Country":"GBR","State":"England","County":"London","City":"London","District":"Barnes","Street":"Arundel Terrace","HouseNumber":"6","PostalCode":"SW13 8DP","AdditionalData":[{"value":"United Kingdom","key":"CountryName"},{"value":"England","key":"StateName"},{"value":"London","key":"CountyName"}]},"MapReference":{"ReferenceId":"783910715","Spot":0.66,"SideOfStreet":"left","StateId":"20248595","CountyId":"20337453","CityId":"20337454","AddressId":"748379939","RoadLinkId":"176782275"}}},{"Relevance":1.0,"Distance":39.3,"MatchLevel":"postalCode","MatchQuality":{"PostalCode":1.0},"MatchType":"interpolated","Location":{"LocationId":"NT_QuZMmIXc754iHf5K.6qNXB_yAzM","LocationType":"point","DisplayPosition":{"Latitude":51.4863,"Longitude":-0.2323},"MapView":{"TopLeft":{"Latitude":51.4952932,"Longitude":-0.2467423},"BottomRight":{"Latitude":51.4773068,"Longitude":-0.2178577}},"Address":{"Label":"SW13 9QU, London, England, United Kingdom","Country":"GBR","State":"England","County":"London","City":"London","PostalCode":"SW13 9QU","AdditionalData":[{"value":"United Kingdom","key":"CountryName"},{"value":"England","key":"StateName"},{"value":"London","key":"CountyName"}]},"MapReference":{"ReferenceId":"1218141122","Spot":0.73,"SideOfStreet":"neither","StateId":"20248595","CountyId":"20337453","CityId":"20337454"}}},{"Relevance":1.0,"Distance":43.8,"MatchLevel":"houseNumber","MatchQuality":{"Country":1.0,"State":1.0,"County":1.0,"City":1.0,"District":1.0,"Street":[1.0],"HouseNumber":1.0,"PostalCode":1.0},"MatchType":"interpolated","Location":{"LocationId":"NT_K8yA1R-PhyaFqJqoxUfPLA_1A","LocationType":"point","DisplayPosition":{"Latitude":51.4855,"Longitude":-0.23253},"MapView":{"TopLeft":{"Latitude":51.4866242,"Longitude":-0.2343352},"BottomRight":{"Latitude":51.4843758,"Longitude":-0.2307248}},"Address":{"Label":"5 Merthyr Terrace, London, SW13 8, United Kingdom","Country":"GBR","State":"England","County":"London","City":"London","District":"Barnes","Street":"Merthyr Terrace","HouseNumber":"5","PostalCode":"SW13 8","AdditionalData":[{"value":"United Kingdom","key":"CountryName"},{"value":"England","key":"StateName"},{"value":"London","key":"CountyName"}]},"MapReference":{"ReferenceId":"25991375","Spot":1.0,"SideOfStreet":"right","StateId":"20248595","CountyId":"20337453","CityId":"20337454","AddressId":"747775804","RoadLinkId":"82564597"}}}]}]}}