{"Response":{"MetaInfo":{"Timestamp":"2020-03-28T11:19:13.725+0000","NextPageInformation":"2"},"View":[{"_type":"SearchResultsViewType","ViewId":0,"Result":[{"Relevance":1.0,"Distance":0.0,"Direction":0.0,"MatchLevel":"city","MatchQuality":{"Country":1.0,"State":1.0,"County":1.0,"City":1.0,"PostalCode":1.0},"Location":{"LocationId":"NT_AP3PoLHpeA15ngMJxal4hC","LocationType":"point","DisplayPosition":{"Latitude":51.4347323,"Longitude":-0.1742543},"MapView":{"TopLeft":{"Latitude":51.68629,"Longitude":-0.56316},"BottomRight":{"Latitude":51.28043,"Longitude":0.28206}},"Address":{"Label":"London, England, United Kingdom","Country":"GBR","State":"England","County":"London","City":"London","PostalCode":"SW1A 2","AdditionalData":[{"value":"United Kingdom","key":"CountryName"},{"value":"England","key":"StateName"},{"value":"London","key":"CountyName"}]},"MapReference":{"ReferenceId":"943919791","SideOfStreet":"neither","StateId":"20248595","CountyId":"20337453","CityId":"20337454"}}},{"Relevance":1.0,"Distance":12.8,"MatchLevel":"landmark","MatchQuality":{"Country":1.0,"State":1.0,"County":1.0,"City":1.0,"PostalCode":1.0,"Name":1.0},"Location":{"LocationId":"NT_G-x97wihdsGOLhdRjxnG5A","LocationType":"sportsComplex","Name":"Battersea Ironsides Sports Club","DisplayPosition":{"Latitude":51.43964,"Longitude":-0.17652},"MapView":{"TopLeft":{"Latitude":51.44452,"Longitude":-0.18222},"BottomRight":{"Latitude":51.43476,"Longitude":-0.17063}},"Address":{"Label":"London, SW1A 2, United Kingdom","Country":"GBR","State":"England","County":"London","City":"London","PostalCode":"SW1A 2","AdditionalData":[{"value":"United Kingdom","key":"CountryName"},{"value":"England","key":"StateName"},{"value":"London","key":"CountyName"}]},"MapReference":{"StateId":"20248595","CountyId":"20337453","CityId":"20337454","PlaceId":"546505233"}}},{"Relevance":1.0,"Distance":12.8,"MatchLevel":"landmark","MatchQuality":{"Country":1.0,"State":1.0,"County":1.0,"City":1.0,"District":1.0,"PostalCode":1.0,"Name":1.0},"Location":{"LocationId":"NT_A64Lzf2Ujzjd4g-NB-ik4B_p_9K8lPUW7DSqB10tQgZpBiD","LocationType":"golfCourse","Name":"Central London Golf Centre","DisplayPosition":{"Latitude":51.43903,"Longitude":-0.17516},"MapView":{"TopLeft":{"Latitude":51.44021,"Longitude":-0.1787},"BottomRight":{"Latitude":51.43476,"Longitude":-0.17262}},"Address":{"Label":"London, SW17 0, United Kingdom","Country":"GBR","State":"England","County":"London","City":"London","District":"Tooting","PostalCode":"SW17 0","AdditionalData":[{"value":"United Kingdom","key":"CountryName"},{"value":"England","key":"StateName"},{"value":"London","key":"CountyName"}]},"MapReference":{"StateId":"20248595","CountyId":"20337453","CityId":"20337454","PlaceId":"18026551"}}},{"Relevance":1.0,"Distance":66.9,"MatchLevel":"houseNumber","MatchQuality":{"Country":1.0,"State":1.0,"County":1.0,"City":1.0,"District":1.0,"Street":[1.0],"PostalCode":1.0},"MatchType":"interpolated","Location":{"LocationId":"NT_8ExL4gM6oCAQ-hK1KG2sBB","LocationType":"point","DisplayPosition":{"Latitude":51.43499,"Longitude":-0.17559},"MapView":{"TopLeft":{"Latitude":51.4361142,"Longitude":-0.1773933},"BottomRight":{"Latitude":51.4338658,"Longitude":-0.1737867}},"Address":{"Label":"St George's Grove, London, SW17 0, United Kingdom","Country":"GBR","State":"England","County":"London","City":"London","District":"Tooting","Street":"St George's Grove","PostalCode":"SW17 0","AdditionalData":[{"value":"United Kingdom","key":"CountryName"},{"value":"England","key":"StateName"},{"value":"London","key":"CountyName"}],"Building":"Fitzgerald House"},"MapReference":{"ReferenceId":"990756057","Spot":0.04,"SideOfStreet":"right","StateId":"20248595","CountyId":"20337453","CityId":"20337454","AddressId":"763485391","RoadLinkId":"319429415"}}},{"Relevance":1.0,"Distance":90.9,"MatchLevel":"houseNumber","MatchQuality":{"Country":1.0,"State":1.0,"County":1.0,"City":1.0,"District":1.0,"Street":[1.0],"HouseNumber":1.0,"PostalCode":1.0},"MatchType":"interpolated","Location":{"LocationId":"NT_pdoQLSYWEzQsmYx4pMDinC_xA","LocationType":"point","DisplayPosition":{"Latitude":51.43506,"Longitude":-0.17286},"MapView":{"TopLeft":{"Latitude":51.4361842,"Longitude":-0.1746633},"BottomRight":{"Latitude":51.4339358,"Longitude":-0.1710567}},"Address":{"Label":"1 Glenburnie Road, London, SW17 0, United Kingdom","Country":"GBR","State":"England","County":"London","City":"London","District":"Tooting","Street":"Glenburnie Road","HouseNumber":"1","PostalCode":"SW17 0","AdditionalData":[{"value":"United Kingdom","key":"CountryName"},{"value":"England","key":"StateName"},{"value":"London","key":"CountyName"}]},"MapReference":{"ReferenceId":"850561318","Spot":0.5,"SideOfStreet":"left","StateId":"20248595","CountyId":"20337453","CityId":"20337454","AddressId":"757160380","RoadLinkId":"531940233"}}},{"Relevance":1.0,"Distance":93.9,"MatchLevel":"postalCode","MatchQuality":{"PostalCode":1.0},"MatchType":"interpolated","Location":{"LocationId":"NT_8ExL4gM6oCAQ-hK1KG2sBB","LocationType":"point","DisplayPosition":{"Latitude":51.43505,"Longitude":-0.17551},"MapView":{"TopLeft":{"Latitude":51.4440432,"Longitude":-0.189936},"BottomRight":{"Latitude":51.4260568,"Longitude":-0.161084}},"Address":{"Label":"SW17 0GL, London, England, United Kingdom","Country":"GBR","State":"England","County":"London","City":"London","PostalCode":"SW17 0GL","AdditionalData":[{"value":"United Kingdom","key":"CountryName"},{"value":"England","key":"StateName"},{"value":"London","key":"CountyName"}]},"MapReference":{"ReferenceId":"990756057","Spot":0.04,"SideOfStreet":"neither","StateId":"20248595","CountyId":"20337453","CityId":"20337454"}}},{"Relevance":1.0,"Distance":99.0,"MatchLevel":"street","MatchQuality":{"Country":1.0,"State":1.0,"County":1.0,"City":1.0,"District":1.0,"PostalCode":1.0},"Location":{"LocationId":"NT_Uwk6iWX8y5RVhbfROGg7fD_l_840864585_R","LocationType":"point","DisplayPosition":{"Latitude":51.4338565,"Longitude":-0.1745104},"MapView":{"TopLeft":{"Latitude":51.43426,"Longitude":-0.17754},"BottomRight":{"Latitude":51.43191,"Longitude":-0.17377}},"Address":{"Label":"London, SW17 0, United Kingdom","Country":"GBR","State":"England","County":"London","City":"London","District":"Tooting","PostalCode":"SW17 0","AdditionalData":[{"value":"United Kingdom","key":"CountryName"},{"value":"England","key":"StateName"},{"value":"London","key":"CountyName"}]},"MapReference":{"ReferenceId":"840864585","Spot":0.61,"SideOfStreet":"right","StateId":"20248595","CountyId":"20337453","CityId":"20337454"}}},{"Relevance":1.0,"Distance":103.0,"MatchLevel":"houseNumber","MatchQuality":{"Country":1.0,"State":1.0,"County":1.0,"City":1.0,"District":1.0,"Street":[1.0],"PostalCode":1.0},"MatchType":"interpolated","Location":{"LocationId":"NT_1qM0dyRtfkuEE8I5ky4K1B","LocationType":"point","DisplayPosition":{"Latitude":51.4349,"Longitude":-0.17584},"MapView":{"TopLeft":{"Latitude":51.4360242,"Longitude":-0.1776432},"BottomRight":{"Latitude":51.4337758,"Longitude":-0.1740368}},"Address":{"Label":"Grosvenor Way, London, SW17 0, United Kingdom","Country":"GBR","State":"England","County":"London","City":"London","District":"Tooting","Street":"Grosvenor Way","PostalCode":"SW17 0","AdditionalData":[{"value":"United Kingdom","key":"CountryName"},{"value":"England","key":"StateName"},{"value":"London","key":"CountyName"}],"Building":"Hardy House"},"MapReference":{"ReferenceId":"990756056","Spot":0.86,"SideOfStreet":"right","StateId":"20248595","CountyId":"20337453","CityId":"20337454","AddressId":"763540279","RoadLinkId":"319429414"}}},{"Relevance":1.0,"Distance":104.0,"MatchLevel":"street","MatchQuality":{"Country":1.0,"State":1.0,"County":1.0,"City":1.0,"District":1.0,"Street":[1.0],"PostalCode":1.0},"Location":{"LocationId":"NT_pdoQLSYWEzQsmYx4pMDinC_l_840865319_L","LocationType":"point","DisplayPosition":{"Latitude":51.43529,"Longitude":-0.17305},"MapView":{"TopLeft":{"Latitude":51.43596,"Longitude":-0.17305},"BottomRight":{"Latitude":51.43529,"Longitude":-0.17262}},"Address":{"Label":"Glenburnie Road, London, SW17 0, United Kingdom","Country":"GBR","State":"England","County":"London","City":"London","District":"Tooting","Street":"Glenburnie Road","PostalCode":"SW17 0","AdditionalData":[{"value":"United Kingdom","key":"CountryName"},{"value":"England","key":"StateName"},{"value":"London","key":"CountyName"}]},"MapReference":{"ReferenceId":"840865319","Spot":0.0,"SideOfStreet":"left","StateId":"20248595","CountyId":"20337453","CityId":"20337454"}}},{"Relevance":1.0,"Distance":109.3,"MatchLevel":"postalCode","MatchQuality":{"PostalCode":1.0},"MatchType":"interpolated","Location":{"LocationId":"NT_1qM0dyRtfkuEE8I5ky4K1B","LocationType":"point","DisplayPosition":{"Latitude":51.43485,"Longitude":-0.17582},"MapView":{"TopLeft":{"Latitude":51.4438432,"Longitude":-0.190246},"BottomRight":{"Latitude":51.4258568,"Longitude":-0.161394}},"Address":{"Label":"SW17 0GA, London, England, United Kingdom","Country":"GBR","State":"England","County":"London","City":"London","PostalCode":"SW17 0GA","AdditionalData":[{"value":"United Kingdom","key":"CountryName"},{"value":"England","key":"StateName"},{"value":"London","key":"CountyName"}]},"MapReference":{"ReferenceId":"990756056","Spot":0.86,"SideOfStreet":"neither","StateId":"20248595","CountyId":"20337453","CityId":"20337454"}}}]}]}}