{"Response":{"MetaInfo":{"Timestamp":"2020-03-28T09:53:13.092+0000","NextPageInformation":"2"},"View":[{"_type":"SearchResultsViewType","ViewId":0,"Result":[{"Relevance":1.0,"Distance":0.0,"Direction":0.0,"MatchLevel":"district","MatchQuality":{"Country":1.0,"State":1.0,"County":1.0,"City":1.0,"District":1.0,"PostalCode":1.0},"Location":{"LocationId":"NT_cPyW8rU9U2hj-dU7rqyu1C","LocationType":"point","DisplayPosition":{"Latitude":51.4542436,"Longitude":-2.6183106},"MapView":{"TopLeft":{"Latitude":51.51753,"Longitude":-2.65532},"BottomRight":{"Latitude":51.39937,"Longitude":-2.51087}},"Address":{"Label":"Bristol, England, United Kingdom","Country":"GBR","State":"England","County":"Avon","City":"Bristol","District":"Bristol","PostalCode":"BS1 6","AdditionalData":[{"value":"United Kingdom","key":"CountryName"},{"value":"England","key":"StateName"},{"value":"Avon","key":"CountyName"}]},"MapReference":{"ReferenceId":"786168041","SideOfStreet":"neither","StateId":"20248595","CountyId":"20352323","CityId":"20352420","DistrictId":"20352421"}}},{"Relevance":1.0,"Distance":10.8,"MatchLevel":"postalCode","MatchQuality":{"PostalCode":1.0},"MatchType":"interpolated","Location":{"LocationId":"NT_MqEwxtCjuI.jmeiknVlyEC_l_26727036_R_yID","LocationType":"point","DisplayPosition":{"Latitude":51.45417,"Longitude":-2.61821},"MapView":{"TopLeft":{"Latitude":51.4631632,"Longitude":-2.6326421},"BottomRight":{"Latitude":51.4451768,"Longitude":-2.6037779}},"Address":{"Label":"BS8 4HG, Bristol, England, United Kingdom","Country":"GBR","State":"England","County":"Avon","City":"Bristol","PostalCode":"BS8 4HG","AdditionalData":[{"value":"United Kingdom","key":"CountryName"},{"value":"England","key":"StateName"},{"value":"Avon","key":"CountyName"}]},"MapReference":{"ReferenceId":"26727036","Spot":0.8,"SideOfStreet":"neither","StateId":"20248595","CountyId":"20352323","CityId":"20352420"}}},{"Relevance":1.0,"Distance":16.3,"MatchLevel":"houseNumber","MatchQuality":{"Country":1.0,"State":1.0,"County":1.0,"City":1.0,"District":1.0,"Street":[1.0],"HouseNumber":1.0,"PostalCode":1.0},"MatchType":"interpolated","Location":{"LocationId":"NT_MqEwxtCjuI.jmeiknVlyEC_l_26726822_R_yQD","LocationType":"point","DisplayPosition":{"Latitude":51.45433,"Longitude":-2.6185},"MapView":{"TopLeft":{"Latitude":51.4554542,"Longitude":-2.620304},"BottomRight":{"Latitude":51.4532059,"Longitude":-2.616696}},"Address":{"Label":"24 Regent Street, Bristol, BS8 4HG, United Kingdom","Country":"GBR","State":"England","County":"Avon","City":"Bristol","District":"Bristol","Street":"Regent Street","HouseNumber":"24","PostalCode":"BS8 4HG","AdditionalData":[{"value":"United Kingdom","key":"CountryName"},{"value":"England","key":"StateName"},{"value":"Avon","key":"CountyName"}]},"MapReference":{"ReferenceId":"26726822","Spot":0.36,"SideOfStreet":"right","StateId":"20248595","CountyId":"20352323","CityId":"20352420","DistrictId":"20352421"}}},{"Relevance":1.0,"Distance":16.4,"MatchLevel":"houseNumber","MatchQuality":{"Country":1.0,"State":1.0,"County":1.0,"City":1.0,"District":1.0,"Street":[1.0],"HouseNumber":1.0,"PostalCode":1.0},"MatchType":"interpolated","Location":{"LocationId":"NT_MqEwxtCjuI.jmeiknVlyEC_l_26727036_R_yID","LocationType":"point","DisplayPosition":{"Latitude":51.4540735,"Longitude":-2.6181779},"MapView":{"TopLeft":{"Latitude":51.4551976,"Longitude":-2.6199819},"BottomRight":{"Latitude":51.4529493,"Longitude":-2.6163739}},"Address":{"Label":"22 Regent Street, Bristol, BS8 4HG, United Kingdom","Country":"GBR","State":"England","County":"Avon","City":"Bristol","District":"Bristol","Street":"Regent Street","HouseNumber":"22","PostalCode":"BS8 4HG","AdditionalData":[{"value":"United Kingdom","key":"CountryName"},{"value":"England","key":"StateName"},{"value":"Avon","key":"CountyName"}]},"MapReference":{"ReferenceId":"26727036","Spot":0.8,"SideOfStreet":"right","StateId":"20248595","CountyId":"20352323","CityId":"20352420","DistrictId":"20352421"}}},{"Relevance":1.0,"Distance":24.3,"MatchLevel":"postalCode","MatchQuality":{"PostalCode":1.0},"MatchType":"interpolated","Location":{"LocationId":"NT_la52xqtfmHcf0FQE1PDkMA_l_26726884_R_1ID","LocationType":"point","DisplayPosition":{"Latitude":51.45412,"Longitude":-2.6186},"MapView":{"TopLeft":{"Latitude":51.4631132,"Longitude":-2.6330321},"BottomRight":{"Latitude":51.4451268,"Longitude":-2.6041679}},"Address":{"Label":"BS8 4JP, Bristol, England, United Kingdom","Country":"GBR","State":"England","County":"Avon","City":"Bristol","PostalCode":"BS8 4JP","AdditionalData":[{"value":"United Kingdom","key":"CountryName"},{"value":"England","key":"StateName"},{"value":"Avon","key":"CountyName"}]},"MapReference":{"ReferenceId":"26726884","Spot":0.61,"SideOfStreet":"neither","StateId":"20248595","CountyId":"20352323","CityId":"20352420"}}},{"Relevance":1.0,"Distance":24.6,"MatchLevel":"houseNumber","MatchQuality":{"Country":1.0,"State":1.0,"County":1.0,"City":1.0,"District":1.0,"Street":[1.0],"HouseNumber":1.0,"PostalCode":1.0},"MatchType":"interpolated","Location":{"LocationId":"NT_BfDNAwdQoKQhxY.WEFnUzD_l_26726760_R_xYD","LocationType":"point","DisplayPosition":{"Latitude":51.4545801,"Longitude":-2.6184898},"MapView":{"TopLeft":{"Latitude":51.4557042,"Longitude":-2.6202938},"BottomRight":{"Latitude":51.4534559,"Longitude":-2.6166858}},"Address":{"Label":"16 Merchants Road, Bristol, BS8 4EP, United Kingdom","Country":"GBR","State":"England","County":"Avon","City":"Bristol","District":"Bristol","Street":"Merchants Road","HouseNumber":"16","PostalCode":"BS8 4EP","AdditionalData":[{"value":"United Kingdom","key":"CountryName"},{"value":"England","key":"StateName"},{"value":"Avon","key":"CountyName"}]},"MapReference":{"ReferenceId":"26726760","Spot":0.08,"SideOfStreet":"right","StateId":"20248595","CountyId":"20352323","CityId":"20352420","DistrictId":"20352421"}}},{"Relevance":1.0,"Distance":25.0,"MatchLevel":"houseNumber","MatchQuality":{"Country":1.0,"State":1.0,"County":1.0,"City":1.0,"District":1.0,"Street":[1.0],"HouseNumber":1.0,"PostalCode":1.0},"MatchType":"interpolated","Location":{"LocationId":"NT_la52xqtfmHcf0FQE1PDkMA_l_26726884_R_1ID","LocationType":"point","DisplayPosition":{"Latitude":51.4541525,"Longitude":-2.61864},"MapView":{"TopLeft":{"Latitude":51.4552767,"Longitude":-2.620444},"BottomRight":{"Latitude":51.4530284,"Longitude":-2.616836}},"Address":{"Label":"52 Royal York Crescent, Bristol, BS8 4, United Kingdom","Country":"GBR","State":"England","County":"Avon","City":"Bristol","District":"Bristol","Street":"Royal York Crescent","HouseNumber":"52","PostalCode":"BS8 4","AdditionalData":[{"value":"United Kingdom","key":"CountryName"},{"value":"England","key":"StateName"},{"value":"Avon","key":"CountyName"}]},"MapReference":{"ReferenceId":"26726884","Spot":0.61,"SideOfStreet":"right","StateId":"20248595","CountyId":"20352323","CityId":"20352420","DistrictId":"20352421"}}},{"Relevance":1.0,"Distance":44.3,"MatchLevel":"houseNumber","MatchQuality":{"Country":1.0,"State":1.0,"County":1.0,"City":1.0,"District":1.0,"Street":[1.0],"HouseNumber":1.0,"PostalCode":1.0},"MatchType":"interpolated","Location":{"LocationId":"NT_4dgEQT3JaOSvaECRZTJ1DA_l_826854496_R_xA","LocationType":"point","DisplayPosition":{"Latitude":51.453864,"Longitude":-2.61891},"MapView":{"TopLeft":{"Latitude":51.4549882,"Longitude":-2.620714},"BottomRight":{"Latitude":51.4527399,"Longitude":-2.617106}},"Address":{"Label":"1 Royal York Villas, Bristol, BS8 4JR, United Kingdom","Country":"GBR","State":"England","County":"Avon","City":"Bristol","District":"Bristol","Street":"Royal York Villas","HouseNumber":"1","PostalCode":"BS8 4JR","AdditionalData":[{"value":"United Kingdom","key":"CountryName"},{"value":"England","key":"StateName"},{"value":"Avon","key":"CountyName"}]},"MapReference":{"ReferenceId":"826854496","Spot":0.65,"SideOfStreet":"right","StateId":"20248595","CountyId":"20352323","CityId":"20352420","DistrictId":"20352421"}}},{"Relevance":1.0,"Distance":47.0,"MatchLevel":"postalCode","MatchQuality":{"PostalCode":1.0},"MatchType":"interpolated","Location":{"LocationId":"NT_MqEwxtCjuI.jmeiknVlyEC_l_26726761_R_0YD","LocationType":"point","DisplayPosition":{"Latitude":51.45456,"Longitude":-2.61876},"MapView":{"TopLeft":{"Latitude":51.4635532,"Longitude":-2.6331922},"BottomRight":{"Latitude":51.4455668,"Longitude":-2.6043278}},"Address":{"Label":"BS8 4HR, Bristol, England, United Kingdom","Country":"GBR","State":"England","County":"Avon","City":"Bristol","PostalCode":"BS8 4HR","AdditionalData":[{"value":"United Kingdom","key":"CountryName"},{"value":"England","key":"StateName"},{"value":"Avon","key":"CountyName"}]},"MapReference":{"ReferenceId":"26726761","Spot":0.3,"SideOfStreet":"neither","StateId":"20248595","CountyId":"20352323","CityId":"20352420"}}},{"Relevance":1.0,"Distance":51.3,"MatchLevel":"houseNumber","MatchQuality":{"Country":1.0,"State":1.0,"County":1.0,"City":1.0,"District":1.0,"Street":[1.0],"HouseNumber":1.0,"PostalCode":1.0},"MatchType":"interpolated","Location":{"LocationId":"NT_-csQGDniJdxyd7Y4WQ.U8B_l_26790247_L_zA","LocationType":"point","DisplayPosition":{"Latitude":51.4539392,"Longitude":-2.6175001},"MapView":{"TopLeft":{"Latitude":51.4550633,"Longitude":-2.6193041},"BottomRight":{"Latitude":51.452815,"Longitude":-2.6156961}},"Address":{"Label":"3 Saville Place, Bristol, BS8 4EJ, United Kingdom","Country":"GBR","State":"England","County":"Avon","City":"Bristol","District":"Bristol","Street":"Saville Place","HouseNumber":"3","PostalCode":"BS8 4EJ","AdditionalData":[{"value":"United Kingdom","key":"CountryName"},{"value":"England","key":"StateName"},{"value":"Avon","key":"CountyName"}]},"MapReference":{"ReferenceId":"26790247","Spot":0.54,"SideOfStreet":"left","StateId":"20248595","CountyId":"20352323","CityId":"20352420","DistrictId":"20352421"}}}]}]}}