{"Response":{"MetaInfo":{"Timestamp":"2020-03-28T09:53:04.421+0000","NextPageInformation":"2"},"View":[{"_type":"SearchResultsViewType","ViewId":0,"Result":[{"Relevance":1.0,"Distance":0.0,"Direction":0.0,"MatchLevel":"district","MatchQuality":{"Country":1.0,"State":1.0,"County":1.0,"City":1.0,"District":1.0,"PostalCode":1.0},"Location":{"LocationId":"NT_GfwV7VZeNUsxfkHTwSo4vC","LocationType":"point","DisplayPosition":{"Latitude":51.4690966,"Longitude":-2.6139807},"MapView":{"TopLeft":{"Latitude":51.47528,"Longitude":-2.61639},"BottomRight":{"Latitude":51.46509,"Longitude":-2.60757}},"Address":{"Label":"Durdham Park, Bristol, England, United Kingdom","Country":"GBR","State":"England","County":"Avon","City":"Bristol","District":"Durdham Park","PostalCode":"BS6 6","AdditionalData":[{"value":"United Kingdom","key":"CountryName"},{"value":"England","key":"StateName"},{"value":"Avon","key":"CountyName"}]},"MapReference":{"ReferenceId":"26722826","SideOfStreet":"neither","StateId":"20248595","CountyId":"20352323","CityId":"20352420","DistrictId":"20352473"}}},{"Relevance":1.0,"Distance":5.9,"MatchLevel":"postalCode","MatchQuality":{"PostalCode":1.0},"MatchType":"interpolated","Location":{"LocationId":"NT_wV81UMg6sOyrtIu4IW3d2A_l_1197799946_R_xgzM","LocationType":"point","DisplayPosition":{"Latitude":51.46914,"Longitude":-2.61403},"MapView":{"TopLeft":{"Latitude":51.4781332,"Longitude":-2.6284668},"BottomRight":{"Latitude":51.4601468,"Longitude":-2.5995932}},"Address":{"Label":"BS8 2RY, Bristol, England, United Kingdom","Country":"GBR","State":"England","County":"Avon","City":"Bristol","PostalCode":"BS8 2RY","AdditionalData":[{"value":"United Kingdom","key":"CountryName"},{"value":"England","key":"StateName"},{"value":"Avon","key":"CountyName"}]},"MapReference":{"ReferenceId":"1197799946","Spot":0.51,"SideOfStreet":"neither","StateId":"20248595","CountyId":"20352323","CityId":"20352420"}}},{"Relevance":1.0,"Distance":5.9,"MatchLevel":"postalCode","MatchQuality":{"PostalCode":1.0},"MatchType":"interpolated","Location":{"LocationId":"NT_AY6g54HjgTDJRJJHDa55-A_l_1197799945_R_xcTO","LocationType":"point","DisplayPosition":{"Latitude":51.46914,"Longitude":-2.61403},"MapView":{"TopLeft":{"Latitude":51.4781332,"Longitude":-2.6284668},"BottomRight":{"Latitude":51.4601468,"Longitude":-2.5995932}},"Address":{"Label":"BS8 2AG, Bristol, England, United Kingdom","Country":"GBR","State":"England","County":"Avon","City":"Bristol","PostalCode":"BS8 2AG","AdditionalData":[{"value":"United Kingdom","key":"CountryName"},{"value":"England","key":"StateName"},{"value":"Avon","key":"CountyName"}]},"MapReference":{"ReferenceId":"1197799945","Spot":0.8,"SideOfStreet":"neither","StateId":"20248595","CountyId":"20352323","CityId":"20352420"}}},{"Relevance":1.0,"Distance":6.6,"MatchLevel":"houseNumber","MatchQuality":{"Country":1.0,"State":1.0,"County":1.0,"City":1.0,"District":1.0,"Street":[1.0],"HouseNumber":1.0,"PostalCode":1.0},"MatchType":"interpolated","Location":{"LocationId":"NT_wV81UMg6sOyrtIu4IW3d2A_l_1197799946_R_xgzM","LocationType":"point","DisplayPosition":{"Latitude":51.469109,"Longitude":-2.6140745},"MapView":{"TopLeft":{"Latitude":51.4702332,"Longitude":-2.6158791},"BottomRight":{"Latitude":51.4679849,"Longitude":-2.6122699}},"Address":{"Label":"183 Whiteladies Road, Bristol, BS8 2RY, United Kingdom","Country":"GBR","State":"England","County":"Avon","City":"Bristol","District":"Bristol","Street":"Whiteladies Road","HouseNumber":"183","PostalCode":"BS8 2RY","AdditionalData":[{"value":"United Kingdom","key":"CountryName"},{"value":"England","key":"StateName"},{"value":"Avon","key":"CountyName"}]},"MapReference":{"ReferenceId":"1197799946","Spot":0.51,"SideOfStreet":"right","StateId":"20248595","CountyId":"20352323","CityId":"20352420","DistrictId":"20352421"}}},{"Relevance":1.0,"Distance":9.6,"MatchLevel":"houseNumber","MatchQuality":{"Country":1.0,"State":1.0,"County":1.0,"City":1.0,"District":1.0,"Street":[1.0],"HouseNumber":1.0,"PostalCode":1.0},"MatchType":"interpolated","Location":{"LocationId":"NT_AY6g54HjgTDJRJJHDa55-A_l_1197799945_R_xcTO","LocationType":"point","DisplayPosition":{"Latitude":51.46897,"Longitude":-2.613988},"MapView":{"TopLeft":{"Latitude":51.4700942,"Longitude":-2.6157926},"BottomRight":{"Latitude":51.4678459,"Longitude":-2.6121834}},"Address":{"Label":"179 Whiteladies Road, Bristol, BS8 2AG, United Kingdom","Country":"GBR","State":"England","County":"Avon","City":"Bristol","District":"Bristol","Street":"Whiteladies Road","HouseNumber":"179","PostalCode":"BS8 2AG","AdditionalData":[{"value":"United Kingdom","key":"CountryName"},{"value":"England","key":"StateName"},{"value":"Avon","key":"CountyName"}]},"MapReference":{"ReferenceId":"1197799945","Spot":0.8,"SideOfStreet":"right","StateId":"20248595","CountyId":"20352323","CityId":"20352420","DistrictId":"20352421"}}},{"Relevance":1.0,"Distance":11.9,"MatchLevel":"houseNumber","MatchQuality":{"Country":1.0,"State":1.0,"County":1.0,"City":1.0,"District":1.0,"Street":[1.0],"HouseNumber":1.0,"PostalCode":1.0},"MatchType":"interpolated","Location":{"LocationId":"NT_wV81UMg6sOyrtIu4IW3d2A_l_26723282_R_xgTN","LocationType":"point","DisplayPosition":{"Latitude":51.46922,"Longitude":-2.61413},"MapView":{"TopLeft":{"Latitude":51.4703442,"Longitude":-2.6159346},"BottomRight":{"Latitude":51.4680959,"Longitude":-2.6123254}},"Address":{"Label":"185 Whiteladies Road, Bristol, BS8 2RY, United Kingdom","Country":"GBR","State":"England","County":"Avon","City":"Bristol","District":"Bristol","Street":"Whiteladies Road","HouseNumber":"185","PostalCode":"BS8 2RY","AdditionalData":[{"value":"United Kingdom","key":"CountryName"},{"value":"England","key":"StateName"},{"value":"Avon","key":"CountyName"}]},"MapReference":{"ReferenceId":"26723282","Spot":0.0,"SideOfStreet":"right","StateId":"20248595","CountyId":"20352323","CityId":"20352420","DistrictId":"20352421"}}},{"Relevance":1.0,"Distance":17.1,"MatchLevel":"houseNumber","MatchQuality":{"Country":1.0,"State":1.0,"County":1.0,"City":1.0,"District":1.0,"Street":[1.0],"HouseNumber":1.0,"PostalCode":1.0},"MatchType":"interpolated","Location":{"LocationId":"NT_15TyLBDqXYNs-0FFtP20WB_l_971679721_L_yA","LocationType":"point","DisplayPosition":{"Latitude":51.4688167,"Longitude":-2.6140067},"MapView":{"TopLeft":{"Latitude":51.4699408,"Longitude":-2.6158112},"BottomRight":{"Latitude":51.4676925,"Longitude":-2.6122021}},"Address":{"Label":"2 Wellington Park, Bristol, BS8 2UT, United Kingdom","Country":"GBR","State":"England","County":"Avon","City":"Bristol","District":"Bristol","Street":"Wellington Park","HouseNumber":"2","PostalCode":"BS8 2UT","AdditionalData":[{"value":"United Kingdom","key":"CountryName"},{"value":"England","key":"StateName"},{"value":"Avon","key":"CountyName"}]},"MapReference":{"ReferenceId":"971679721","Spot":0.67,"SideOfStreet":"left","StateId":"20248595","CountyId":"20352323","CityId":"20352420","DistrictId":"20352421"}}},{"Relevance":1.0,"Distance":17.2,"MatchLevel":"houseNumber","MatchQuality":{"Country":1.0,"State":1.0,"County":1.0,"City":1.0,"District":1.0,"Street":[1.0],"HouseNumber":1.0,"PostalCode":1.0},"MatchType":"interpolated","Location":{"LocationId":"NT_wV81UMg6sOyrtIu4IW3d2A_l_26851322_L_xQjM","LocationType":"point","DisplayPosition":{"Latitude":51.46922,"Longitude":-2.61413},"MapView":{"TopLeft":{"Latitude":51.4703442,"Longitude":-2.6159346},"BottomRight":{"Latitude":51.4680959,"Longitude":-2.6123254}},"Address":{"Label":"142 Whiteladies Road, Bristol, BS8 2RS, United Kingdom","Country":"GBR","State":"England","County":"Avon","City":"Bristol","District":"Bristol","Street":"Whiteladies Road","HouseNumber":"142","PostalCode":"BS8 2RS","AdditionalData":[{"value":"United Kingdom","key":"CountryName"},{"value":"England","key":"StateName"},{"value":"Avon","key":"CountyName"}]},"MapReference":{"ReferenceId":"26851322","Spot":0.0,"SideOfStreet":"left","StateId":"20248595","CountyId":"20352323","CityId":"20352420","DistrictId":"20352421"}}},{"Relevance":1.0,"Distance":18.9,"MatchLevel":"houseNumber","MatchQuality":{"Country":1.0,"State":1.0,"County":1.0,"City":1.0,"District":1.0,"Street":[1.0],"HouseNumber":1.0,"PostalCode":1.0},"MatchType":"interpolated","Location":{"LocationId":"NT_4XX6lolgCh6QSdCa6Mr-.B_l_26723246_R_xA","LocationType":"point","DisplayPosition":{"Latitude":51.4694,"Longitude":-2.61395},"MapView":{"TopLeft":{"Latitude":51.4705242,"Longitude":-2.6157546},"BottomRight":{"Latitude":51.4682758,"Longitude":-2.6121454}},"Address":{"Label":"1 Woodbury Lane, Bristol, BS8 2SE, United Kingdom","Country":"GBR","State":"England","County":"Avon","City":"Bristol","District":"Bristol","Street":"Woodbury Lane","HouseNumber":"1","PostalCode":"BS8 2SE","AdditionalData":[{"value":"United Kingdom","key":"CountryName"},{"value":"England","key":"StateName"},{"value":"Avon","key":"CountyName"}]},"MapReference":{"ReferenceId":"26723246","Spot":0.14,"SideOfStreet":"right","StateId":"20248595","CountyId":"20352323","CityId":"20352420","DistrictId":"20352421"}}},{"Relevance":1.0,"Distance":19.3,"MatchLevel":"houseNumber","MatchQuality":{"Country":1.0,"State":1.0,"County":1.0,"City":1.0,"District":1.0,"Street":[1.0],"HouseNumber":1.0,"PostalCode":1.0},"MatchType":"interpolated","Location":{"LocationId":"NT_uDyyuL.5MI.0vFSGONkmsD_l_26723369_L_zA","LocationType":"point","DisplayPosition":{"Latitude":51.4689,"Longitude":-2.6136899},"MapView":{"TopLeft":{"Latitude":51.4700242,"Longitude":-2.6154945},"BottomRight":{"Latitude":51.4677759,"Longitude":-2.6118853}},"Address":{"Label":"3 Lower Redland Road, Bristol, BS8 2RL, United Kingdom","Country":"GBR","State":"England","County":"Avon","City":"Bristol","District":"Durdham Park","Street":"Lower Redland Road","HouseNumber":"3","PostalCode":"BS8 2RL","AdditionalData":[{"value":"United Kingdom","key":"CountryName"},{"value":"England","key":"StateName"},{"value":"Avon","key":"CountyName"}]},"MapReference":{"ReferenceId":"26723369","Spot":0.23,"SideOfStreet":"left","StateId":"20248595","CountyId":"20352323","CityId":"20352420","DistrictId":"20352473"}}}]}]}}