{"Response":{"MetaInfo":{"Timestamp":"2020-03-28T10:31:29.690+0000","NextPageInformation":"2"},"View":[{"_type":"SearchResultsViewType","ViewId":0,"Result":[{"Relevance":1.0,"Distance":0.0,"Direction":0.0,"MatchLevel":"district","MatchQuality":{"Country":1.0,"State":1.0,"County":1.0,"City":1.0,"District":1.0,"PostalCode":1.0},"Location":{"LocationId":"NT_Ek0UAZrdkheSjLblpLykDB","LocationType":"point","DisplayPosition":{"Latitude":51.4533114,"Longitude":-0.9826901},"MapView":{"TopLeft":{"Latitude":51.49313,"Longitude":-1.06499},"BottomRight":{"Latitude":51.4115,"Longitude":-0.92837}},"Address":{"Label":"Reading, England, United Kingdom","Country":"GBR","State":"England","County":"Berkshire","City":"Reading","District":"Reading","PostalCode":"RG1 4","AdditionalData":[{"value":"United Kingdom","key":"CountryName"},{"value":"England","key":"StateName"},{"value":"Berkshire","key":"CountyName"}]},"MapReference":{"ReferenceId":"25821342","SideOfStreet":"neither","StateId":"20248595","CountyId":"20334448","CityId":"20334562","DistrictId":"20334563"}}},{"Relevance":1.0,"Distance":4.7,"MatchLevel":"houseNumber","MatchQuality":{"Country":1.0,"State":1.0,"County":1.0,"City":1.0,"District":1.0,"Street":[1.0],"HouseNumber":1.0,"PostalCode":1.0},"MatchType":"interpolated","Location":{"LocationId":"NT_raVchxIGql2pwH8Z1FKcwA_l_25821448_R_zkD","LocationType":"point","DisplayPosition":{"Latitude":51.4533329,"Longitude":-0.9828431},"MapView":{"TopLeft":{"Latitude":51.4544571,"Longitude":-0.9846471},"BottomRight":{"Latitude":51.4522088,"Longitude":-0.9810392}},"Address":{"Label":"39 Russell Street, Reading, RG1 7, United Kingdom","Country":"GBR","State":"England","County":"Berkshire","City":"Reading","District":"Reading","Street":"Russell Street","HouseNumber":"39","PostalCode":"RG1 7","AdditionalData":[{"value":"United Kingdom","key":"CountryName"},{"value":"England","key":"StateName"},{"value":"Berkshire","key":"CountyName"}]},"MapReference":{"ReferenceId":"25821448","Spot":0.15,"SideOfStreet":"right","StateId":"20248595","CountyId":"20334448","CityId":"20334562","DistrictId":"20334563"}}},{"Relevance":1.0,"Distance":13.3,"MatchLevel":"houseNumber","MatchQuality":{"Country":1.0,"State":1.0,"County":1.0,"City":1.0,"District":1.0,"Street":[1.0],"HouseNumber":1.0,"PostalCode":1.0},"MatchType":"interpolated","Location":{"LocationId":"NT_Naj1p6RpTwAAtPUItK6EED_l_25821481_R_zAD","LocationType":"point","DisplayPosition":{"Latitude":51.4531083,"Longitude":-0.9825446},"MapView":{"TopLeft":{"Latitude":51.4542325,"Longitude":-0.9843486},"BottomRight":{"Latitude":51.4519842,"Longitude":-0.9807406}},"Address":{"Label":"30 Baker Street, Reading, RG1 7, United Kingdom","Country":"GBR","State":"England","County":"Berkshire","City":"Reading","District":"Reading","Street":"Baker Street","HouseNumber":"30","PostalCode":"RG1 7","AdditionalData":[{"value":"United Kingdom","key":"CountryName"},{"value":"England","key":"StateName"},{"value":"Berkshire","key":"CountyName"}]},"MapReference":{"ReferenceId":"25821481","Spot":0.8,"SideOfStreet":"right","StateId":"20248595","CountyId":"20334448","CityId":"20334562","DistrictId":"20334563"}}},{"Relevance":1.0,"Distance":31.2,"MatchLevel":"postalCode","MatchQuality":{"PostalCode":1.0},"MatchType":"interpolated","Location":{"LocationId":"NT_raVchxIGql2pwH8Z1FKcwA_l_25821448_R_zkD","LocationType":"point","DisplayPosition":{"Latitude":51.45358,"Longitude":-0.98282},"MapView":{"TopLeft":{"Latitude":51.4625732,"Longitude":-0.9972519},"BottomRight":{"Latitude":51.4445868,"Longitude":-0.9683881}},"Address":{"Label":"RG1 7RE, Reading, England, United Kingdom","Country":"GBR","State":"England","County":"Berkshire","City":"Reading","PostalCode":"RG1 7RE","AdditionalData":[{"value":"United Kingdom","key":"CountryName"},{"value":"England","key":"StateName"},{"value":"Berkshire","key":"CountyName"}]},"MapReference":{"ReferenceId":"25821448","Spot":0.15,"SideOfStreet":"neither","StateId":"20248595","CountyId":"20334448","CityId":"20334562"}}},{"Relevance":1.0,"Distance":44.1,"MatchLevel":"houseNumber","MatchQuality":{"Country":1.0,"State":1.0,"County":1.0,"City":1.0,"District":1.0,"Street":[1.0],"HouseNumber":1.0,"PostalCode":1.0},"MatchType":"interpolated","Location":{"LocationId":"NT_raVchxIGql2pwH8Z1FKcwA_l_25821624_R_0MD","LocationType":"point","DisplayPosition":{"Latitude":51.4529511,"Longitude":-0.9829556},"MapView":{"TopLeft":{"Latitude":51.4540753,"Longitude":-0.9847595},"BottomRight":{"Latitude":51.451827,"Longitude":-0.9811516}},"Address":{"Label":"43 Russell Street, Reading, RG1 7XG, United Kingdom","Country":"GBR","State":"England","County":"Berkshire","City":"Reading","District":"Reading","Street":"Russell Street","HouseNumber":"43","PostalCode":"RG1 7XG","AdditionalData":[{"value":"United Kingdom","key":"CountryName"},{"value":"England","key":"StateName"},{"value":"Berkshire","key":"CountyName"}]},"MapReference":{"ReferenceId":"25821624","Spot":0.74,"SideOfStreet":"right","StateId":"20248595","CountyId":"20334448","CityId":"20334562","DistrictId":"20334563"}}},{"Relevance":1.0,"Distance":49.4,"MatchLevel":"houseNumber","MatchQuality":{"Country":1.0,"State":1.0,"County":1.0,"City":1.0,"District":1.0,"Street":[1.0],"HouseNumber":1.0,"PostalCode":1.0},"MatchType":"interpolated","Location":{"LocationId":"NT_Naj1p6RpTwAAtPUItK6EED_l_25821449_R_zID","LocationType":"point","DisplayPosition":{"Latitude":51.453188,"Longitude":-0.9834135},"MapView":{"TopLeft":{"Latitude":51.4543121,"Longitude":-0.9852175},"BottomRight":{"Latitude":51.4520638,"Longitude":-0.9816096}},"Address":{"Label":"32 Baker Street, Reading, RG1 7XY, United Kingdom","Country":"GBR","State":"England","County":"Berkshire","City":"Reading","District":"Reading","Street":"Baker Street","HouseNumber":"32","PostalCode":"RG1 7XY","AdditionalData":[{"value":"United Kingdom","key":"CountryName"},{"value":"England","key":"StateName"},{"value":"Berkshire","key":"CountyName"}]},"MapReference":{"ReferenceId":"25821449","Spot":0.5,"SideOfStreet":"right","StateId":"20248595","CountyId":"20334448","CityId":"20334562","DistrictId":"20334563"}}},{"Relevance":1.0,"Distance":66.7,"MatchLevel":"postalCode","MatchQuality":{"PostalCode":1.0},"MatchType":"interpolated","Location":{"LocationId":"NT_Naj1p6RpTwAAtPUItK6EED_l_25821481_R_zAD","LocationType":"point","DisplayPosition":{"Latitude":51.4531,"Longitude":-0.98179},"MapView":{"TopLeft":{"Latitude":51.4620932,"Longitude":-0.9962217},"BottomRight":{"Latitude":51.4441068,"Longitude":-0.9673583}},"Address":{"Label":"RG1 7XX, Reading, England, United Kingdom","Country":"GBR","State":"England","County":"Berkshire","City":"Reading","PostalCode":"RG1 7XX","AdditionalData":[{"value":"United Kingdom","key":"CountryName"},{"value":"England","key":"StateName"},{"value":"Berkshire","key":"CountyName"}]},"MapReference":{"ReferenceId":"25821481","Spot":0.8,"SideOfStreet":"neither","StateId":"20248595","CountyId":"20334448","CityId":"20334562"}}},{"Relevance":1.0,"Distance":68.3,"MatchLevel":"houseNumber","MatchQuality":{"Country":1.0,"State":1.0,"County":1.0,"City":1.0,"District":1.0,"Street":[1.0],"HouseNumber":1.0,"PostalCode":1.0},"MatchType":"interpolated","Location":{"LocationId":"NT_n7btx2zhSxtyrKYZVID-vC_l_25821429_R_yUD","LocationType":"point","DisplayPosition":{"Latitude":51.45337,"Longitude":-0.98387},"MapView":{"TopLeft":{"Latitude":51.4544942,"Longitude":-0.985674},"BottomRight":{"Latitude":51.4522459,"Longitude":-0.982066}},"Address":{"Label":"25 Franklin Street, Reading, RG1 7YA, United Kingdom","Country":"GBR","State":"England","County":"Berkshire","City":"Reading","District":"Reading","Street":"Franklin Street","HouseNumber":"25","PostalCode":"RG1 7YA","AdditionalData":[{"value":"United Kingdom","key":"CountryName"},{"value":"England","key":"StateName"},{"value":"Berkshire","key":"CountyName"}]},"MapReference":{"ReferenceId":"25821429","Spot":0.11,"SideOfStreet":"right","StateId":"20248595","CountyId":"20334448","CityId":"20334562","DistrictId":"20334563"}}},{"Relevance":1.0,"Distance":78.0,"MatchLevel":"postalCode","MatchQuality":{"PostalCode":1.0},"MatchType":"interpolated","Location":{"LocationId":"NT_n7btx2zhSxtyrKYZVID-vC_l_25821429_R_yUD","LocationType":"point","DisplayPosition":{"Latitude":51.45346,"Longitude":-0.98379},"MapView":{"TopLeft":{"Latitude":51.4624532,"Longitude":-0.9982219},"BottomRight":{"Latitude":51.4444668,"Longitude":-0.9693581}},"Address":{"Label":"RG1 7YF, Reading, England, United Kingdom","Country":"GBR","State":"England","County":"Berkshire","City":"Reading","PostalCode":"RG1 7YF","AdditionalData":[{"value":"United Kingdom","key":"CountryName"},{"value":"England","key":"StateName"},{"value":"Berkshire","key":"CountyName"}]},"MapReference":{"ReferenceId":"25821429","Spot":0.11,"SideOfStreet":"neither","StateId":"20248595","CountyId":"20334448","CityId":"20334562"}}},{"Relevance":1.0,"Distance":82.2,"MatchLevel":"postalCode","MatchQuality":{"PostalCode":1.0},"MatchType":"interpolated","Location":{"LocationId":"NT_raVchxIGql2pwH8Z1FKcwA_l_25821624_R_0MD","LocationType":"point","DisplayPosition":{"Latitude":51.45262,"Longitude":-0.98311},"MapView":{"TopLeft":{"Latitude":51.4616132,"Longitude":-0.9975416},"BottomRight":{"Latitude":51.4436268,"Longitude":-0.9686784}},"Address":{"Label":"RG1 7XW, Reading, England, United Kingdom","Country":"GBR","State":"England","County":"Berkshire","City":"Reading","PostalCode":"RG1 7XW","AdditionalData":[{"value":"United Kingdom","key":"CountryName"},{"value":"England","key":"StateName"},{"value":"Berkshire","key":"CountyName"}]},"MapReference":{"ReferenceId":"25821624","Spot":0.74,"SideOfStreet":"neither","StateId":"20248595","CountyId":"20334448","CityId":"20334562"}}}]}]}}