{"Response":{"MetaInfo":{"Timestamp":"2020-03-28T11:45:28.059+0000","NextPageInformation":"2"},"View":[{"_type":"SearchResultsViewType","ViewId":0,"Result":[{"Relevance":1.0,"Distance":0.0,"Direction":0.0,"MatchLevel":"district","MatchQuality":{"Country":1.0,"State":1.0,"County":1.0,"City":1.0,"District":1.0,"PostalCode":1.0},"Location":{"LocationId":"NT_NQu7NfyH9Cu26h26YI6-MA","LocationType":"point","DisplayPosition":{"Latitude":51.468633,"Longitude":6.8635973},"MapView":{"TopLeft":{"Latitude":51.49092,"Longitude":6.8145},"BottomRight":{"Latitude":51.46435,"Longitude":6.89473}},"Address":{"Label":"Alt-Oberhausen, Oberhausen, Nordrhein-Westfalen, Deutschland","Country":"DEU","State":"Nordrhein-Westfalen","County":"Oberhausen","City":"Oberhausen","District":"Alt-Oberhausen","PostalCode":"46045","AdditionalData":[{"value":"Deutschland","key":"CountryName"},{"value":"Nordrhein-Westfalen","key":"StateName"},{"value":"Oberhausen","key":"CountyName"}]},"MapReference":{"ReferenceId":"1203308105","SideOfStreet":"neither","CountryId":"20147700","StateId":"20157369","CountyId":"20157469","CityId":"20157470","DistrictId":"20157473"}}},{"Relevance":1.0,"Distance":10.3,"MatchLevel":"houseNumber","MatchQuality":{"Country":1.0,"State":1.0,"County":1.0,"City":1.0,"District":1.0,"Street":[1.0],"HouseNumber":1.0,"PostalCode":1.0},"MatchType":"interpolated","Location":{"LocationId":"NT_Ox6vRC3j8lBBfpgtwhVueB_yQzN","LocationType":"point","DisplayPosition":{"Latitude":51.46858,"Longitude":6.86396},"MapView":{"TopLeft":{"Latitude":51.4697042,"Longitude":6.8621554},"BottomRight":{"Latitude":51.4674558,"Longitude":6.8657646}},"Address":{"Label":"Mülheimer Straße 247, 46045 Oberhausen, Deutschland","Country":"DEU","State":"Nordrhein-Westfalen","County":"Oberhausen","City":"Oberhausen","District":"Alt-Oberhausen","Street":"Mülheimer Straße","HouseNumber":"247","PostalCode":"46045","AdditionalData":[{"value":"Deutschland","key":"CountryName"},{"value":"Nordrhein-Westfalen","key":"StateName"},{"value":"Oberhausen","key":"CountyName"}]},"MapReference":{"ReferenceId":"835896841","Spot":0.62,"SideOfStreet":"left","CountryId":"20147700","StateId":"20157369","CountyId":"20157469","CityId":"20157470","DistrictId":"20157473","AddressId":"192558189","RoadLinkId":"219056844"}}},{"Relevance":1.0,"Distance":14.9,"MatchLevel":"houseNumber","MatchQuality":{"Country":1.0,"State":1.0,"County":1.0,"City":1.0,"District":1.0,"Street":[1.0],"HouseNumber":1.0,"PostalCode":1.0},"MatchType":"interpolated","Location":{"LocationId":"NT_Ofn7zrtvYGR9vZqhZfCqgC_xkDM","LocationType":"point","DisplayPosition":{"Latitude":51.46833,"Longitude":6.86342},"MapView":{"TopLeft":{"Latitude":51.4694542,"Longitude":6.8616154},"BottomRight":{"Latitude":51.4672058,"Longitude":6.8652246}},"Address":{"Label":"Marktstraße 190, 46045 Oberhausen, Deutschland","Country":"DEU","State":"Nordrhein-Westfalen","County":"Oberhausen","City":"Oberhausen","District":"Alt-Oberhausen","Street":"Marktstraße","HouseNumber":"190","PostalCode":"46045","AdditionalData":[{"value":"Deutschland","key":"CountryName"},{"value":"Nordrhein-Westfalen","key":"StateName"},{"value":"Oberhausen","key":"CountyName"}]},"MapReference":{"ReferenceId":"587007834","Spot":0.25,"SideOfStreet":"right","CountryId":"20147700","StateId":"20157369","CountyId":"20157469","CityId":"20157470","DistrictId":"20157473","AddressId":"196523411","RoadLinkId":"35547352"}}},{"Relevance":1.0,"Distance":34.4,"MatchLevel":"houseNumber","MatchQuality":{"Country":1.0,"State":1.0,"County":1.0,"City":1.0,"District":1.0,"Street":[1.0],"HouseNumber":1.0,"PostalCode":1.0},"MatchType":"interpolated","Location":{"LocationId":"NT_Ox6vRC3j8lBBfpgtwhVueB_yQDO","LocationType":"point","DisplayPosition":{"Latitude":51.46867,"Longitude":6.86409},"MapView":{"TopLeft":{"Latitude":51.4697942,"Longitude":6.8622854},"BottomRight":{"Latitude":51.4675458,"Longitude":6.8658946}},"Address":{"Label":"Mülheimer Straße 248, 46045 Oberhausen, Deutschland","Country":"DEU","State":"Nordrhein-Westfalen","County":"Oberhausen","City":"Oberhausen","District":"Alt-Oberhausen","Street":"Mülheimer Straße","HouseNumber":"248","PostalCode":"46045","AdditionalData":[{"value":"Deutschland","key":"CountryName"},{"value":"Nordrhein-Westfalen","key":"StateName"},{"value":"Oberhausen","key":"CountyName"}]},"MapReference":{"ReferenceId":"835896843","Spot":0.8,"SideOfStreet":"right","CountryId":"20147700","StateId":"20157369","CountyId":"20157469","CityId":"20157470","DistrictId":"20157473","AddressId":"196419219","RoadLinkId":"219056850"}}},{"Relevance":1.0,"Distance":35.4,"MatchLevel":"houseNumber","MatchQuality":{"Country":1.0,"State":1.0,"County":1.0,"City":1.0,"District":1.0,"Street":[1.0],"HouseNumber":1.0,"PostalCode":1.0},"MatchType":"interpolated","Location":{"LocationId":"NT_Ox6vRC3j8lBBfpgtwhVueB_yQzM","LocationType":"point","DisplayPosition":{"Latitude":51.46893,"Longitude":6.86394},"MapView":{"TopLeft":{"Latitude":51.4700542,"Longitude":6.8621354},"BottomRight":{"Latitude":51.4678058,"Longitude":6.8657446}},"Address":{"Label":"Mülheimer Straße 243, 46045 Oberhausen, Deutschland","Country":"DEU","State":"Nordrhein-Westfalen","County":"Oberhausen","City":"Oberhausen","District":"Alt-Oberhausen","Street":"Mülheimer Straße","HouseNumber":"243","PostalCode":"46045","AdditionalData":[{"value":"Deutschland","key":"CountryName"},{"value":"Nordrhein-Westfalen","key":"StateName"},{"value":"Oberhausen","key":"CountyName"}]},"MapReference":{"ReferenceId":"835896842","Spot":0.24,"SideOfStreet":"left","CountryId":"20147700","StateId":"20157369","CountyId":"20157469","CityId":"20157470","DistrictId":"20157473","AddressId":"193359873","RoadLinkId":"219056845"}}},{"Relevance":1.0,"Distance":40.6,"MatchLevel":"houseNumber","MatchQuality":{"Country":1.0,"State":1.0,"County":1.0,"City":1.0,"District":1.0,"Street":[1.0],"HouseNumber":1.0,"PostalCode":1.0},"MatchType":"interpolated","Location":{"LocationId":"NT_Ox6vRC3j8lBBfpgtwhVueB_yQDN","LocationType":"point","DisplayPosition":{"Latitude":51.46883,"Longitude":6.86409},"MapView":{"TopLeft":{"Latitude":51.4699542,"Longitude":6.8622854},"BottomRight":{"Latitude":51.4677058,"Longitude":6.8658946}},"Address":{"Label":"Mülheimer Straße 244, 46045 Oberhausen, Deutschland","Country":"DEU","State":"Nordrhein-Westfalen","County":"Oberhausen","City":"Oberhausen","District":"Alt-Oberhausen","Street":"Mülheimer Straße","HouseNumber":"244","PostalCode":"46045","AdditionalData":[{"value":"Deutschland","key":"CountryName"},{"value":"Nordrhein-Westfalen","key":"StateName"},{"value":"Oberhausen","key":"CountyName"}]},"MapReference":{"ReferenceId":"1089557069","Spot":0.27,"SideOfStreet":"right","CountryId":"20147700","StateId":"20157369","CountyId":"20157469","CityId":"20157470","DistrictId":"20157473","AddressId":"194990138","RoadLinkId":"404546401"}}},{"Relevance":1.0,"Distance":46.4,"MatchLevel":"street","MatchQuality":{"Country":1.0,"State":1.0,"County":1.0,"City":1.0,"District":1.0,"Street":[1.0],"PostalCode":1.0},"Location":{"LocationId":"NT_QEM5xFcTQQgMp99AYSbLlB_l_587012859_L","LocationType":"point","DisplayPosition":{"Latitude":51.46829,"Longitude":6.86398},"MapView":{"TopLeft":{"Latitude":51.46829,"Longitude":6.86398},"BottomRight":{"Latitude":51.46824,"Longitude":6.86399}},"Address":{"Label":"Mülheimer Straße, 46045 Oberhausen, Deutschland","Country":"DEU","State":"Nordrhein-Westfalen","County":"Oberhausen","City":"Oberhausen","District":"Alt-Oberhausen","Street":"Mülheimer Straße","PostalCode":"46045","AdditionalData":[{"value":"Deutschland","key":"CountryName"},{"value":"Nordrhein-Westfalen","key":"StateName"},{"value":"Oberhausen","key":"CountyName"}]},"MapReference":{"ReferenceId":"587012859","Spot":1.0,"SideOfStreet":"left","CountryId":"20147700","StateId":"20157369","CountyId":"20157469","CityId":"20157470","DistrictId":"20157473"}}},{"Relevance":1.0,"Distance":49.7,"MatchLevel":"street","MatchQuality":{"Country":1.0,"State":1.0,"County":1.0,"City":1.0,"District":1.0,"Street":[1.0],"PostalCode":1.0},"Location":{"LocationId":"NT_QEM5xFcTQQgMp99AYSbLlB_l_587012861_L","LocationType":"point","DisplayPosition":{"Latitude":51.46832,"Longitude":6.86411},"MapView":{"TopLeft":{"Latitude":51.46832,"Longitude":6.86411},"BottomRight":{"Latitude":51.46825,"Longitude":6.86411}},"Address":{"Label":"Mülheimer Straße, 46045 Oberhausen, Deutschland","Country":"DEU","State":"Nordrhein-Westfalen","County":"Oberhausen","City":"Oberhausen","District":"Alt-Oberhausen","Street":"Mülheimer Straße","PostalCode":"46045","AdditionalData":[{"value":"Deutschland","key":"CountryName"},{"value":"Nordrhein-Westfalen","key":"StateName"},{"value":"Oberhausen","key":"CountyName"}]},"MapReference":{"ReferenceId":"587012861","Spot":1.0,"SideOfStreet":"left","CountryId":"20147700","StateId":"20157369","CountyId":"20157469","CityId":"20157470","DistrictId":"20157473"}}},{"Relevance":1.0,"Distance":51.5,"MatchLevel":"street","MatchQuality":{"Country":1.0,"State":1.0,"County":1.0,"City":1.0,"District":1.0,"PostalCode":1.0},"Location":{"LocationId":"NT_HWPxTLo9aQWkeMw5SEDxLC_l_51497982_L","LocationType":"point","DisplayPosition":{"Latitude":51.46824,"Longitude":6.86399},"MapView":{"TopLeft":{"Latitude":51.46825,"Longitude":6.86399},"BottomRight":{"Latitude":51.46824,"Longitude":6.86411}},"Address":{"Label":"46045 Oberhausen, Deutschland","Country":"DEU","State":"Nordrhein-Westfalen","County":"Oberhausen","City":"Oberhausen","District":"Alt-Oberhausen","PostalCode":"46045","AdditionalData":[{"value":"Deutschland","key":"CountryName"},{"value":"Nordrhein-Westfalen","key":"StateName"},{"value":"Oberhausen","key":"CountyName"}]},"MapReference":{"ReferenceId":"51497982","Spot":0.0,"SideOfStreet":"left","CountryId":"20147700","StateId":"20157369","CountyId":"20157469","CityId":"20157470","DistrictId":"20157473"}}},{"Relevance":1.0,"Distance":52.9,"MatchLevel":"houseNumber","MatchQuality":{"Country":1.0,"State":1.0,"County":1.0,"City":1.0,"District":1.0,"Street":[1.0],"HouseNumber":1.0,"PostalCode":1.0},"MatchType":"interpolated","Location":{"LocationId":"NT_Ox6vRC3j8lBBfpgtwhVueB_yQTO","LocationType":"point","DisplayPosition":{"Latitude":51.46818,"Longitude":6.86399},"MapView":{"TopLeft":{"Latitude":51.4693042,"Longitude":6.8621854},"BottomRight":{"Latitude":51.4670558,"Longitude":6.8657946}},"Address":{"Label":"Mülheimer Straße 249, 46045 Oberhausen, Deutschland","Country":"DEU","State":"Nordrhein-Westfalen","County":"Oberhausen","City":"Oberhausen","District":"Alt-Oberhausen","Street":"Mülheimer Straße","HouseNumber":"249","PostalCode":"46045","AdditionalData":[{"value":"Deutschland","key":"CountryName"},{"value":"Nordrhein-Westfalen","key":"StateName"},{"value":"Oberhausen","key":"CountyName"}]},"MapReference":{"ReferenceId":"1199608432","Spot":0.97,"SideOfStreet":"left","CountryId":"20147700","StateId":"20157369","CountyId":"20157469","CityId":"20157470","DistrictId":"20157473","AddressId":"194940184","RoadLinkId":"511644789"}}}]}]}}