{"Response":{"MetaInfo":{"Timestamp":"2020-03-28T10:23:45.446+0000","NextPageInformation":"2"},"View":[{"_type":"SearchResultsViewType","ViewId":0,"Result":[{"Relevance":1.0,"Distance":0.0,"Direction":0.0,"MatchLevel":"district","MatchQuality":{"Country":1.0,"State":1.0,"County":1.0,"City":1.0,"District":1.0,"PostalCode":1.0},"Location":{"LocationId":"NT_ez46TPI2vfPUI.gYjKum1A","LocationType":"point","DisplayPosition":{"Latitude":51.4462598,"Longitude":11.7941739},"MapView":{"TopLeft":{"Latitude":51.45836,"Longitude":11.78136},"BottomRight":{"Latitude":51.44093,"Longitude":11.82019}},"Address":{"Label":"Teutschenthal, Sachsen-Anhalt, Deutschland","Country":"DEU","State":"Sachsen-Anhalt","County":"Saalekreis","City":"Teutschenthal","District":"Teutschenthal","PostalCode":"06179","AdditionalData":[{"value":"Deutschland","key":"CountryName"},{"value":"Sachsen-Anhalt","key":"StateName"},{"value":"Saalekreis","key":"CountyName"}]},"MapReference":{"ReferenceId":"1191932746","SideOfStreet":"neither","CountryId":"20147700","StateId":"20194537","CountyId":"20195064","CityId":"20195194","DistrictId":"20195196"}}},{"Relevance":1.0,"Distance":6.2,"MatchLevel":"houseNumber","MatchQuality":{"Country":1.0,"State":1.0,"County":1.0,"City":1.0,"District":1.0,"Street":[1.0],"HouseNumber":1.0,"PostalCode":1.0},"MatchType":"interpolated","Location":{"LocationId":"NT_3tBJsMbJqXg9h5L6MLTOdD_5AD","LocationType":"point","DisplayPosition":{"Latitude":51.44611,"Longitude":11.79409},"MapView":{"TopLeft":{"Latitude":51.4472342,"Longitude":11.7922863},"BottomRight":{"Latitude":51.4449858,"Longitude":11.7958937}},"Address":{"Label":"Friedrich-Henze-Straße 90, 06179 Teutschenthal, Deutschland","Country":"DEU","State":"Sachsen-Anhalt","County":"Saalekreis","City":"Teutschenthal","District":"Teutschenthal","Street":"Friedrich-Henze-Straße","HouseNumber":"90","PostalCode":"06179","AdditionalData":[{"value":"Deutschland","key":"CountryName"},{"value":"Sachsen-Anhalt","key":"StateName"},{"value":"Saalekreis","key":"CountyName"}]},"MapReference":{"ReferenceId":"544590092","Spot":0.07,"SideOfStreet":"left","CountryId":"20147700","StateId":"20194537","CountyId":"20195064","CityId":"20195194","DistrictId":"20195196","AddressId":"185524550","RoadLinkId":"37351746"}}},{"Relevance":1.0,"Distance":20.6,"MatchLevel":"street","MatchQuality":{"Country":1.0,"State":1.0,"County":1.0,"City":1.0,"District":1.0,"Street":[1.0],"PostalCode":1.0},"Location":{"LocationId":"NT_bpPiQ8WYt8DeAeA5W84onD_l_541314060_R","LocationType":"point","DisplayPosition":{"Latitude":51.44611,"Longitude":11.794},"MapView":{"TopLeft":{"Latitude":51.44611,"Longitude":11.79395},"BottomRight":{"Latitude":51.44591,"Longitude":11.794}},"Address":{"Label":"Carl-Wentzel-Straße, 06179 Teutschenthal, Deutschland","Country":"DEU","State":"Sachsen-Anhalt","County":"Saalekreis","City":"Teutschenthal","District":"Teutschenthal","Street":"Carl-Wentzel-Straße","PostalCode":"06179","AdditionalData":[{"value":"Deutschland","key":"CountryName"},{"value":"Sachsen-Anhalt","key":"StateName"},{"value":"Saalekreis","key":"CountyName"}]},"MapReference":{"ReferenceId":"541314060","Spot":1.0,"SideOfStreet":"right","CountryId":"20147700","StateId":"20194537","CountyId":"20195064","CityId":"20195194","DistrictId":"20195196"}}},{"Relevance":1.0,"Distance":25.6,"MatchLevel":"houseNumber","MatchQuality":{"Country":1.0,"State":1.0,"County":1.0,"City":1.0,"District":1.0,"Street":[1.0],"HouseNumber":1.0,"PostalCode":1.0},"MatchType":"interpolated","Location":{"LocationId":"NT_3tBJsMbJqXg9h5L6MLTOdD_5ID","LocationType":"point","DisplayPosition":{"Latitude":51.4461,"Longitude":11.79382},"MapView":{"TopLeft":{"Latitude":51.4472242,"Longitude":11.7920163},"BottomRight":{"Latitude":51.4449758,"Longitude":11.7956237}},"Address":{"Label":"Friedrich-Henze-Straße 92, 06179 Teutschenthal, Deutschland","Country":"DEU","State":"Sachsen-Anhalt","County":"Saalekreis","City":"Teutschenthal","District":"Teutschenthal","Street":"Friedrich-Henze-Straße","HouseNumber":"92","PostalCode":"06179","AdditionalData":[{"value":"Deutschland","key":"CountryName"},{"value":"Sachsen-Anhalt","key":"StateName"},{"value":"Saalekreis","key":"CountyName"}]},"MapReference":{"ReferenceId":"544590026","Spot":0.79,"SideOfStreet":"left","CountryId":"20147700","StateId":"20194537","CountyId":"20195064","CityId":"20195194","DistrictId":"20195196","AddressId":"185057861","RoadLinkId":"37358343"}}},{"Relevance":1.0,"Distance":45.2,"MatchLevel":"houseNumber","MatchQuality":{"Country":1.0,"State":1.0,"County":1.0,"City":1.0,"District":1.0,"Street":[1.0],"HouseNumber":1.0,"PostalCode":1.0},"MatchType":"interpolated","Location":{"LocationId":"NT_oIQ5EDIgHR5CzPYiYXfDWB_xA","LocationType":"point","DisplayPosition":{"Latitude":51.44585,"Longitude":11.79399},"MapView":{"TopLeft":{"Latitude":51.4469742,"Longitude":11.7921863},"BottomRight":{"Latitude":51.4447258,"Longitude":11.7957937}},"Address":{"Label":"Hohe Straße 1, 06179 Teutschenthal, Deutschland","Country":"DEU","State":"Sachsen-Anhalt","County":"Saalekreis","City":"Teutschenthal","District":"Teutschenthal","Street":"Hohe Straße","HouseNumber":"1","PostalCode":"06179","AdditionalData":[{"value":"Deutschland","key":"CountryName"},{"value":"Sachsen-Anhalt","key":"StateName"},{"value":"Saalekreis","key":"CountyName"}]},"MapReference":{"ReferenceId":"544590023","Spot":0.95,"SideOfStreet":"right","CountryId":"20147700","StateId":"20194537","CountyId":"20195064","CityId":"20195194","DistrictId":"20195196","AddressId":"185208344","RoadLinkId":"37747035"}}},{"Relevance":1.0,"Distance":62.5,"MatchLevel":"houseNumber","MatchQuality":{"Country":1.0,"State":1.0,"County":1.0,"City":1.0,"District":1.0,"Street":[1.0],"HouseNumber":1.0,"PostalCode":1.0},"MatchType":"interpolated","Location":{"LocationId":"NT_zKtPyxJ.lyKqMHroNVLVZD_3A","LocationType":"point","DisplayPosition":{"Latitude":51.44673,"Longitude":11.79368},"MapView":{"TopLeft":{"Latitude":51.4478542,"Longitude":11.7918763},"BottomRight":{"Latitude":51.4456058,"Longitude":11.7954837}},"Address":{"Label":"Leninstraße 7, 06179 Teutschenthal, Deutschland","Country":"DEU","State":"Sachsen-Anhalt","County":"Saalekreis","City":"Teutschenthal","District":"Teutschenthal","Street":"Leninstraße","HouseNumber":"7","PostalCode":"06179","AdditionalData":[{"value":"Deutschland","key":"CountryName"},{"value":"Sachsen-Anhalt","key":"StateName"},{"value":"Saalekreis","key":"CountyName"}]},"MapReference":{"ReferenceId":"541313699","Spot":0.43,"SideOfStreet":"left","CountryId":"20147700","StateId":"20194537","CountyId":"20195064","CityId":"20195194","DistrictId":"20195196","AddressId":"185585464","RoadLinkId":"37731184"}}},{"Relevance":1.0,"Distance":73.5,"MatchLevel":"street","MatchQuality":{"Country":1.0,"State":1.0,"County":1.0,"City":1.0,"District":1.0,"Street":[1.0],"PostalCode":1.0},"Location":{"LocationId":"NT_KZr7aHCCVNhZA2FIjH8.8A_l_544590027_L","LocationType":"point","DisplayPosition":{"Latitude":51.44645,"Longitude":11.79519},"MapView":{"TopLeft":{"Latitude":51.44645,"Longitude":11.79519},"BottomRight":{"Latitude":51.44631,"Longitude":11.79544}},"Address":{"Label":"Karl-John-Straße, 06179 Teutschenthal, Deutschland","Country":"DEU","State":"Sachsen-Anhalt","County":"Saalekreis","City":"Teutschenthal","District":"Teutschenthal","Street":"Karl-John-Straße","PostalCode":"06179","AdditionalData":[{"value":"Deutschland","key":"CountryName"},{"value":"Sachsen-Anhalt","key":"StateName"},{"value":"Saalekreis","key":"CountyName"}]},"MapReference":{"ReferenceId":"544590027","Spot":1.0,"SideOfStreet":"left","CountryId":"20147700","StateId":"20194537","CountyId":"20195064","CityId":"20195194","DistrictId":"20195196"}}},{"Relevance":1.0,"Distance":76.8,"MatchLevel":"street","MatchQuality":{"Country":1.0,"State":1.0,"County":1.0,"City":1.0,"District":1.0,"Street":[1.0],"PostalCode":1.0},"Location":{"LocationId":"NT_3dxoLM4q8fD3HCk5EvDjbC_l_541338202_R","LocationType":"point","DisplayPosition":{"Latitude":51.44601,"Longitude":11.79314},"MapView":{"TopLeft":{"Latitude":51.44601,"Longitude":11.793},"BottomRight":{"Latitude":51.44597,"Longitude":11.79314}},"Address":{"Label":"Friedrich-Henze-Straße, 06179 Teutschenthal, Deutschland","Country":"DEU","State":"Sachsen-Anhalt","County":"Saalekreis","City":"Teutschenthal","District":"Teutschenthal","Street":"Friedrich-Henze-Straße","PostalCode":"06179","AdditionalData":[{"value":"Deutschland","key":"CountryName"},{"value":"Sachsen-Anhalt","key":"StateName"},{"value":"Saalekreis","key":"CountyName"}]},"MapReference":{"ReferenceId":"541338202","Spot":1.0,"SideOfStreet":"right","CountryId":"20147700","StateId":"20194537","CountyId":"20195064","CityId":"20195194","DistrictId":"20195196"}}},{"Relevance":1.0,"Distance":81.0,"MatchLevel":"street","MatchQuality":{"Country":1.0,"State":1.0,"County":1.0,"City":1.0,"District":1.0,"Street":[1.0],"PostalCode":1.0},"Location":{"LocationId":"NT_zKtPyxJ.lyKqMHroNVLVZD_l_541313718_R","LocationType":"point","DisplayPosition":{"Latitude":51.44698,"Longitude":11.79435},"MapView":{"TopLeft":{"Latitude":51.44718,"Longitude":11.79435},"BottomRight":{"Latitude":51.44698,"Longitude":11.79476}},"Address":{"Label":"Leninstraße, 06179 Teutschenthal, Deutschland","Country":"DEU","State":"Sachsen-Anhalt","County":"Saalekreis","City":"Teutschenthal","District":"Teutschenthal","Street":"Leninstraße","PostalCode":"06179","AdditionalData":[{"value":"Deutschland","key":"CountryName"},{"value":"Sachsen-Anhalt","key":"StateName"},{"value":"Saalekreis","key":"CountyName"}]},"MapReference":{"ReferenceId":"541313718","Spot":0.0,"SideOfStreet":"right","CountryId":"20147700","StateId":"20194537","CountyId":"20195064","CityId":"20195194","DistrictId":"20195196"}}},{"Relevance":1.0,"Distance":86.9,"MatchLevel":"houseNumber","MatchQuality":{"Country":1.0,"State":1.0,"County":1.0,"City":1.0,"District":1.0,"Street":[1.0],"HouseNumber":1.0,"PostalCode":1.0},"MatchType":"interpolated","Location":{"LocationId":"NT_zKtPyxJ.lyKqMHroNVLVZD_4A","LocationType":"point","DisplayPosition":{"Latitude":51.44709,"Longitude":11.79422},"MapView":{"TopLeft":{"Latitude":51.4482142,"Longitude":11.7924163},"BottomRight":{"Latitude":51.4459658,"Longitude":11.7960237}},"Address":{"Label":"Leninstraße 8, 06179 Teutschenthal, Deutschland","Country":"DEU","State":"Sachsen-Anhalt","County":"Saalekreis","City":"Teutschenthal","District":"Teutschenthal","Street":"Leninstraße","HouseNumber":"8","PostalCode":"06179","AdditionalData":[{"value":"Deutschland","key":"CountryName"},{"value":"Sachsen-Anhalt","key":"StateName"},{"value":"Saalekreis","key":"CountyName"}]},"MapReference":{"ReferenceId":"541313719","Spot":0.19,"SideOfStreet":"left","CountryId":"20147700","StateId":"20194537","CountyId":"20195064","CityId":"20195194","DistrictId":"20195196","AddressId":"185187702","RoadLinkId":"37979068"}}}]}]}}