{"Response":{"MetaInfo":{"Timestamp":"2020-03-28T10:23:16.648+0000","NextPageInformation":"2"},"View":[{"_type":"SearchResultsViewType","ViewId":0,"Result":[{"Relevance":1.0,"Distance":0.0,"Direction":0.0,"MatchLevel":"district","MatchQuality":{"Country":1.0,"State":1.0,"County":1.0,"City":1.0,"District":1.0,"PostalCode":1.0},"Location":{"LocationId":"NT_4LlZGtZqWV80SdLOSrbfYD","LocationType":"point","DisplayPosition":{"Latitude":51.4176131,"Longitude":6.6773301},"MapView":{"TopLeft":{"Latitude":51.43217,"Longitude":6.66292},"BottomRight":{"Latitude":51.39967,"Longitude":6.70898}},"Address":{"Label":"Bergheim, Duisburg, Nordrhein-Westfalen, Deutschland","Country":"DEU","State":"Nordrhein-Westfalen","County":"Duisburg","City":"Duisburg","District":"Bergheim","PostalCode":"47228","AdditionalData":[{"value":"Deutschland","key":"CountryName"},{"value":"Nordrhein-Westfalen","key":"StateName"},{"value":"Duisburg","key":"CountyName"}]},"MapReference":{"ReferenceId":"51191582","SideOfStreet":"neither","CountryId":"20147700","StateId":"20157369","CountyId":"20157384","CityId":"20157385","DistrictId":"20248878"}}},{"Relevance":1.0,"Distance":10.6,"MatchLevel":"houseNumber","MatchQuality":{"Country":1.0,"State":1.0,"County":1.0,"City":1.0,"District":1.0,"Street":[1.0],"HouseNumber":1.0,"PostalCode":1.0},"MatchType":"interpolated","Location":{"LocationId":"NT_A9TE.u.t74MVHmsVoaH7vB_xIDO","LocationType":"point","DisplayPosition":{"Latitude":51.41746,"Longitude":6.67717},"MapView":{"TopLeft":{"Latitude":51.4185842,"Longitude":6.6753674},"BottomRight":{"Latitude":51.4163358,"Longitude":6.6789726}},"Address":{"Label":"Lange Straße 128, 47228 Duisburg, Deutschland","Country":"DEU","State":"Nordrhein-Westfalen","County":"Duisburg","City":"Duisburg","District":"Bergheim","Street":"Lange Straße","HouseNumber":"128","PostalCode":"47228","AdditionalData":[{"value":"Deutschland","key":"CountryName"},{"value":"Nordrhein-Westfalen","key":"StateName"},{"value":"Duisburg","key":"CountyName"}]},"MapReference":{"ReferenceId":"51192260","Spot":0.08,"SideOfStreet":"right","CountryId":"20147700","StateId":"20157369","CountyId":"20157384","CityId":"20157385","DistrictId":"20248878","AddressId":"196373955","RoadLinkId":"35428988"}}},{"Relevance":1.0,"Distance":27.0,"MatchLevel":"street","MatchQuality":{"Country":1.0,"State":1.0,"County":1.0,"City":1.0,"District":1.0,"Street":[1.0],"PostalCode":1.0},"Location":{"LocationId":"NT_P7YF67lTyqxLNbRCocakVC_l_51192261_L","LocationType":"point","DisplayPosition":{"Latitude":51.41738,"Longitude":6.67722},"MapView":{"TopLeft":{"Latitude":51.41738,"Longitude":6.67664},"BottomRight":{"Latitude":51.4173,"Longitude":6.67722}},"Address":{"Label":"Oberfeld, 47228 Duisburg, Deutschland","Country":"DEU","State":"Nordrhein-Westfalen","County":"Duisburg","City":"Duisburg","District":"Bergheim","Street":"Oberfeld","PostalCode":"47228","AdditionalData":[{"value":"Deutschland","key":"CountryName"},{"value":"Nordrhein-Westfalen","key":"StateName"},{"value":"Duisburg","key":"CountyName"}]},"MapReference":{"ReferenceId":"51192261","Spot":1.0,"SideOfStreet":"left","CountryId":"20147700","StateId":"20157369","CountyId":"20157384","CityId":"20157385","DistrictId":"20248878"}}},{"Relevance":1.0,"Distance":30.6,"MatchLevel":"houseNumber","MatchQuality":{"Country":1.0,"State":1.0,"County":1.0,"City":1.0,"District":1.0,"Street":[1.0],"HouseNumber":1.0,"PostalCode":1.0},"MatchType":"interpolated","Location":{"LocationId":"NT_P7YF67lTyqxLNbRCocakVC_0QD","LocationType":"point","DisplayPosition":{"Latitude":51.41745,"Longitude":6.67779},"MapView":{"TopLeft":{"Latitude":51.4185742,"Longitude":6.6759874},"BottomRight":{"Latitude":51.4163258,"Longitude":6.6795926}},"Address":{"Label":"Oberfeld 44, 47228 Duisburg, Deutschland","Country":"DEU","State":"Nordrhein-Westfalen","County":"Duisburg","City":"Duisburg","District":"Bergheim","Street":"Oberfeld","HouseNumber":"44","PostalCode":"47228","AdditionalData":[{"value":"Deutschland","key":"CountryName"},{"value":"Nordrhein-Westfalen","key":"StateName"},{"value":"Duisburg","key":"CountyName"}]},"MapReference":{"ReferenceId":"51192485","Spot":0.16,"SideOfStreet":"left","CountryId":"20147700","StateId":"20157369","CountyId":"20157384","CityId":"20157385","DistrictId":"20248878","AddressId":"193862971","RoadLinkId":"35042497"}}},{"Relevance":1.0,"Distance":49.4,"MatchLevel":"houseNumber","MatchQuality":{"Country":1.0,"State":1.0,"County":1.0,"City":1.0,"District":1.0,"Street":[1.0],"HouseNumber":1.0,"PostalCode":1.0},"MatchType":"interpolated","Location":{"LocationId":"NT_44u1GGVeVV..UCb10PBsuC_ykD","LocationType":"point","DisplayPosition":{"Latitude":51.41817,"Longitude":6.67781},"MapView":{"TopLeft":{"Latitude":51.4192942,"Longitude":6.6760074},"BottomRight":{"Latitude":51.4170458,"Longitude":6.6796126}},"Address":{"Label":"Oestrumer Straße 29, 47228 Duisburg, Deutschland","Country":"DEU","State":"Nordrhein-Westfalen","County":"Duisburg","City":"Duisburg","District":"Bergheim","Street":"Oestrumer Straße","HouseNumber":"29","PostalCode":"47228","AdditionalData":[{"value":"Deutschland","key":"CountryName"},{"value":"Nordrhein-Westfalen","key":"StateName"},{"value":"Duisburg","key":"CountyName"}]},"MapReference":{"ReferenceId":"587018511","Spot":0.5,"SideOfStreet":"left","CountryId":"20147700","StateId":"20157369","CountyId":"20157384","CityId":"20157385","DistrictId":"20248878","AddressId":"194317940","RoadLinkId":"35539225"}}},{"Relevance":1.0,"Distance":49.4,"MatchLevel":"houseNumber","MatchQuality":{"Country":1.0,"State":1.0,"County":1.0,"City":1.0,"District":1.0,"Street":[1.0],"HouseNumber":1.0,"PostalCode":1.0},"MatchType":"interpolated","Location":{"LocationId":"NT_1-QwRlk4XLMaiE2KeK63cD_yA","LocationType":"point","DisplayPosition":{"Latitude":51.41746,"Longitude":6.67655},"MapView":{"TopLeft":{"Latitude":51.4185842,"Longitude":6.6747474},"BottomRight":{"Latitude":51.4163358,"Longitude":6.6783526}},"Address":{"Label":"An der Trift 2, 47228 Duisburg, Deutschland","Country":"DEU","State":"Nordrhein-Westfalen","County":"Duisburg","City":"Duisburg","District":"Bergheim","Street":"An der Trift","HouseNumber":"2","PostalCode":"47228","AdditionalData":[{"value":"Deutschland","key":"CountryName"},{"value":"Nordrhein-Westfalen","key":"StateName"},{"value":"Duisburg","key":"CountyName"}]},"MapReference":{"ReferenceId":"51192602","Spot":0.2,"SideOfStreet":"right","CountryId":"20147700","StateId":"20157369","CountyId":"20157384","CityId":"20157385","DistrictId":"20248878","AddressId":"193689262","RoadLinkId":"34970480"}}},{"Relevance":1.0,"Distance":59.2,"MatchLevel":"houseNumber","MatchQuality":{"Country":1.0,"State":1.0,"County":1.0,"City":1.0,"District":1.0,"Street":[1.0],"HouseNumber":1.0,"PostalCode":1.0},"MatchType":"interpolated","Location":{"LocationId":"NT_44u1GGVeVV..UCb10PBsuC_yED","LocationType":"point","DisplayPosition":{"Latitude":51.41803,"Longitude":6.67816},"MapView":{"TopLeft":{"Latitude":51.4191542,"Longitude":6.6763574},"BottomRight":{"Latitude":51.4169058,"Longitude":6.6799626}},"Address":{"Label":"Oestrumer Straße 21, 47228 Duisburg, Deutschland","Country":"DEU","State":"Nordrhein-Westfalen","County":"Duisburg","City":"Duisburg","District":"Bergheim","Street":"Oestrumer Straße","HouseNumber":"21","PostalCode":"47228","AdditionalData":[{"value":"Deutschland","key":"CountryName"},{"value":"Nordrhein-Westfalen","key":"StateName"},{"value":"Duisburg","key":"CountyName"}]},"MapReference":{"ReferenceId":"587018512","Spot":0.0,"SideOfStreet":"right","CountryId":"20147700","StateId":"20157369","CountyId":"20157384","CityId":"20157385","DistrictId":"20248878","AddressId":"249312095","RoadLinkId":"35662200"}}},{"Relevance":1.0,"Distance":81.5,"MatchLevel":"houseNumber","MatchQuality":{"Country":1.0,"State":1.0,"County":1.0,"City":1.0,"District":1.0,"Street":[1.0],"HouseNumber":1.0,"PostalCode":1.0},"MatchType":"interpolated","Location":{"LocationId":"NT_A9TE.u.t74MVHmsVoaH7vB_xEjN","LocationType":"point","DisplayPosition":{"Latitude":51.41689,"Longitude":6.67752},"MapView":{"TopLeft":{"Latitude":51.4180142,"Longitude":6.6757175},"BottomRight":{"Latitude":51.4157658,"Longitude":6.6793225}},"Address":{"Label":"Lange Straße 116, 47228 Duisburg, Deutschland","Country":"DEU","State":"Nordrhein-Westfalen","County":"Duisburg","City":"Duisburg","District":"Bergheim","Street":"Lange Straße","HouseNumber":"116","PostalCode":"47228","AdditionalData":[{"value":"Deutschland","key":"CountryName"},{"value":"Nordrhein-Westfalen","key":"StateName"},{"value":"Duisburg","key":"CountyName"}]},"MapReference":{"ReferenceId":"51192486","Spot":0.69,"SideOfStreet":"right","CountryId":"20147700","StateId":"20157369","CountyId":"20157384","CityId":"20157385","DistrictId":"20248878","AddressId":"193134310","RoadLinkId":"35001602"}}},{"Relevance":1.0,"Distance":90.1,"MatchLevel":"houseNumber","MatchQuality":{"Country":1.0,"State":1.0,"County":1.0,"City":1.0,"District":1.0,"Street":[1.0],"HouseNumber":1.0,"PostalCode":1.0},"MatchType":"interpolated","Location":{"LocationId":"NT_1-QwRlk4XLMaiE2KeK63cD_xAD","LocationType":"point","DisplayPosition":{"Latitude":51.41811,"Longitude":6.6762},"MapView":{"TopLeft":{"Latitude":51.4192342,"Longitude":6.6743974},"BottomRight":{"Latitude":51.4169858,"Longitude":6.6780026}},"Address":{"Label":"An der Trift 10, 47228 Duisburg, Deutschland","Country":"DEU","State":"Nordrhein-Westfalen","County":"Duisburg","City":"Duisburg","District":"Bergheim","Street":"An der Trift","HouseNumber":"10","PostalCode":"47228","AdditionalData":[{"value":"Deutschland","key":"CountryName"},{"value":"Nordrhein-Westfalen","key":"StateName"},{"value":"Duisburg","key":"CountyName"}]},"MapReference":{"ReferenceId":"51192603","Spot":0.0,"SideOfStreet":"right","CountryId":"20147700","StateId":"20157369","CountyId":"20157384","CityId":"20157385","DistrictId":"20248878","AddressId":"192660794","RoadLinkId":"35782632"}}},{"Relevance":1.0,"Distance":96.3,"MatchLevel":"houseNumber","MatchQuality":{"Country":1.0,"State":1.0,"County":1.0,"City":1.0,"District":1.0,"Street":[1.0],"HouseNumber":1.0,"PostalCode":1.0},"MatchType":"interpolated","Location":{"LocationId":"NT_P7YF67lTyqxLNbRCocakVC_1ITQ","LocationType":"point","DisplayPosition":{"Latitude":51.4172,"Longitude":6.67611},"MapView":{"TopLeft":{"Latitude":51.4183242,"Longitude":6.6743074},"BottomRight":{"Latitude":51.4160758,"Longitude":6.6779126}},"Address":{"Label":"Oberfeld 52A, 47228 Duisburg, Deutschland","Country":"DEU","State":"Nordrhein-Westfalen","County":"Duisburg","City":"Duisburg","District":"Bergheim","Street":"Oberfeld","HouseNumber":"52A","PostalCode":"47228","AdditionalData":[{"value":"Deutschland","key":"CountryName"},{"value":"Nordrhein-Westfalen","key":"StateName"},{"value":"Duisburg","key":"CountyName"}]},"MapReference":{"ReferenceId":"51192262","Spot":0.13,"SideOfStreet":"left","CountryId":"20147700","StateId":"20157369","CountyId":"20157384","CityId":"20157385","DistrictId":"20248878","AddressId":"192890728","RoadLinkId":"35440237"}}}]}]}}