{"Response":{"MetaInfo":{"Timestamp":"2020-03-28T09:51:12.616+0000","NextPageInformation":"2"},"View":[{"_type":"SearchResultsViewType","ViewId":0,"Result":[{"Relevance":1.0,"Distance":0.0,"Direction":0.0,"MatchLevel":"district","MatchQuality":{"Country":1.0,"State":1.0,"County":1.0,"City":1.0,"District":1.0,"PostalCode":1.0},"Location":{"LocationId":"NT_dfMggbE7foqrbgKhIr1Y9A","LocationType":"point","DisplayPosition":{"Latitude":51.4927737,"Longitude":-0.2708089},"MapView":{"TopLeft":{"Latitude":51.50487,"Longitude":-0.28764},"BottomRight":{"Latitude":51.47158,"Longitude":-0.24407}},"Address":{"Label":"W4, London, England, United Kingdom","Country":"GBR","State":"England","County":"London","City":"London","District":"W4","PostalCode":"W4 4","AdditionalData":[{"value":"United Kingdom","key":"CountryName"},{"value":"England","key":"StateName"},{"value":"London","key":"CountyName"}]},"MapReference":{"ReferenceId":"25316597","SideOfStreet":"neither","StateId":"20248595","CountyId":"20337453","CityId":"20337454","DistrictId":"20337573"}}},{"Relevance":1.0,"Distance":3.7,"MatchLevel":"houseNumber","MatchQuality":{"Country":1.0,"State":1.0,"County":1.0,"City":1.0,"District":1.0,"Street":[1.0],"HouseNumber":1.0,"PostalCode":1.0},"MatchType":"interpolated","Location":{"LocationId":"NT_XpufBxe4vaqqVV-n4zr2XC_l_1218727753_R_zUzN","LocationType":"point","DisplayPosition":{"Latitude":51.4929109,"Longitude":-0.2708752},"MapView":{"TopLeft":{"Latitude":51.4940351,"Longitude":-0.2726808},"BottomRight":{"Latitude":51.4917868,"Longitude":-0.2690697}},"Address":{"Label":"357 Chiswick High Road, London, W4 5RH, United Kingdom","Country":"GBR","State":"England","County":"London","City":"London","District":"Chiswick","Street":"Chiswick High Road","HouseNumber":"357","PostalCode":"W4 5RH","AdditionalData":[{"value":"United Kingdom","key":"CountryName"},{"value":"England","key":"StateName"},{"value":"London","key":"CountyName"}]},"MapReference":{"ReferenceId":"1218727753","Spot":0.5,"SideOfStreet":"right","StateId":"20248595","CountyId":"20337453","CityId":"20337454"}}},{"Relevance":1.0,"Distance":22.1,"MatchLevel":"postalCode","MatchQuality":{"PostalCode":1.0},"MatchType":"interpolated","Location":{"LocationId":"NT_XpufBxe4vaqqVV-n4zr2XC_l_1218727753_R_zUzN","LocationType":"point","DisplayPosition":{"Latitude":51.49296,"Longitude":-0.27092},"MapView":{"TopLeft":{"Latitude":51.5019532,"Longitude":-0.2853644},"BottomRight":{"Latitude":51.4839668,"Longitude":-0.2564756}},"Address":{"Label":"W4 5RH, London, England, United Kingdom","Country":"GBR","State":"England","County":"London","City":"London","PostalCode":"W4 5RH","AdditionalData":[{"value":"United Kingdom","key":"CountryName"},{"value":"England","key":"StateName"},{"value":"London","key":"CountyName"}]},"MapReference":{"ReferenceId":"1218727753","Spot":0.5,"SideOfStreet":"neither","StateId":"20248595","CountyId":"20337453","CityId":"20337454"}}},{"Relevance":1.0,"Distance":23.3,"MatchLevel":"houseNumber","MatchQuality":{"Country":1.0,"State":1.0,"County":1.0,"City":1.0,"District":1.0,"Street":[1.0],"PostalCode":1.0},"MatchType":"interpolated","Location":{"LocationId":"NT_XpufBxe4vaqqVV-n4zr2XC","LocationType":"point","DisplayPosition":{"Latitude":51.49294,"Longitude":-0.2705},"MapView":{"TopLeft":{"Latitude":51.4940642,"Longitude":-0.2723055},"BottomRight":{"Latitude":51.4918158,"Longitude":-0.2686945}},"Address":{"Label":"Chiswick High Road, London, W4 5, United Kingdom","Country":"GBR","State":"England","County":"London","City":"London","District":"Chiswick","Street":"Chiswick High Road","PostalCode":"W4 5","AdditionalData":[{"value":"United Kingdom","key":"CountryName"},{"value":"England","key":"StateName"},{"value":"London","key":"CountyName"}],"Building":"Bond House"},"MapReference":{"ReferenceId":"1218718691","Spot":0.31,"SideOfStreet":"right","StateId":"20248595","CountyId":"20337453","CityId":"20337454","AddressId":"763397048","RoadLinkId":"535419561"}}},{"Relevance":1.0,"Distance":25.7,"MatchLevel":"postalCode","MatchQuality":{"PostalCode":1.0},"MatchType":"interpolated","Location":{"LocationId":"NT_XpufBxe4vaqqVV-n4zr2XC","LocationType":"point","DisplayPosition":{"Latitude":51.49298,"Longitude":-0.27064},"MapView":{"TopLeft":{"Latitude":51.5019732,"Longitude":-0.2850844},"BottomRight":{"Latitude":51.4839868,"Longitude":-0.2561956}},"Address":{"Label":"W4 5RL, London, England, United Kingdom","Country":"GBR","State":"England","County":"London","City":"London","PostalCode":"W4 5RL","AdditionalData":[{"value":"United Kingdom","key":"CountryName"},{"value":"England","key":"StateName"},{"value":"London","key":"CountyName"}]},"MapReference":{"ReferenceId":"1218718691","Spot":0.31,"SideOfStreet":"neither","StateId":"20248595","CountyId":"20337453","CityId":"20337454"}}},{"Relevance":1.0,"Distance":27.6,"MatchLevel":"houseNumber","MatchQuality":{"Country":1.0,"State":1.0,"County":1.0,"City":1.0,"District":1.0,"Street":[1.0],"HouseNumber":1.0,"PostalCode":1.0},"MatchType":"interpolated","Location":{"LocationId":"NT_Z9AdsnKH-202NIICLgHf8D_l_1218727752_R_zUTO","LocationType":"point","DisplayPosition":{"Latitude":51.49287,"Longitude":-0.27122},"MapView":{"TopLeft":{"Latitude":51.4939942,"Longitude":-0.2730255},"BottomRight":{"Latitude":51.4917458,"Longitude":-0.2694144}},"Address":{"Label":"359 Chiswick High Road, London, W4 5, United Kingdom","Country":"GBR","State":"England","County":"London","City":"London","District":"Chiswick","Street":"Chiswick High Road","HouseNumber":"359","PostalCode":"W4 5","AdditionalData":[{"value":"United Kingdom","key":"CountryName"},{"value":"England","key":"StateName"},{"value":"London","key":"CountyName"}]},"MapReference":{"ReferenceId":"1218727752","Spot":0.5,"SideOfStreet":"right","StateId":"20248595","CountyId":"20337453","CityId":"20337454"}}},{"Relevance":1.0,"Distance":45.7,"MatchLevel":"houseNumber","MatchQuality":{"Country":1.0,"State":1.0,"County":1.0,"City":1.0,"District":1.0,"Street":[1.0],"HouseNumber":1.0,"PostalCode":1.0},"MatchType":"interpolated","Location":{"LocationId":"NT_XpufBxe4vaqqVV-n4zr2XC_l_835443191_R_zYzM","LocationType":"point","DisplayPosition":{"Latitude":51.4928359,"Longitude":-0.2714786},"MapView":{"TopLeft":{"Latitude":51.4939601,"Longitude":-0.2732841},"BottomRight":{"Latitude":51.4917118,"Longitude":-0.269673}},"Address":{"Label":"363 Chiswick High Road, London, W4 5, United Kingdom","Country":"GBR","State":"England","County":"London","City":"London","District":"Chiswick","Street":"Chiswick High Road","HouseNumber":"363","PostalCode":"W4 5","AdditionalData":[{"value":"United Kingdom","key":"CountryName"},{"value":"England","key":"StateName"},{"value":"London","key":"CountyName"}]},"MapReference":{"ReferenceId":"835443191","Spot":0.53,"SideOfStreet":"right","StateId":"20248595","CountyId":"20337453","CityId":"20337454"}}},{"Relevance":1.0,"Distance":49.7,"MatchLevel":"postalCode","MatchQuality":{"PostalCode":1.0},"MatchType":"interpolated","Location":{"LocationId":"NT_V9-UFSwNPYWi9atjXxHvaD","LocationType":"point","DisplayPosition":{"Latitude":51.49255,"Longitude":-0.27143},"MapView":{"TopLeft":{"Latitude":51.5015432,"Longitude":-0.2858742},"BottomRight":{"Latitude":51.4835568,"Longitude":-0.2569858}},"Address":{"Label":"W4 4AZ, London, England, United Kingdom","Country":"GBR","State":"England","County":"London","City":"London","PostalCode":"W4 4AZ","AdditionalData":[{"value":"United Kingdom","key":"CountryName"},{"value":"England","key":"StateName"},{"value":"London","key":"CountyName"}]},"MapReference":{"ReferenceId":"25316103","Spot":0.47,"SideOfStreet":"neither","StateId":"20248595","CountyId":"20337453","CityId":"20337454"}}},{"Relevance":1.0,"Distance":50.2,"MatchLevel":"street","MatchQuality":{"Country":1.0,"State":1.0,"County":1.0,"City":1.0,"District":1.0,"PostalCode":1.0},"Location":{"LocationId":"NT_BWoO1WI79jAB6Rq2apA6OB_l_25480864_L","LocationType":"point","DisplayPosition":{"Latitude":51.492756,"Longitude":-0.2700845},"MapView":{"TopLeft":{"Latitude":51.49294,"Longitude":-0.27009},"BottomRight":{"Latitude":51.49253,"Longitude":-0.27008}},"Address":{"Label":"London, W4 4, United Kingdom","Country":"GBR","State":"England","County":"London","City":"London","District":"Chiswick","PostalCode":"W4 4","AdditionalData":[{"value":"United Kingdom","key":"CountryName"},{"value":"England","key":"StateName"},{"value":"London","key":"CountyName"}]},"MapReference":{"ReferenceId":"25480864","Spot":0.55,"SideOfStreet":"left","StateId":"20248595","CountyId":"20337453","CityId":"20337454"}}},{"Relevance":1.0,"Distance":52.4,"MatchLevel":"houseNumber","MatchQuality":{"Country":1.0,"State":1.0,"County":1.0,"City":1.0,"District":1.0,"Street":[1.0],"PostalCode":1.0},"MatchType":"interpolated","Location":{"LocationId":"NT_V9-UFSwNPYWi9atjXxHvaD","LocationType":"point","DisplayPosition":{"Latitude":51.49231,"Longitude":-0.27142},"MapView":{"TopLeft":{"Latitude":51.4934342,"Longitude":-0.2732255},"BottomRight":{"Latitude":51.4911858,"Longitude":-0.2696145}},"Address":{"Label":"Marlborough Road, London, W4 4, United Kingdom","Country":"GBR","State":"England","County":"London","City":"London","District":"Chiswick","Street":"Marlborough Road","PostalCode":"W4 4","AdditionalData":[{"value":"United Kingdom","key":"CountryName"},{"value":"England","key":"StateName"},{"value":"London","key":"CountyName"}],"Building":"Troubridge Court"},"MapReference":{"ReferenceId":"25316103","Spot":0.47,"SideOfStreet":"right","StateId":"20248595","CountyId":"20337453","CityId":"20337454","AddressId":"763638757","RoadLinkId":"82257808"}}}]}]}}