{"Response":{"MetaInfo":{"Timestamp":"2020-03-28T10:47:55.119+0000","NextPageInformation":"2"},"View":[{"_type":"SearchResultsViewType","ViewId":0,"Result":[{"Relevance":1.0,"Distance":0.0,"Direction":0.0,"MatchLevel":"district","MatchQuality":{"Country":1.0,"State":1.0,"County":1.0,"City":1.0,"District":1.0,"PostalCode":1.0},"Location":{"LocationId":"NT_vGKaMeCtJzY1JWh4vX6doB","LocationType":"point","DisplayPosition":{"Latitude":51.4733892,"Longitude":21.8084683},"MapView":{"TopLeft":{"Latitude":51.47776,"Longitude":21.80527},"BottomRight":{"Latitude":51.46895,"Longitude":21.82039}},"Address":{"Label":"Gniewoszów, Woj. Mazowieckie, Polska","Country":"POL","State":"Woj. Mazowieckie","County":"Powiat Kozienicki","City":"Gniewoszów","District":"Gniewoszów","PostalCode":"26-920","AdditionalData":[{"value":"Polska","key":"CountryName"},{"value":"Woj. Mazowieckie","key":"StateName"},{"value":"Powiat Kozienicki","key":"CountyName"}]},"MapReference":{"ReferenceId":"971626198","SideOfStreet":"neither","CountryId":"20624059","StateId":"20627182","CountyId":"20627301","CityId":"20627306","DistrictId":"20687585"}}},{"Relevance":1.0,"Distance":10.0,"MatchLevel":"houseNumber","MatchQuality":{"Country":1.0,"State":1.0,"County":1.0,"City":1.0,"District":1.0,"Street":[1.0],"HouseNumber":1.0,"PostalCode":1.0},"MatchType":"interpolated","Location":{"LocationId":"NT_bRT6ixKS8KWn.i.C7DPiIB_xQD","LocationType":"point","DisplayPosition":{"Latitude":51.47298,"Longitude":21.80868},"MapView":{"TopLeft":{"Latitude":51.4741042,"Longitude":21.8068752},"BottomRight":{"Latitude":51.4718558,"Longitude":21.8104848}},"Address":{"Label":"ulica Sarnowska 14, 26-920 Gniewoszów, Polska","Country":"POL","State":"Woj. Mazowieckie","County":"Powiat Kozienicki","City":"Gniewoszów","District":"Gniewoszów","Street":"ulica Sarnowska","HouseNumber":"14","PostalCode":"26-920","AdditionalData":[{"value":"Polska","key":"CountryName"},{"value":"Woj. Mazowieckie","key":"StateName"},{"value":"Powiat Kozienicki","key":"CountyName"}]},"MapReference":{"ReferenceId":"1133016404","Spot":0.37,"SideOfStreet":"left","CountryId":"20624059","StateId":"20627182","CountyId":"20627301","CityId":"20627306","DistrictId":"20687585","AddressId":"597046924","RoadLinkId":"442999070"}}},{"Relevance":1.0,"Distance":112.4,"MatchLevel":"houseNumber","MatchQuality":{"Country":1.0,"State":1.0,"County":1.0,"City":1.0,"District":1.0,"Street":[1.0],"HouseNumber":1.0,"PostalCode":1.0},"MatchType":"interpolated","Location":{"LocationId":"NT_hE1AJE.u0CmuqFqmRYR7lD_l_1133016403_R_3A","LocationType":"point","DisplayPosition":{"Latitude":51.4726518,"Longitude":21.8073577},"MapView":{"TopLeft":{"Latitude":51.473776,"Longitude":21.805553},"BottomRight":{"Latitude":51.4715277,"Longitude":21.8091624}},"Address":{"Label":"ulica Sarnowska 7, 26-920 Gniewoszów, Polska","Country":"POL","State":"Woj. Mazowieckie","County":"Powiat Kozienicki","City":"Gniewoszów","District":"Gniewoszów","Street":"ulica Sarnowska","HouseNumber":"7","PostalCode":"26-920","AdditionalData":[{"value":"Polska","key":"CountryName"},{"value":"Woj. Mazowieckie","key":"StateName"},{"value":"Powiat Kozienicki","key":"CountyName"}]},"MapReference":{"ReferenceId":"1133016403","Spot":0.52,"SideOfStreet":"right","CountryId":"20624059","StateId":"20627182","CountyId":"20627301","CityId":"20627306","DistrictId":"20687585"}}},{"Relevance":1.0,"Distance":127.1,"MatchLevel":"street","MatchQuality":{"Country":1.0,"State":1.0,"County":1.0,"City":1.0,"Street":[1.0],"PostalCode":1.0},"Location":{"LocationId":"NT_tx6sJOEcvuFmc7VlbdEuOD_l_596012455_L","LocationType":"point","DisplayPosition":{"Latitude":51.4726,"Longitude":21.80714},"MapView":{"TopLeft":{"Latitude":51.4726,"Longitude":21.79276},"BottomRight":{"Latitude":51.46887,"Longitude":21.80714}},"Address":{"Label":"788, 26-920, Polska","Country":"POL","State":"Woj. Mazowieckie","County":"Powiat Kozienicki","City":"Gniewoszów","Street":"788","PostalCode":"26-920","AdditionalData":[{"value":"Polska","key":"CountryName"},{"value":"Woj. Mazowieckie","key":"StateName"},{"value":"Powiat Kozienicki","key":"CountyName"}]},"MapReference":{"ReferenceId":"596012455","Spot":1.0,"SideOfStreet":"left","CountryId":"20624059","StateId":"20627182","CountyId":"20627301","CityId":"20627306"}}},{"Relevance":1.0,"Distance":171.3,"MatchLevel":"houseNumber","MatchQuality":{"Country":1.0,"State":1.0,"County":1.0,"City":1.0,"District":1.0,"Street":[1.0],"HouseNumber":1.0,"PostalCode":1.0},"MatchType":"interpolated","Location":{"LocationId":"NT_BtEmkr18Ex81GynURcZ3vC_1A","LocationType":"point","DisplayPosition":{"Latitude":51.4741,"Longitude":21.81086},"MapView":{"TopLeft":{"Latitude":51.4752242,"Longitude":21.8090552},"BottomRight":{"Latitude":51.4729758,"Longitude":21.8126648}},"Address":{"Label":"ulica Jana Kochanowskiego 5, 26-920 Gniewoszów, Polska","Country":"POL","State":"Woj. Mazowieckie","County":"Powiat Kozienicki","City":"Gniewoszów","District":"Gniewoszów","Street":"ulica Jana Kochanowskiego","HouseNumber":"5","PostalCode":"26-920","AdditionalData":[{"value":"Polska","key":"CountryName"},{"value":"Woj. Mazowieckie","key":"StateName"},{"value":"Powiat Kozienicki","key":"CountyName"}]},"MapReference":{"ReferenceId":"709418937","Spot":0.36,"SideOfStreet":"left","CountryId":"20624059","StateId":"20627182","CountyId":"20627301","CityId":"20627306","DistrictId":"20687585","AddressId":"597089785","RoadLinkId":"114762743"}}},{"Relevance":1.0,"Distance":174.0,"MatchLevel":"houseNumber","MatchQuality":{"Country":1.0,"State":1.0,"County":1.0,"City":1.0,"District":1.0,"Street":[1.0],"HouseNumber":1.0,"PostalCode":1.0},"MatchType":"interpolated","Location":{"LocationId":"NT_pveii2MNJX9jsg2KCYBA6A_xA","LocationType":"point","DisplayPosition":{"Latitude":51.47376,"Longitude":21.81127},"MapView":{"TopLeft":{"Latitude":51.4748842,"Longitude":21.8094652},"BottomRight":{"Latitude":51.4726358,"Longitude":21.8130748}},"Address":{"Label":"ulica Wąska 1, 26-920 Gniewoszów, Polska","Country":"POL","State":"Woj. Mazowieckie","County":"Powiat Kozienicki","City":"Gniewoszów","District":"Gniewoszów","Street":"ulica Wąska","HouseNumber":"1","PostalCode":"26-920","AdditionalData":[{"value":"Polska","key":"CountryName"},{"value":"Woj. Mazowieckie","key":"StateName"},{"value":"Powiat Kozienicki","key":"CountyName"}]},"MapReference":{"ReferenceId":"761992245","Spot":0.97,"SideOfStreet":"left","CountryId":"20624059","StateId":"20627182","CountyId":"20627301","CityId":"20627306","DistrictId":"20687585","AddressId":"731944786","RoadLinkId":"156192281"}}},{"Relevance":1.0,"Distance":177.6,"MatchLevel":"houseNumber","MatchQuality":{"Country":1.0,"State":1.0,"County":1.0,"City":1.0,"District":1.0,"Street":[1.0],"HouseNumber":1.0,"PostalCode":1.0},"MatchType":"interpolated","Location":{"LocationId":"NT_bRT6ixKS8KWn.i.C7DPiIB_yA","LocationType":"point","DisplayPosition":{"Latitude":51.4737,"Longitude":21.81102},"MapView":{"TopLeft":{"Latitude":51.4748242,"Longitude":21.8092152},"BottomRight":{"Latitude":51.4725758,"Longitude":21.8128248}},"Address":{"Label":"ulica Sarnowska 2, 26-920 Gniewoszów, Polska","Country":"POL","State":"Woj. Mazowieckie","County":"Powiat Kozienicki","City":"Gniewoszów","District":"Gniewoszów","Street":"ulica Sarnowska","HouseNumber":"2","PostalCode":"26-920","AdditionalData":[{"value":"Polska","key":"CountryName"},{"value":"Woj. Mazowieckie","key":"StateName"},{"value":"Powiat Kozienicki","key":"CountyName"}]},"MapReference":{"ReferenceId":"761992241","Spot":0.66,"SideOfStreet":"left","CountryId":"20624059","StateId":"20627182","CountyId":"20627301","CityId":"20627306","DistrictId":"20687585","AddressId":"596789389","RoadLinkId":"156192277"}}},{"Relevance":1.0,"Distance":194.9,"MatchLevel":"houseNumber","MatchQuality":{"Country":1.0,"State":1.0,"County":1.0,"City":1.0,"District":1.0,"Street":[1.0],"HouseNumber":1.0,"PostalCode":1.0},"MatchType":"interpolated","Location":{"LocationId":"NT_BeIJCGwXWmk6Zbr1Jq.A7B_zgD","LocationType":"point","DisplayPosition":{"Latitude":51.474,"Longitude":21.81175},"MapView":{"TopLeft":{"Latitude":51.4751242,"Longitude":21.8099452},"BottomRight":{"Latitude":51.4728758,"Longitude":21.8135548}},"Address":{"Label":"ulica Rynek 38, 26-920 Gniewoszów, Polska","Country":"POL","State":"Woj. Mazowieckie","County":"Powiat Kozienicki","City":"Gniewoszów","District":"Gniewoszów","Street":"ulica Rynek","HouseNumber":"38","PostalCode":"26-920","AdditionalData":[{"value":"Polska","key":"CountryName"},{"value":"Woj. Mazowieckie","key":"StateName"},{"value":"Powiat Kozienicki","key":"CountyName"}]},"MapReference":{"ReferenceId":"971625770","Spot":0.13,"SideOfStreet":"left","CountryId":"20624059","StateId":"20627182","CountyId":"20627301","CityId":"20627306","DistrictId":"20687585","AddressId":"596875897","RoadLinkId":"308014059"}}},{"Relevance":1.0,"Distance":196.6,"MatchLevel":"street","MatchQuality":{"Country":1.0,"State":1.0,"County":1.0,"City":1.0,"District":1.0,"Street":[1.0],"PostalCode":1.0},"Location":{"LocationId":"NT_bRT6ixKS8KWn.i.C7DPiIB_l_971626193_L","LocationType":"point","DisplayPosition":{"Latitude":51.47377,"Longitude":21.81124},"MapView":{"TopLeft":{"Latitude":51.47384,"Longitude":21.81124},"BottomRight":{"Latitude":51.47377,"Longitude":21.81147}},"Address":{"Label":"ulica Sarnowska, 26-920 Gniewoszów, Polska","Country":"POL","State":"Woj. Mazowieckie","County":"Powiat Kozienicki","City":"Gniewoszów","District":"Gniewoszów","Street":"ulica Sarnowska","PostalCode":"26-920","AdditionalData":[{"value":"Polska","key":"CountryName"},{"value":"Woj. Mazowieckie","key":"StateName"},{"value":"Powiat Kozienicki","key":"CountyName"}]},"MapReference":{"ReferenceId":"971626193","Spot":0.0,"SideOfStreet":"left","CountryId":"20624059","StateId":"20627182","CountyId":"20627301","CityId":"20627306","DistrictId":"20687585"}}},{"Relevance":1.0,"Distance":213.6,"MatchLevel":"houseNumber","MatchQuality":{"Country":1.0,"State":1.0,"County":1.0,"City":1.0,"District":1.0,"Street":[1.0],"HouseNumber":1.0,"PostalCode":1.0},"MatchType":"interpolated","Location":{"LocationId":"NT_KWkC90ATCE6suZCok06XnC_xYD","LocationType":"point","DisplayPosition":{"Latitude":51.47206,"Longitude":21.81138},"MapView":{"TopLeft":{"Latitude":51.4731842,"Longitude":21.8095753},"BottomRight":{"Latitude":51.4709358,"Longitude":21.8131847}},"Address":{"Label":"ulica Marii Konopnickiej 16, 26-920 Gniewoszów, Polska","Country":"POL","State":"Woj. Mazowieckie","County":"Powiat Kozienicki","City":"Gniewoszów","District":"Gniewoszów","Street":"ulica Marii Konopnickiej","HouseNumber":"16","PostalCode":"26-920","AdditionalData":[{"value":"Polska","key":"CountryName"},{"value":"Woj. Mazowieckie","key":"StateName"},{"value":"Powiat Kozienicki","key":"CountyName"}]},"MapReference":{"ReferenceId":"971678291","Spot":0.16,"SideOfStreet":"left","CountryId":"20624059","StateId":"20627182","CountyId":"20627301","CityId":"20627306","DistrictId":"20687585","AddressId":"596857592","RoadLinkId":"308069548"}}}]}]}}