{"Response":{"MetaInfo":{"Timestamp":"2020-03-28T10:10:44.868+0000","NextPageInformation":"2"},"View":[{"_type":"SearchResultsViewType","ViewId":0,"Result":[{"Relevance":1.0,"Distance":0.0,"Direction":0.0,"MatchLevel":"district","MatchQuality":{"Country":1.0,"State":1.0,"County":1.0,"City":1.0,"District":1.0,"PostalCode":1.0},"Location":{"LocationId":"NT_VuB-o8R9DYt6IAH6d4iH1D","LocationType":"point","DisplayPosition":{"Latitude":51.4883268,"Longitude":-2.6743305},"MapView":{"TopLeft":{"Latitude":51.49449,"Longitude":-2.68914},"BottomRight":{"Latitude":51.48224,"Longitude":-2.66661}},"Address":{"Label":"Shirehampton, Bristol, England, United Kingdom","Country":"GBR","State":"England","County":"Avon","City":"Bristol","District":"Shirehampton","PostalCode":"BS11 9","AdditionalData":[{"value":"United Kingdom","key":"CountryName"},{"value":"England","key":"StateName"},{"value":"Avon","key":"CountyName"}]},"MapReference":{"ReferenceId":"577312480","SideOfStreet":"neither","StateId":"20248595","CountyId":"20352323","CityId":"20352420","DistrictId":"20352542"}}},{"Relevance":1.0,"Distance":0.8,"MatchLevel":"houseNumber","MatchQuality":{"Country":1.0,"State":1.0,"County":1.0,"City":1.0,"District":1.0,"Street":[1.0],"HouseNumber":1.0,"PostalCode":1.0},"MatchType":"interpolated","Location":{"LocationId":"NT_JbLLxPDeUTfox2nYe9j.9A_l_26753587_L_0A","LocationType":"point","DisplayPosition":{"Latitude":51.488316,"Longitude":-2.674104},"MapView":{"TopLeft":{"Latitude":51.4894402,"Longitude":-2.6759094},"BottomRight":{"Latitude":51.4871919,"Longitude":-2.6722986}},"Address":{"Label":"4 The Parade, Bristol, BS11 9, United Kingdom","Country":"GBR","State":"England","County":"Avon","City":"Bristol","District":"Shirehampton","Street":"The Parade","HouseNumber":"4","PostalCode":"BS11 9","AdditionalData":[{"value":"United Kingdom","key":"CountryName"},{"value":"England","key":"StateName"},{"value":"Avon","key":"CountyName"}]},"MapReference":{"ReferenceId":"26753587","Spot":0.53,"SideOfStreet":"left","StateId":"20248595","CountyId":"20352323","CityId":"20352420","DistrictId":"20352542"}}},{"Relevance":1.0,"Distance":12.5,"MatchLevel":"postalCode","MatchQuality":{"PostalCode":1.0},"MatchType":"interpolated","Location":{"LocationId":"NT_JbLLxPDeUTfox2nYe9j.9A_l_26753587_L_0A","LocationType":"point","DisplayPosition":{"Latitude":51.48833,"Longitude":-2.67415},"MapView":{"TopLeft":{"Latitude":51.4973232,"Longitude":-2.6885929},"BottomRight":{"Latitude":51.4793368,"Longitude":-2.6597071}},"Address":{"Label":"BS11 9TS, Bristol, England, United Kingdom","Country":"GBR","State":"England","County":"Avon","City":"Bristol","PostalCode":"BS11 9TS","AdditionalData":[{"value":"United Kingdom","key":"CountryName"},{"value":"England","key":"StateName"},{"value":"Avon","key":"CountyName"}]},"MapReference":{"ReferenceId":"26753587","Spot":0.53,"SideOfStreet":"neither","StateId":"20248595","CountyId":"20352323","CityId":"20352420"}}},{"Relevance":1.0,"Distance":26.4,"MatchLevel":"street","MatchQuality":{"Country":1.0,"State":1.0,"County":1.0,"City":1.0,"District":1.0,"Street":[1.0],"PostalCode":1.0},"Location":{"LocationId":"NT_SZ0136t3eGqhZ8VGRMT2BD_l_26753513_R","LocationType":"point","DisplayPosition":{"Latitude":51.48852,"Longitude":-2.67411},"MapView":{"TopLeft":{"Latitude":51.48875,"Longitude":-2.67411},"BottomRight":{"Latitude":51.48852,"Longitude":-2.67333}},"Address":{"Label":"The Green, Bristol, BS11 0, United Kingdom","Country":"GBR","State":"England","County":"Avon","City":"Bristol","District":"Shirehampton","Street":"The Green","PostalCode":"BS11 0","AdditionalData":[{"value":"United Kingdom","key":"CountryName"},{"value":"England","key":"StateName"},{"value":"Avon","key":"CountyName"}]},"MapReference":{"ReferenceId":"26753513","Spot":0.0,"SideOfStreet":"right","StateId":"20248595","CountyId":"20352323","CityId":"20352420","DistrictId":"20352542"}}},{"Relevance":1.0,"Distance":27.3,"MatchLevel":"street","MatchQuality":{"Country":1.0,"State":1.0,"County":1.0,"City":1.0,"District":1.0,"PostalCode":1.0},"Location":{"LocationId":"NT_Et3tReQ3iu.xG-ha2R5M0B_l_881422324_L","LocationType":"point","DisplayPosition":{"Latitude":51.4881,"Longitude":-2.67418},"MapView":{"TopLeft":{"Latitude":51.48811,"Longitude":-2.67418},"BottomRight":{"Latitude":51.48804,"Longitude":-2.67364}},"Address":{"Label":"Bristol, BS11 9, United Kingdom","Country":"GBR","State":"England","County":"Avon","City":"Bristol","District":"Shirehampton","PostalCode":"BS11 9","AdditionalData":[{"value":"United Kingdom","key":"CountryName"},{"value":"England","key":"StateName"},{"value":"Avon","key":"CountyName"}]},"MapReference":{"ReferenceId":"881422324","Spot":0.0,"SideOfStreet":"left","StateId":"20248595","CountyId":"20352323","CityId":"20352420","DistrictId":"20352542"}}},{"Relevance":1.0,"Distance":28.3,"MatchLevel":"street","MatchQuality":{"Country":1.0,"State":1.0,"County":1.0,"City":1.0,"District":1.0,"Street":[1.0],"PostalCode":1.0},"Location":{"LocationId":"NT_Zp5y1cd.wVnsWKRT0iZ.IA_l_26753514_L","LocationType":"point","DisplayPosition":{"Latitude":51.4885604,"Longitude":-2.6741682},"MapView":{"TopLeft":{"Latitude":51.48885,"Longitude":-2.67456},"BottomRight":{"Latitude":51.48852,"Longitude":-2.67411}},"Address":{"Label":"The Green, Bristol, BS11 0, United Kingdom","Country":"GBR","State":"England","County":"Avon","City":"Bristol","District":"Shirehampton","Street":"The Green","PostalCode":"BS11 0","AdditionalData":[{"value":"United Kingdom","key":"CountryName"},{"value":"England","key":"StateName"},{"value":"Avon","key":"CountyName"}]},"MapReference":{"ReferenceId":"26753514","Spot":0.13,"SideOfStreet":"left","StateId":"20248595","CountyId":"20352323","CityId":"20352420","DistrictId":"20352542"}}},{"Relevance":1.0,"Distance":36.5,"MatchLevel":"houseNumber","MatchQuality":{"Country":1.0,"State":1.0,"County":1.0,"City":1.0,"District":1.0,"Street":[1.0],"HouseNumber":1.0,"PostalCode":1.0},"MatchType":"interpolated","Location":{"LocationId":"NT_z3z3ynofTfP2Wmk3R-FtVC_l_26753625_R_yA","LocationType":"point","DisplayPosition":{"Latitude":51.48791,"Longitude":-2.67464},"MapView":{"TopLeft":{"Latitude":51.4890342,"Longitude":-2.6764454},"BottomRight":{"Latitude":51.4867859,"Longitude":-2.6728347}},"Address":{"Label":"2 Pembroke Road, Bristol, BS11 9SQ, United Kingdom","Country":"GBR","State":"England","County":"Avon","City":"Bristol","District":"Shirehampton","Street":"Pembroke Road","HouseNumber":"2","PostalCode":"BS11 9SQ","AdditionalData":[{"value":"United Kingdom","key":"CountryName"},{"value":"England","key":"StateName"},{"value":"Avon","key":"CountyName"}]},"MapReference":{"ReferenceId":"26753625","Spot":0.22,"SideOfStreet":"right","StateId":"20248595","CountyId":"20352323","CityId":"20352420","DistrictId":"20352542"}}},{"Relevance":1.0,"Distance":37.1,"MatchLevel":"postalCode","MatchQuality":{"PostalCode":1.0},"MatchType":"interpolated","Location":{"LocationId":"NT_wov5ICQHhE-mlnghcL2h1D_l_26753624_R_xAD","LocationType":"point","DisplayPosition":{"Latitude":51.48812,"Longitude":-2.67391},"MapView":{"TopLeft":{"Latitude":51.4971132,"Longitude":-2.6883528},"BottomRight":{"Latitude":51.4791268,"Longitude":-2.6594672}},"Address":{"Label":"BS11 9TT, Bristol, England, United Kingdom","Country":"GBR","State":"England","County":"Avon","City":"Bristol","PostalCode":"BS11 9TT","AdditionalData":[{"value":"United Kingdom","key":"CountryName"},{"value":"England","key":"StateName"},{"value":"Avon","key":"CountyName"}]},"MapReference":{"ReferenceId":"26753624","Spot":0.53,"SideOfStreet":"neither","StateId":"20248595","CountyId":"20352323","CityId":"20352420"}}},{"Relevance":1.0,"Distance":39.3,"MatchLevel":"houseNumber","MatchQuality":{"Country":1.0,"State":1.0,"County":1.0,"City":1.0,"District":1.0,"Street":[1.0],"HouseNumber":1.0,"PostalCode":1.0},"MatchType":"interpolated","Location":{"LocationId":"NT_wov5ICQHhE-mlnghcL2h1D_l_26753624_R_xAD","LocationType":"point","DisplayPosition":{"Latitude":51.487974,"Longitude":-2.674306},"MapView":{"TopLeft":{"Latitude":51.4890982,"Longitude":-2.6761113},"BottomRight":{"Latitude":51.4868499,"Longitude":-2.6725006}},"Address":{"Label":"10 Station Road, Bristol, BS11 9, United Kingdom","Country":"GBR","State":"England","County":"Avon","City":"Bristol","District":"Shirehampton","Street":"Station Road","HouseNumber":"10","PostalCode":"BS11 9","AdditionalData":[{"value":"United Kingdom","key":"CountryName"},{"value":"England","key":"StateName"},{"value":"Avon","key":"CountyName"}]},"MapReference":{"ReferenceId":"26753624","Spot":0.53,"SideOfStreet":"right","StateId":"20248595","CountyId":"20352323","CityId":"20352420","DistrictId":"20352542"}}},{"Relevance":1.0,"Distance":40.4,"MatchLevel":"street","MatchQuality":{"Country":1.0,"State":1.0,"County":1.0,"City":1.0,"District":1.0,"PostalCode":1.0},"Location":{"LocationId":"NT_Et3tReQ3iu.xG-ha2R5M0B_l_881422273_L","LocationType":"point","DisplayPosition":{"Latitude":51.48845,"Longitude":-2.67488},"MapView":{"TopLeft":{"Latitude":51.48866,"Longitude":-2.6756},"BottomRight":{"Latitude":51.48841,"Longitude":-2.67488}},"Address":{"Label":"Bristol, BS11 9, United Kingdom","Country":"GBR","State":"England","County":"Avon","City":"Bristol","District":"Shirehampton","PostalCode":"BS11 9","AdditionalData":[{"value":"United Kingdom","key":"CountryName"},{"value":"England","key":"StateName"},{"value":"Avon","key":"CountyName"}]},"MapReference":{"ReferenceId":"881422273","Spot":1.0,"SideOfStreet":"left","StateId":"20248595","CountyId":"20352323","CityId":"20352420","DistrictId":"20352542"}}}]}]}}