{"Response":{"MetaInfo":{"Timestamp":"2020-03-28T09:53:13.384+0000","NextPageInformation":"2"},"View":[{"_type":"SearchResultsViewType","ViewId":0,"Result":[{"Relevance":1.0,"Distance":0.0,"Direction":0.0,"MatchLevel":"district","MatchQuality":{"Country":1.0,"State":1.0,"County":1.0,"City":1.0,"District":1.0,"PostalCode":1.0},"Location":{"LocationId":"NT_cPyW8rU9U2hj-dU7rqyu1C","LocationType":"point","DisplayPosition":{"Latitude":51.4944838,"Longitude":-2.6184004},"MapView":{"TopLeft":{"Latitude":51.51753,"Longitude":-2.65532},"BottomRight":{"Latitude":51.39937,"Longitude":-2.51087}},"Address":{"Label":"Bristol, England, United Kingdom","Country":"GBR","State":"England","County":"Avon","City":"Bristol","District":"Bristol","PostalCode":"BS1 6","AdditionalData":[{"value":"United Kingdom","key":"CountryName"},{"value":"England","key":"StateName"},{"value":"Avon","key":"CountyName"}]},"MapReference":{"ReferenceId":"786168041","SideOfStreet":"neither","StateId":"20248595","CountyId":"20352323","CityId":"20352420","DistrictId":"20352421"}}},{"Relevance":1.0,"Distance":1.5,"MatchLevel":"postalCode","MatchQuality":{"PostalCode":1.0},"MatchType":"interpolated","Location":{"LocationId":"NT_60OU-wbXBlLLOKHw6czMdD_l_1198260440_L_2MD","LocationType":"point","DisplayPosition":{"Latitude":51.49448,"Longitude":-2.61838},"MapView":{"TopLeft":{"Latitude":51.5034732,"Longitude":-2.6328248},"BottomRight":{"Latitude":51.4854868,"Longitude":-2.6039352}},"Address":{"Label":"BS9 3ED, Bristol, England, United Kingdom","Country":"GBR","State":"England","County":"Avon","City":"Bristol","PostalCode":"BS9 3ED","AdditionalData":[{"value":"United Kingdom","key":"CountryName"},{"value":"England","key":"StateName"},{"value":"Avon","key":"CountyName"}]},"MapReference":{"ReferenceId":"1198260440","Spot":0.62,"SideOfStreet":"neither","StateId":"20248595","CountyId":"20352323","CityId":"20352420"}}},{"Relevance":1.0,"Distance":5.3,"MatchLevel":"houseNumber","MatchQuality":{"Country":1.0,"State":1.0,"County":1.0,"City":1.0,"District":1.0,"Street":[1.0],"HouseNumber":1.0,"PostalCode":1.0},"MatchType":"interpolated","Location":{"LocationId":"NT_60OU-wbXBlLLOKHw6czMdD_l_1198260440_L_2MD","LocationType":"point","DisplayPosition":{"Latitude":51.4944484,"Longitude":-2.6183491},"MapView":{"TopLeft":{"Latitude":51.4955726,"Longitude":-2.6201547},"BottomRight":{"Latitude":51.4933243,"Longitude":-2.6165435}},"Address":{"Label":"63 High Street, Bristol, BS9 3ED, United Kingdom","Country":"GBR","State":"England","County":"Avon","City":"Bristol","District":"Bristol","Street":"High Street","HouseNumber":"63","PostalCode":"BS9 3ED","AdditionalData":[{"value":"United Kingdom","key":"CountryName"},{"value":"England","key":"StateName"},{"value":"Avon","key":"CountyName"}]},"MapReference":{"ReferenceId":"1198260440","Spot":0.62,"SideOfStreet":"left","StateId":"20248595","CountyId":"20352323","CityId":"20352420","DistrictId":"20352421"}}},{"Relevance":1.0,"Distance":23.0,"MatchLevel":"houseNumber","MatchQuality":{"Country":1.0,"State":1.0,"County":1.0,"City":1.0,"District":1.0,"Street":[1.0],"HouseNumber":1.0,"PostalCode":1.0},"MatchType":"interpolated","Location":{"LocationId":"NT_60OU-wbXBlLLOKHw6czMdD_l_26752613_L_2cD","LocationType":"point","DisplayPosition":{"Latitude":51.49462,"Longitude":-2.61815},"MapView":{"TopLeft":{"Latitude":51.4957442,"Longitude":-2.6199556},"BottomRight":{"Latitude":51.4934959,"Longitude":-2.6163444}},"Address":{"Label":"67 High Street, Bristol, BS9 3, United Kingdom","Country":"GBR","State":"England","County":"Avon","City":"Bristol","District":"Bristol","Street":"High Street","HouseNumber":"67","PostalCode":"BS9 3","AdditionalData":[{"value":"United Kingdom","key":"CountryName"},{"value":"England","key":"StateName"},{"value":"Avon","key":"CountyName"}]},"MapReference":{"ReferenceId":"26752613","Spot":0.0,"SideOfStreet":"left","StateId":"20248595","CountyId":"20352323","CityId":"20352420","DistrictId":"20352421"}}},{"Relevance":1.0,"Distance":27.7,"MatchLevel":"postalCode","MatchQuality":{"PostalCode":1.0},"MatchType":"interpolated","Location":{"LocationId":"NT_60OU-wbXBlLLOKHw6czMdD_l_26752613_L_2cD","LocationType":"point","DisplayPosition":{"Latitude":51.49454,"Longitude":-2.61801},"MapView":{"TopLeft":{"Latitude":51.5035332,"Longitude":-2.6324549},"BottomRight":{"Latitude":51.4855468,"Longitude":-2.6035651}},"Address":{"Label":"BS9 3DZ, Bristol, England, United Kingdom","Country":"GBR","State":"England","County":"Avon","City":"Bristol","PostalCode":"BS9 3DZ","AdditionalData":[{"value":"United Kingdom","key":"CountryName"},{"value":"England","key":"StateName"},{"value":"Avon","key":"CountyName"}]},"MapReference":{"ReferenceId":"26752613","Spot":0.0,"SideOfStreet":"neither","StateId":"20248595","CountyId":"20352323","CityId":"20352420"}}},{"Relevance":1.0,"Distance":34.2,"MatchLevel":"houseNumber","MatchQuality":{"Country":1.0,"State":1.0,"County":1.0,"City":1.0,"District":1.0,"Street":[1.0],"HouseNumber":1.0,"PostalCode":1.0},"MatchType":"interpolated","Location":{"LocationId":"NT_Ib6G0rv6PLw2ufD6ErVqtC_l_1204444518_L_yQD","LocationType":"point","DisplayPosition":{"Latitude":51.494885,"Longitude":-2.618135},"MapView":{"TopLeft":{"Latitude":51.4960092,"Longitude":-2.6199406},"BottomRight":{"Latitude":51.4937609,"Longitude":-2.6163294}},"Address":{"Label":"24 Westfield Road, Bristol, BS9 3HG, United Kingdom","Country":"GBR","State":"England","County":"Avon","City":"Bristol","District":"Bristol","Street":"Westfield Road","HouseNumber":"24","PostalCode":"BS9 3HG","AdditionalData":[{"value":"United Kingdom","key":"CountryName"},{"value":"England","key":"StateName"},{"value":"Avon","key":"CountyName"}]},"MapReference":{"ReferenceId":"1204444518","Spot":0.49,"SideOfStreet":"left","StateId":"20248595","CountyId":"20352323","CityId":"20352420","DistrictId":"20352421"}}},{"Relevance":1.0,"Distance":37.6,"MatchLevel":"houseNumber","MatchQuality":{"Country":1.0,"State":1.0,"County":1.0,"City":1.0,"District":1.0,"Street":[1.0],"HouseNumber":1.0,"PostalCode":1.0},"MatchType":"interpolated","Location":{"LocationId":"NT_vLMeMloHOyYuzfoq4bZDbA_l_26752637_L_xED","LocationType":"point","DisplayPosition":{"Latitude":51.494555,"Longitude":-2.617845},"MapView":{"TopLeft":{"Latitude":51.4956792,"Longitude":-2.6196506},"BottomRight":{"Latitude":51.4934309,"Longitude":-2.6160394}},"Address":{"Label":"11 College Road, Bristol, BS9 3EJ, United Kingdom","Country":"GBR","State":"England","County":"Avon","City":"Bristol","District":"Bristol","Street":"College Road","HouseNumber":"11","PostalCode":"BS9 3EJ","AdditionalData":[{"value":"United Kingdom","key":"CountryName"},{"value":"England","key":"StateName"},{"value":"Avon","key":"CountyName"}]},"MapReference":{"ReferenceId":"26752637","Spot":0.49,"SideOfStreet":"left","StateId":"20248595","CountyId":"20352323","CityId":"20352420","DistrictId":"20352421"}}},{"Relevance":1.0,"Distance":41.6,"MatchLevel":"houseNumber","MatchQuality":{"Country":1.0,"State":1.0,"County":1.0,"City":1.0,"District":1.0,"Street":[1.0],"HouseNumber":1.0,"PostalCode":1.0},"MatchType":"interpolated","Location":{"LocationId":"NT_Ib6G0rv6PLw2ufD6ErVqtC_l_1204444519_L_yID","LocationType":"point","DisplayPosition":{"Latitude":51.49497,"Longitude":-2.61858},"MapView":{"TopLeft":{"Latitude":51.4960942,"Longitude":-2.6203857},"BottomRight":{"Latitude":51.4938459,"Longitude":-2.6167744}},"Address":{"Label":"22 Westfield Road, Bristol, BS9 3, United Kingdom","Country":"GBR","State":"England","County":"Avon","City":"Bristol","District":"Bristol","Street":"Westfield Road","HouseNumber":"22","PostalCode":"BS9 3","AdditionalData":[{"value":"United Kingdom","key":"CountryName"},{"value":"England","key":"StateName"},{"value":"Avon","key":"CountyName"}]},"MapReference":{"ReferenceId":"1204444519","Spot":0.16,"SideOfStreet":"left","StateId":"20248595","CountyId":"20352323","CityId":"20352420","DistrictId":"20352421"}}},{"Relevance":1.0,"Distance":48.4,"MatchLevel":"street","MatchQuality":{"Country":1.0,"State":1.0,"County":1.0,"City":1.0,"District":1.0,"Street":[1.0],"PostalCode":1.0},"Location":{"LocationId":"NT_rKnjIzdZcCjK6CoVS0JZyD_l_1204444520_R","LocationType":"point","DisplayPosition":{"Latitude":51.4949152,"Longitude":-2.6184942},"MapView":{"TopLeft":{"Latitude":51.49494,"Longitude":-2.61907},"BottomRight":{"Latitude":51.49479,"Longitude":-2.61838}},"Address":{"Label":"Westfield Cottages, Bristol, BS9 3, United Kingdom","Country":"GBR","State":"England","County":"Avon","City":"Bristol","District":"Bristol","Street":"Westfield Cottages","PostalCode":"BS9 3","AdditionalData":[{"value":"United Kingdom","key":"CountryName"},{"value":"England","key":"StateName"},{"value":"Avon","key":"CountyName"}]},"MapReference":{"ReferenceId":"1204444520","Spot":0.83,"SideOfStreet":"right","StateId":"20248595","CountyId":"20352323","CityId":"20352420","DistrictId":"20352421"}}},{"Relevance":1.0,"Distance":49.0,"MatchLevel":"houseNumber","MatchQuality":{"Country":1.0,"State":1.0,"County":1.0,"City":1.0,"District":1.0,"Street":[1.0],"HouseNumber":1.0,"PostalCode":1.0},"MatchType":"interpolated","Location":{"LocationId":"NT_amG3FWpHiotso8rTDwUvzC_l_26752762_L_xED","LocationType":"point","DisplayPosition":{"Latitude":51.4939125,"Longitude":-2.6182974},"MapView":{"TopLeft":{"Latitude":51.4950367,"Longitude":-2.620103},"BottomRight":{"Latitude":51.4927884,"Longitude":-2.6164918}},"Address":{"Label":"11 Church Road, Bristol, BS9 3EQ, United Kingdom","Country":"GBR","State":"England","County":"Avon","City":"Bristol","District":"Bristol","Street":"Church Road","HouseNumber":"11","PostalCode":"BS9 3EQ","AdditionalData":[{"value":"United Kingdom","key":"CountryName"},{"value":"England","key":"StateName"},{"value":"Avon","key":"CountyName"}]},"MapReference":{"ReferenceId":"26752762","Spot":0.49,"SideOfStreet":"left","StateId":"20248595","CountyId":"20352323","CityId":"20352420","DistrictId":"20352421"}}}]}]}}