{"Response":{"MetaInfo":{"Timestamp":"2020-03-28T11:55:21.208+0000","NextPageInformation":"2"},"View":[{"_type":"SearchResultsViewType","ViewId":0,"Result":[{"Relevance":1.0,"Distance":-15.0,"MatchLevel":"landmark","MatchQuality":{"Country":1.0,"State":1.0,"County":1.0,"City":1.0,"District":1.0,"Street":[1.0],"PostalCode":1.0,"Name":1.0},"Location":{"LocationId":"NT_DmmqjiCQOTka8J.tntaBzD_p_6YNdZn1JBfwQsNq4AhWjEC","LocationType":"shoppingCentre","Name":"The Galleries Shopping Centre","DisplayPosition":{"Latitude":51.45597,"Longitude":-2.58957},"MapView":{"TopLeft":{"Latitude":51.45774,"Longitude":-2.59136},"BottomRight":{"Latitude":51.45568,"Longitude":-2.58805}},"Address":{"Label":"Newgate, Bristol, BS1 2, United Kingdom","Country":"GBR","State":"England","County":"Avon","City":"Bristol","District":"Broadmead","Street":"Newgate","PostalCode":"BS1 2","AdditionalData":[{"value":"United Kingdom","key":"CountryName"},{"value":"England","key":"StateName"},{"value":"Avon","key":"CountyName"}]},"MapReference":{"StateId":"20248595","CountyId":"20352323","CityId":"20352420","DistrictId":"20352448","PlaceId":"1001030756"}}},{"Relevance":1.0,"Distance":0.0,"Direction":0.0,"MatchLevel":"district","MatchQuality":{"Country":1.0,"State":1.0,"County":1.0,"City":1.0,"District":1.0,"PostalCode":1.0},"Location":{"LocationId":"NT_qcFRQaBgPvVjPJRiiU47AC","LocationType":"point","DisplayPosition":{"Latitude":51.4573105,"Longitude":-2.5897741},"MapView":{"TopLeft":{"Latitude":51.45932,"Longitude":-2.59246},"BottomRight":{"Latitude":51.45453,"Longitude":-2.58573}},"Address":{"Label":"Broadmead, Bristol, England, United Kingdom","Country":"GBR","State":"England","County":"Avon","City":"Bristol","District":"Broadmead","PostalCode":"BS1 3","AdditionalData":[{"value":"United Kingdom","key":"CountryName"},{"value":"England","key":"StateName"},{"value":"Avon","key":"CountyName"}]},"MapReference":{"ReferenceId":"767314207","SideOfStreet":"neither","StateId":"20248595","CountyId":"20352323","CityId":"20352420","DistrictId":"20352448"}}},{"Relevance":1.0,"Distance":11.9,"MatchLevel":"houseNumber","MatchQuality":{"Country":1.0,"State":1.0,"County":1.0,"City":1.0,"District":1.0,"Street":[1.0],"HouseNumber":1.0,"PostalCode":1.0},"MatchType":"interpolated","Location":{"LocationId":"NT_I7DNV3F7Yay7l438AZIDRC_l_833331323_R_2UD","LocationType":"point","DisplayPosition":{"Latitude":51.45749,"Longitude":-2.5896599},"MapView":{"TopLeft":{"Latitude":51.4586142,"Longitude":-2.5914641},"BottomRight":{"Latitude":51.4563659,"Longitude":-2.5878558}},"Address":{"Label":"65 Broadmead, Bristol, BS1 3EA, United Kingdom","Country":"GBR","State":"England","County":"Avon","City":"Bristol","District":"Broadmead","Street":"Broadmead","HouseNumber":"65","PostalCode":"BS1 3EA","AdditionalData":[{"value":"United Kingdom","key":"CountryName"},{"value":"England","key":"StateName"},{"value":"Avon","key":"CountyName"}]},"MapReference":{"ReferenceId":"833331323","Spot":0.25,"SideOfStreet":"right","StateId":"20248595","CountyId":"20352323","CityId":"20352420","DistrictId":"20352448"}}},{"Relevance":1.0,"Distance":14.6,"MatchLevel":"street","MatchQuality":{"Country":1.0,"State":1.0,"County":1.0,"City":1.0,"District":1.0,"Street":[1.0],"PostalCode":1.0},"Location":{"LocationId":"NT_nsBwBmKaq54WWdhvVK1OwD_l_979918412_R","LocationType":"point","DisplayPosition":{"Latitude":51.45743,"Longitude":-2.58986},"MapView":{"TopLeft":{"Latitude":51.45752,"Longitude":-2.58991},"BottomRight":{"Latitude":51.45743,"Longitude":-2.58986}},"Address":{"Label":"The Arcade, Bristol, BS1 3, United Kingdom","Country":"GBR","State":"England","County":"Avon","City":"Bristol","District":"Broadmead","Street":"The Arcade","PostalCode":"BS1 3","AdditionalData":[{"value":"United Kingdom","key":"CountryName"},{"value":"England","key":"StateName"},{"value":"Avon","key":"CountyName"}]},"MapReference":{"ReferenceId":"979918412","Spot":0.0,"SideOfStreet":"right","StateId":"20248595","CountyId":"20352323","CityId":"20352420","DistrictId":"20352448"}}},{"Relevance":1.0,"Distance":21.2,"MatchLevel":"postalCode","MatchQuality":{"PostalCode":1.0},"MatchType":"interpolated","Location":{"LocationId":"NT_Zo0pMnu9hPnv1BH83QxM.A_l_833331322_R_2cD","LocationType":"point","DisplayPosition":{"Latitude":51.45731,"Longitude":-2.59008},"MapView":{"TopLeft":{"Latitude":51.4663032,"Longitude":-2.6045131},"BottomRight":{"Latitude":51.4483168,"Longitude":-2.5756469}},"Address":{"Label":"BS1 3XA, Bristol, England, United Kingdom","Country":"GBR","State":"England","County":"Avon","City":"Bristol","PostalCode":"BS1 3XA","AdditionalData":[{"value":"United Kingdom","key":"CountryName"},{"value":"England","key":"StateName"},{"value":"Avon","key":"CountyName"}]},"MapReference":{"ReferenceId":"833331322","Spot":0.82,"SideOfStreet":"neither","StateId":"20248595","CountyId":"20352323","CityId":"20352420"}}},{"Relevance":1.0,"Distance":23.6,"MatchLevel":"postalCode","MatchQuality":{"PostalCode":1.0},"MatchType":"interpolated","Location":{"LocationId":"NT_I7DNV3F7Yay7l438AZIDRC_l_833331323_R_2UD","LocationType":"point","DisplayPosition":{"Latitude":51.45747,"Longitude":-2.58955},"MapView":{"TopLeft":{"Latitude":51.4664632,"Longitude":-2.6039831},"BottomRight":{"Latitude":51.4484768,"Longitude":-2.5751169}},"Address":{"Label":"BS1 3EA, Bristol, England, United Kingdom","Country":"GBR","State":"England","County":"Avon","City":"Bristol","PostalCode":"BS1 3EA","AdditionalData":[{"value":"United Kingdom","key":"CountryName"},{"value":"England","key":"StateName"},{"value":"Avon","key":"CountyName"}]},"MapReference":{"ReferenceId":"833331323","Spot":0.25,"SideOfStreet":"neither","StateId":"20248595","CountyId":"20352323","CityId":"20352420"}}},{"Relevance":1.0,"Distance":24.1,"MatchLevel":"houseNumber","MatchQuality":{"Country":1.0,"State":1.0,"County":1.0,"City":1.0,"District":1.0,"Street":[1.0],"HouseNumber":1.0,"PostalCode":1.0},"MatchType":"interpolated","Location":{"LocationId":"NT_Zo0pMnu9hPnv1BH83QxM.A_l_833331322_R_2cD","LocationType":"point","DisplayPosition":{"Latitude":51.4573493,"Longitude":-2.590124},"MapView":{"TopLeft":{"Latitude":51.4584735,"Longitude":-2.5919281},"BottomRight":{"Latitude":51.4562252,"Longitude":-2.5883199}},"Address":{"Label":"67 Broadmead, Bristol, BS1 3XA, United Kingdom","Country":"GBR","State":"England","County":"Avon","City":"Bristol","District":"Broadmead","Street":"Broadmead","HouseNumber":"67","PostalCode":"BS1 3XA","AdditionalData":[{"value":"United Kingdom","key":"CountryName"},{"value":"England","key":"StateName"},{"value":"Avon","key":"CountyName"}]},"MapReference":{"ReferenceId":"833331322","Spot":0.82,"SideOfStreet":"right","StateId":"20248595","CountyId":"20352323","CityId":"20352420","DistrictId":"20352448"}}},{"Relevance":1.0,"Distance":26.8,"MatchLevel":"postalCode","MatchQuality":{"PostalCode":1.0},"MatchType":"interpolated","Location":{"LocationId":"NT_I7DNV3F7Yay7l438AZIDRC_l_767317738_L_yUD","LocationType":"point","DisplayPosition":{"Latitude":51.45729,"Longitude":-2.59016},"MapView":{"TopLeft":{"Latitude":51.4662832,"Longitude":-2.6045931},"BottomRight":{"Latitude":51.4482968,"Longitude":-2.5757269}},"Address":{"Label":"BS1 3XB, Bristol, England, United Kingdom","Country":"GBR","State":"England","County":"Avon","City":"Bristol","PostalCode":"BS1 3XB","AdditionalData":[{"value":"United Kingdom","key":"CountryName"},{"value":"England","key":"StateName"},{"value":"Avon","key":"CountyName"}]},"MapReference":{"ReferenceId":"767317738","Spot":0.58,"SideOfStreet":"neither","StateId":"20248595","CountyId":"20352323","CityId":"20352420"}}},{"Relevance":1.0,"Distance":49.4,"MatchLevel":"houseNumber","MatchQuality":{"Country":1.0,"State":1.0,"County":1.0,"City":1.0,"District":1.0,"Street":[1.0],"HouseNumber":1.0,"PostalCode":1.0},"MatchType":"interpolated","Location":{"LocationId":"NT_I7DNV3F7Yay7l438AZIDRC_l_767317739_L_3A","LocationType":"point","DisplayPosition":{"Latitude":51.4575578,"Longitude":-2.5889611},"MapView":{"TopLeft":{"Latitude":51.4586819,"Longitude":-2.5907653},"BottomRight":{"Latitude":51.4564336,"Longitude":-2.587157}},"Address":{"Label":"7 Merchant Street, Bristol, BS1 3EH, United Kingdom","Country":"GBR","State":"England","County":"Avon","City":"Bristol","District":"Broadmead","Street":"Merchant Street","HouseNumber":"7","PostalCode":"BS1 3EH","AdditionalData":[{"value":"United Kingdom","key":"CountryName"},{"value":"England","key":"StateName"},{"value":"Avon","key":"CountyName"}]},"MapReference":{"ReferenceId":"767317739","Spot":0.75,"SideOfStreet":"left","StateId":"20248595","CountyId":"20352323","CityId":"20352420","DistrictId":"20352448"}}},{"Relevance":1.0,"Distance":52.5,"MatchLevel":"houseNumber","MatchQuality":{"Country":1.0,"State":1.0,"County":1.0,"City":1.0,"District":1.0,"Street":[1.0],"HouseNumber":1.0,"PostalCode":1.0},"MatchType":"interpolated","Location":{"LocationId":"NT_VNYFolXUvZUpJ3z1.mxHaA_l_26726015_L_0ED","LocationType":"point","DisplayPosition":{"Latitude":51.45774,"Longitude":-2.58909},"MapView":{"TopLeft":{"Latitude":51.4588642,"Longitude":-2.5908942},"BottomRight":{"Latitude":51.4566159,"Longitude":-2.5872859}},"Address":{"Label":"41 Merchant Street, Bristol, BS1 3EE, United Kingdom","Country":"GBR","State":"England","County":"Avon","City":"Bristol","District":"Broadmead","Street":"Merchant Street","HouseNumber":"41","PostalCode":"BS1 3EE","AdditionalData":[{"value":"United Kingdom","key":"CountryName"},{"value":"England","key":"StateName"},{"value":"Avon","key":"CountyName"}]},"MapReference":{"ReferenceId":"26726015","Spot":0.0,"SideOfStreet":"left","StateId":"20248595","CountyId":"20352323","CityId":"20352420","DistrictId":"20352448"}}}]}]}}