{"Response":{"MetaInfo":{"Timestamp":"2020-03-28T10:32:14.742+0000","NextPageInformation":"2"},"View":[{"_type":"SearchResultsViewType","ViewId":0,"Result":[{"Relevance":1.0,"Distance":0.0,"Direction":0.0,"MatchLevel":"district","MatchQuality":{"Country":1.0,"State":1.0,"County":1.0,"City":1.0,"District":1.0,"PostalCode":1.0},"Location":{"LocationId":"NT_8VyAdhxVXJniTKZQ29M6QC","LocationType":"point","DisplayPosition":{"Latitude":51.402423,"Longitude":-0.1012372},"MapView":{"TopLeft":{"Latitude":51.41383,"Longitude":-0.13368},"BottomRight":{"Latitude":51.38778,"Longitude":-0.08748}},"Address":{"Label":"Thornton Heath, England, United Kingdom","Country":"GBR","State":"England","County":"Surrey","City":"Thornton Heath","District":"Thornton Heath","PostalCode":"CR7 7","AdditionalData":[{"value":"United Kingdom","key":"CountryName"},{"value":"England","key":"StateName"},{"value":"Surrey","key":"CountyName"}]},"MapReference":{"ReferenceId":"25428666","SideOfStreet":"neither","StateId":"20248595","CountyId":"20338357","CityId":"20338618","DistrictId":"20338619"}}},{"Relevance":1.0,"Distance":12.6,"MatchLevel":"houseNumber","MatchQuality":{"Country":1.0,"State":1.0,"County":1.0,"City":1.0,"District":1.0,"Street":[1.0],"HouseNumber":1.0,"PostalCode":1.0},"MatchType":"interpolated","Location":{"LocationId":"NT_O04Zxofvvk15zH7K3WONIC_0gD","LocationType":"point","DisplayPosition":{"Latitude":51.40239,"Longitude":-0.10147},"MapView":{"TopLeft":{"Latitude":51.4035142,"Longitude":-0.103272},"BottomRight":{"Latitude":51.4012658,"Longitude":-0.099668}},"Address":{"Label":"48 Beulah Road, Thornton Heath, CR7 8JE, United Kingdom","Country":"GBR","State":"England","County":"Surrey","City":"Thornton Heath","District":"Thornton Heath","Street":"Beulah Road","HouseNumber":"48","PostalCode":"CR7 8JE","AdditionalData":[{"value":"United Kingdom","key":"CountryName"},{"value":"England","key":"StateName"},{"value":"Surrey","key":"CountyName"}]},"MapReference":{"ReferenceId":"25426696","Spot":0.53,"SideOfStreet":"right","StateId":"20248595","CountyId":"20338357","CityId":"20338618","DistrictId":"20338619","AddressId":"749172498","RoadLinkId":"82402503"}}},{"Relevance":1.0,"Distance":25.9,"MatchLevel":"postalCode","MatchQuality":{"PostalCode":1.0},"MatchType":"interpolated","Location":{"LocationId":"NT_O04Zxofvvk15zH7K3WONIC_0gD","LocationType":"point","DisplayPosition":{"Latitude":51.40233,"Longitude":-0.10158},"MapView":{"TopLeft":{"Latitude":51.4113232,"Longitude":-0.1159957},"BottomRight":{"Latitude":51.3933368,"Longitude":-0.0871643}},"Address":{"Label":"CR7 8JH, Thornton Heath, England, United Kingdom","Country":"GBR","State":"England","County":"Surrey","City":"Thornton Heath","PostalCode":"CR7 8JH","AdditionalData":[{"value":"United Kingdom","key":"CountryName"},{"value":"England","key":"StateName"},{"value":"Surrey","key":"CountyName"}]},"MapReference":{"ReferenceId":"25426696","Spot":0.53,"SideOfStreet":"neither","StateId":"20248595","CountyId":"20338357","CityId":"20338618"}}},{"Relevance":1.0,"Distance":40.7,"MatchLevel":"houseNumber","MatchQuality":{"Country":1.0,"State":1.0,"County":1.0,"City":1.0,"District":1.0,"Street":[1.0],"HouseNumber":1.0,"PostalCode":1.0},"MatchType":"interpolated","Location":{"LocationId":"NT_F-wozkWm2Nmhie8rtmPucD_5MD","LocationType":"point","DisplayPosition":{"Latitude":51.40246,"Longitude":-0.10038},"MapView":{"TopLeft":{"Latitude":51.4035842,"Longitude":-0.102182},"BottomRight":{"Latitude":51.4013358,"Longitude":-0.098578}},"Address":{"Label":"93 Parchmore Road, Thornton Heath, CR7 8LY, United Kingdom","Country":"GBR","State":"England","County":"Surrey","City":"Thornton Heath","District":"Thornton Heath","Street":"Parchmore Road","HouseNumber":"93","PostalCode":"CR7 8LY","AdditionalData":[{"value":"United Kingdom","key":"CountryName"},{"value":"England","key":"StateName"},{"value":"Surrey","key":"CountyName"}]},"MapReference":{"ReferenceId":"25426723","Spot":0.8,"SideOfStreet":"left","StateId":"20248595","CountyId":"20338357","CityId":"20338618","DistrictId":"20338619","AddressId":"749158978","RoadLinkId":"82431477"}}},{"Relevance":1.0,"Distance":42.0,"MatchLevel":"houseNumber","MatchQuality":{"Country":1.0,"State":1.0,"County":1.0,"City":1.0,"District":1.0,"Street":[1.0],"HouseNumber":1.0,"PostalCode":1.0},"MatchType":"interpolated","Location":{"LocationId":"NT_F-wozkWm2Nmhie8rtmPucD_5cD","LocationType":"point","DisplayPosition":{"Latitude":51.4027,"Longitude":-0.10053},"MapView":{"TopLeft":{"Latitude":51.4038242,"Longitude":-0.102332},"BottomRight":{"Latitude":51.4015758,"Longitude":-0.098728}},"Address":{"Label":"97 Parchmore Road, Thornton Heath, CR7 8LY, United Kingdom","Country":"GBR","State":"England","County":"Surrey","City":"Thornton Heath","District":"Thornton Heath","Street":"Parchmore Road","HouseNumber":"97","PostalCode":"CR7 8LY","AdditionalData":[{"value":"United Kingdom","key":"CountryName"},{"value":"England","key":"StateName"},{"value":"Surrey","key":"CountyName"}]},"MapReference":{"ReferenceId":"974757048","Spot":0.35,"SideOfStreet":"left","StateId":"20248595","CountyId":"20338357","CityId":"20338618","DistrictId":"20338619","AddressId":"749369406","RoadLinkId":"310317584"}}},{"Relevance":1.0,"Distance":44.4,"MatchLevel":"houseNumber","MatchQuality":{"Country":1.0,"State":1.0,"County":1.0,"City":1.0,"District":1.0,"Street":[1.0],"HouseNumber":1.0,"PostalCode":1.0},"MatchType":"interpolated","Location":{"LocationId":"NT_F-wozkWm2Nmhie8rtmPucD_5kD","LocationType":"point","DisplayPosition":{"Latitude":51.40285,"Longitude":-0.10066},"MapView":{"TopLeft":{"Latitude":51.4039742,"Longitude":-0.102462},"BottomRight":{"Latitude":51.4017258,"Longitude":-0.098858}},"Address":{"Label":"99 Parchmore Road, Thornton Heath, CR7 8LY, United Kingdom","Country":"GBR","State":"England","County":"Surrey","City":"Thornton Heath","District":"Thornton Heath","Street":"Parchmore Road","HouseNumber":"99","PostalCode":"CR7 8LY","AdditionalData":[{"value":"United Kingdom","key":"CountryName"},{"value":"England","key":"StateName"},{"value":"Surrey","key":"CountyName"}]},"MapReference":{"ReferenceId":"974757049","Spot":0.23,"SideOfStreet":"left","StateId":"20248595","CountyId":"20338357","CityId":"20338618","DistrictId":"20338619","AddressId":"749215851","RoadLinkId":"310317585"}}},{"Relevance":1.0,"Distance":71.3,"MatchLevel":"houseNumber","MatchQuality":{"Country":1.0,"State":1.0,"County":1.0,"City":1.0,"District":1.0,"Street":[1.0],"HouseNumber":1.0,"PostalCode":1.0},"MatchType":"interpolated","Location":{"LocationId":"NT_ix2Er90BRITHxYTZGmGlyA_zQD","LocationType":"point","DisplayPosition":{"Latitude":51.40283,"Longitude":-0.10225},"MapView":{"TopLeft":{"Latitude":51.4039542,"Longitude":-0.104052},"BottomRight":{"Latitude":51.4017058,"Longitude":-0.100448}},"Address":{"Label":"34 Bedser Close, Thornton Heath, CR7 8, United Kingdom","Country":"GBR","State":"England","County":"Surrey","City":"Thornton Heath","District":"Thornton Heath","Street":"Bedser Close","HouseNumber":"34","PostalCode":"CR7 8","AdditionalData":[{"value":"United Kingdom","key":"CountryName"},{"value":"England","key":"StateName"},{"value":"Surrey","key":"CountyName"}]},"MapReference":{"ReferenceId":"25457752","Spot":0.92,"SideOfStreet":"right","StateId":"20248595","CountyId":"20338357","CityId":"20338618","DistrictId":"20338619","AddressId":"749222080","RoadLinkId":"82952013"}}},{"Relevance":1.0,"Distance":84.7,"MatchLevel":"houseNumber","MatchQuality":{"Country":1.0,"State":1.0,"County":1.0,"City":1.0,"District":1.0,"Street":[1.0],"HouseNumber":1.0,"PostalCode":1.0},"MatchType":"interpolated","Location":{"LocationId":"NT_F-wozkWm2Nmhie8rtmPucD_xATN","LocationType":"point","DisplayPosition":{"Latitude":51.40323,"Longitude":-0.10092},"MapView":{"TopLeft":{"Latitude":51.4043542,"Longitude":-0.102722},"BottomRight":{"Latitude":51.4021058,"Longitude":-0.099118}},"Address":{"Label":"105 Parchmore Road, Thornton Heath, CR7 8LZ, United Kingdom","Country":"GBR","State":"England","County":"Surrey","City":"Thornton Heath","District":"Thornton Heath","Street":"Parchmore Road","HouseNumber":"105","PostalCode":"CR7 8LZ","AdditionalData":[{"value":"United Kingdom","key":"CountryName"},{"value":"England","key":"StateName"},{"value":"Surrey","key":"CountyName"}]},"MapReference":{"ReferenceId":"974757050","Spot":0.58,"SideOfStreet":"left","StateId":"20248595","CountyId":"20338357","CityId":"20338618","DistrictId":"20338619","AddressId":"749173795","RoadLinkId":"310317588"}}},{"Relevance":1.0,"Distance":85.1,"MatchLevel":"houseNumber","MatchQuality":{"Country":1.0,"State":1.0,"County":1.0,"City":1.0,"District":1.0,"Street":[1.0],"HouseNumber":1.0,"PostalCode":1.0},"MatchType":"interpolated","Location":{"LocationId":"NT_O04Zxofvvk15zH7K3WONIC_1YD","LocationType":"point","DisplayPosition":{"Latitude":51.40314,"Longitude":-0.10081},"MapView":{"TopLeft":{"Latitude":51.4042642,"Longitude":-0.102612},"BottomRight":{"Latitude":51.4020158,"Longitude":-0.099008}},"Address":{"Label":"56 Beulah Road, Thornton Heath, CR7 8JF, United Kingdom","Country":"GBR","State":"England","County":"Surrey","City":"Thornton Heath","District":"Thornton Heath","Street":"Beulah Road","HouseNumber":"56","PostalCode":"CR7 8JF","AdditionalData":[{"value":"United Kingdom","key":"CountryName"},{"value":"England","key":"StateName"},{"value":"Surrey","key":"CountyName"}]},"MapReference":{"ReferenceId":"25489003","Spot":0.02,"SideOfStreet":"right","StateId":"20248595","CountyId":"20338357","CityId":"20338618","DistrictId":"20338619","AddressId":"749188435","RoadLinkId":"82409402"}}},{"Relevance":1.0,"Distance":90.2,"MatchLevel":"postalCode","MatchQuality":{"PostalCode":1.0},"MatchType":"interpolated","Location":{"LocationId":"NT_F-wozkWm2Nmhie8rtmPucD_5MD","LocationType":"point","DisplayPosition":{"Latitude":51.40195,"Longitude":-0.10018},"MapView":{"TopLeft":{"Latitude":51.4109432,"Longitude":-0.1145956},"BottomRight":{"Latitude":51.3929568,"Longitude":-0.0857644}},"Address":{"Label":"CR7 8LW, Thornton Heath, England, United Kingdom","Country":"GBR","State":"England","County":"Surrey","City":"Thornton Heath","PostalCode":"CR7 8LW","AdditionalData":[{"value":"United Kingdom","key":"CountryName"},{"value":"England","key":"StateName"},{"value":"Surrey","key":"CountyName"}]},"MapReference":{"ReferenceId":"25426723","Spot":0.8,"SideOfStreet":"neither","StateId":"20248595","CountyId":"20338357","CityId":"20338618"}}}]}]}}