{"Response":{"MetaInfo":{"Timestamp":"2020-03-28T11:41:01.768+0000","NextPageInformation":"2"},"View":[{"_type":"SearchResultsViewType","ViewId":0,"Result":[{"Relevance":1.0,"Distance":0.0,"Direction":0.0,"MatchLevel":"district","MatchQuality":{"Country":1.0,"State":1.0,"County":1.0,"City":1.0,"District":1.0,"PostalCode":1.0},"Location":{"LocationId":"NT_Tvn5sFxzljb2tCa75SY82A","LocationType":"point","DisplayPosition":{"Latitude":51.4855001,"Longitude":8.3366442},"MapView":{"TopLeft":{"Latitude":51.49334,"Longitude":8.31855},"BottomRight":{"Latitude":51.47228,"Longitude":8.35713}},"Address":{"Label":"Belecke, Warstein, Nordrhein-Westfalen, Deutschland","Country":"DEU","State":"Nordrhein-Westfalen","County":"Soest","City":"Warstein","District":"Belecke","PostalCode":"59581","AdditionalData":[{"value":"Deutschland","key":"CountryName"},{"value":"Nordrhein-Westfalen","key":"StateName"},{"value":"Soest","key":"CountyName"}]},"MapReference":{"ReferenceId":"75009821","SideOfStreet":"neither","CountryId":"20147700","StateId":"20157369","CountyId":"20160789","CityId":"20160883","DistrictId":"20160888"}}},{"Relevance":1.0,"Distance":9.8,"MatchLevel":"houseNumber","MatchQuality":{"Country":1.0,"State":1.0,"County":1.0,"City":1.0,"District":1.0,"Street":[1.0],"HouseNumber":1.0,"PostalCode":1.0},"MatchType":"interpolated","Location":{"LocationId":"NT_M1VEus--cMszi8Na7E5HrC_5A","LocationType":"point","DisplayPosition":{"Latitude":51.48572,"Longitude":8.33634},"MapView":{"TopLeft":{"Latitude":51.4868442,"Longitude":8.3345347},"BottomRight":{"Latitude":51.4845958,"Longitude":8.3381453}},"Address":{"Label":"Bahnhofstraße 9, 59581 Warstein, Deutschland","Country":"DEU","State":"Nordrhein-Westfalen","County":"Soest","City":"Warstein","District":"Belecke","Street":"Bahnhofstraße","HouseNumber":"9","PostalCode":"59581","AdditionalData":[{"value":"Deutschland","key":"CountryName"},{"value":"Nordrhein-Westfalen","key":"StateName"},{"value":"Soest","key":"CountyName"}]},"MapReference":{"ReferenceId":"1160664737","Spot":0.0,"SideOfStreet":"right","CountryId":"20147700","StateId":"20157369","CountyId":"20160789","CityId":"20160883","DistrictId":"20160888","AddressId":"194380799","RoadLinkId":"467068709"}}},{"Relevance":1.0,"Distance":14.5,"MatchLevel":"houseNumber","MatchQuality":{"Country":1.0,"State":1.0,"County":1.0,"City":1.0,"District":1.0,"Street":[1.0],"HouseNumber":1.0,"PostalCode":1.0},"MatchType":"interpolated","Location":{"LocationId":"NT_nmQUV-IMvvayen78JUv6fA_4A","LocationType":"point","DisplayPosition":{"Latitude":51.48537,"Longitude":8.3364},"MapView":{"TopLeft":{"Latitude":51.4864942,"Longitude":8.3345948},"BottomRight":{"Latitude":51.4842458,"Longitude":8.3382052}},"Address":{"Label":"Wilkestraße 8, 59581 Warstein, Deutschland","Country":"DEU","State":"Nordrhein-Westfalen","County":"Soest","City":"Warstein","District":"Belecke","Street":"Wilkestraße","HouseNumber":"8","PostalCode":"59581","AdditionalData":[{"value":"Deutschland","key":"CountryName"},{"value":"Nordrhein-Westfalen","key":"StateName"},{"value":"Soest","key":"CountyName"}]},"MapReference":{"ReferenceId":"75361051","Spot":0.05,"SideOfStreet":"right","CountryId":"20147700","StateId":"20157369","CountyId":"20160789","CityId":"20160883","DistrictId":"20160888","AddressId":"199483577","RoadLinkId":"35684616"}}},{"Relevance":1.0,"Distance":16.8,"MatchLevel":"houseNumber","MatchQuality":{"Country":1.0,"State":1.0,"County":1.0,"City":1.0,"District":1.0,"Street":[1.0],"HouseNumber":1.0,"PostalCode":1.0},"MatchType":"interpolated","Location":{"LocationId":"NT_h0ve1iOu4JNeX50eYtPK.C_xA","LocationType":"point","DisplayPosition":{"Latitude":51.48579,"Longitude":8.33688},"MapView":{"TopLeft":{"Latitude":51.4869142,"Longitude":8.3350747},"BottomRight":{"Latitude":51.4846658,"Longitude":8.3386853}},"Address":{"Label":"Wilkeplatz 1, 59581 Warstein, Deutschland","Country":"DEU","State":"Nordrhein-Westfalen","County":"Soest","City":"Warstein","District":"Belecke","Street":"Wilkeplatz","HouseNumber":"1","PostalCode":"59581","AdditionalData":[{"value":"Deutschland","key":"CountryName"},{"value":"Nordrhein-Westfalen","key":"StateName"},{"value":"Soest","key":"CountyName"}]},"MapReference":{"ReferenceId":"75009819","Spot":0.61,"SideOfStreet":"left","CountryId":"20147700","StateId":"20157369","CountyId":"20160789","CityId":"20160883","DistrictId":"20160888","AddressId":"194189038","RoadLinkId":"35026530"}}},{"Relevance":1.0,"Distance":24.5,"MatchLevel":"houseNumber","MatchQuality":{"Country":1.0,"State":1.0,"County":1.0,"City":1.0,"District":1.0,"Street":[1.0],"HouseNumber":1.0,"PostalCode":1.0},"MatchType":"interpolated","Location":{"LocationId":"NT_nmQUV-IMvvayen78JUv6fA_3A","LocationType":"point","DisplayPosition":{"Latitude":51.48528,"Longitude":8.33662},"MapView":{"TopLeft":{"Latitude":51.4864042,"Longitude":8.3348148},"BottomRight":{"Latitude":51.4841558,"Longitude":8.3384252}},"Address":{"Label":"Wilkestraße 7, 59581 Warstein, Deutschland","Country":"DEU","State":"Nordrhein-Westfalen","County":"Soest","City":"Warstein","District":"Belecke","Street":"Wilkestraße","HouseNumber":"7","PostalCode":"59581","AdditionalData":[{"value":"Deutschland","key":"CountryName"},{"value":"Nordrhein-Westfalen","key":"StateName"},{"value":"Soest","key":"CountyName"}]},"MapReference":{"ReferenceId":"1160664738","Spot":0.5,"SideOfStreet":"left","CountryId":"20147700","StateId":"20157369","CountyId":"20160789","CityId":"20160883","DistrictId":"20160888","AddressId":"255660628","RoadLinkId":"467068710"}}},{"Relevance":1.0,"Distance":39.3,"MatchLevel":"houseNumber","MatchQuality":{"Country":1.0,"State":1.0,"County":1.0,"City":1.0,"District":1.0,"Street":[1.0],"HouseNumber":1.0,"PostalCode":1.0},"MatchType":"interpolated","Location":{"LocationId":"NT_nmQUV-IMvvayen78JUv6fA_zA","LocationType":"point","DisplayPosition":{"Latitude":51.48538,"Longitude":8.33611},"MapView":{"TopLeft":{"Latitude":51.4865042,"Longitude":8.3343048},"BottomRight":{"Latitude":51.4842558,"Longitude":8.3379152}},"Address":{"Label":"Wilkestraße 3, 59581 Warstein, Deutschland","Country":"DEU","State":"Nordrhein-Westfalen","County":"Soest","City":"Warstein","District":"Belecke","Street":"Wilkestraße","HouseNumber":"3","PostalCode":"59581","AdditionalData":[{"value":"Deutschland","key":"CountryName"},{"value":"Nordrhein-Westfalen","key":"StateName"},{"value":"Soest","key":"CountyName"}]},"MapReference":{"ReferenceId":"1160664739","Spot":0.57,"SideOfStreet":"left","CountryId":"20147700","StateId":"20157369","CountyId":"20160789","CityId":"20160883","DistrictId":"20160888","AddressId":"255660629","RoadLinkId":"467068711"}}},{"Relevance":1.0,"Distance":41.4,"MatchLevel":"houseNumber","MatchQuality":{"Country":1.0,"State":1.0,"County":1.0,"City":1.0,"District":1.0,"Street":[1.0],"HouseNumber":1.0,"PostalCode":1.0},"MatchType":"interpolated","Location":{"LocationId":"NT_M1VEus--cMszi8Na7E5HrC_4A","LocationType":"point","DisplayPosition":{"Latitude":51.48584,"Longitude":8.3364},"MapView":{"TopLeft":{"Latitude":51.4869642,"Longitude":8.3345947},"BottomRight":{"Latitude":51.4847158,"Longitude":8.3382053}},"Address":{"Label":"Bahnhofstraße 8, 59581 Warstein, Deutschland","Country":"DEU","State":"Nordrhein-Westfalen","County":"Soest","City":"Warstein","District":"Belecke","Street":"Bahnhofstraße","HouseNumber":"8","PostalCode":"59581","AdditionalData":[{"value":"Deutschland","key":"CountryName"},{"value":"Nordrhein-Westfalen","key":"StateName"},{"value":"Soest","key":"CountyName"}]},"MapReference":{"ReferenceId":"75009821","Spot":0.0,"SideOfStreet":"left","CountryId":"20147700","StateId":"20157369","CountyId":"20160789","CityId":"20160883","DistrictId":"20160888","AddressId":"194711629","RoadLinkId":"34960592"}}},{"Relevance":1.0,"Distance":44.7,"MatchLevel":"houseNumber","MatchQuality":{"Country":1.0,"State":1.0,"County":1.0,"City":1.0,"District":1.0,"Street":[1.0],"HouseNumber":1.0,"PostalCode":1.0},"MatchType":"interpolated","Location":{"LocationId":"NT_M1VEus--cMszi8Na7E5HrC_2A","LocationType":"point","DisplayPosition":{"Latitude":51.48547,"Longitude":8.336},"MapView":{"TopLeft":{"Latitude":51.4865942,"Longitude":8.3341948},"BottomRight":{"Latitude":51.4843458,"Longitude":8.3378052}},"Address":{"Label":"Bahnhofstraße 6, 59581 Warstein, Deutschland","Country":"DEU","State":"Nordrhein-Westfalen","County":"Soest","City":"Warstein","District":"Belecke","Street":"Bahnhofstraße","HouseNumber":"6","PostalCode":"59581","AdditionalData":[{"value":"Deutschland","key":"CountryName"},{"value":"Nordrhein-Westfalen","key":"StateName"},{"value":"Soest","key":"CountyName"}]},"MapReference":{"ReferenceId":"1160664736","Spot":0.23,"SideOfStreet":"left","CountryId":"20147700","StateId":"20157369","CountyId":"20160789","CityId":"20160883","DistrictId":"20160888","AddressId":"194380800","RoadLinkId":"467068708"}}},{"Relevance":1.0,"Distance":50.0,"MatchLevel":"street","MatchQuality":{"Country":1.0,"State":1.0,"County":1.0,"City":1.0,"District":1.0,"PostalCode":1.0},"Location":{"LocationId":"NT_YvvCQGqYkQSApytsw8B3FC_l_1263686328_R","LocationType":"point","DisplayPosition":{"Latitude":51.48534,"Longitude":8.33597},"MapView":{"TopLeft":{"Latitude":51.48534,"Longitude":8.33583},"BottomRight":{"Latitude":51.48454,"Longitude":8.33663}},"Address":{"Label":"59581 Warstein, Deutschland","Country":"DEU","State":"Nordrhein-Westfalen","County":"Soest","City":"Warstein","District":"Belecke","PostalCode":"59581","AdditionalData":[{"value":"Deutschland","key":"CountryName"},{"value":"Nordrhein-Westfalen","key":"StateName"},{"value":"Soest","key":"CountyName"}]},"MapReference":{"ReferenceId":"1263686328","Spot":1.0,"SideOfStreet":"right","CountryId":"20147700","StateId":"20157369","CountyId":"20160789","CityId":"20160883","DistrictId":"20160888"}}},{"Relevance":1.0,"Distance":50.1,"MatchLevel":"houseNumber","MatchQuality":{"Country":1.0,"State":1.0,"County":1.0,"City":1.0,"District":1.0,"Street":[1.0],"HouseNumber":1.0,"PostalCode":1.0},"MatchType":"interpolated","Location":{"LocationId":"NT_nmQUV-IMvvayen78JUv6fA_xID","LocationType":"point","DisplayPosition":{"Latitude":51.48514,"Longitude":8.33708},"MapView":{"TopLeft":{"Latitude":51.4862642,"Longitude":8.3352748},"BottomRight":{"Latitude":51.4840158,"Longitude":8.3388852}},"Address":{"Label":"Wilkestraße 12, 59581 Warstein, Deutschland","Country":"DEU","State":"Nordrhein-Westfalen","County":"Soest","City":"Warstein","District":"Belecke","Street":"Wilkestraße","HouseNumber":"12","PostalCode":"59581","AdditionalData":[{"value":"Deutschland","key":"CountryName"},{"value":"Nordrhein-Westfalen","key":"StateName"},{"value":"Soest","key":"CountyName"}]},"MapReference":{"ReferenceId":"75009756","Spot":0.4,"SideOfStreet":"right","CountryId":"20147700","StateId":"20157369","CountyId":"20160789","CityId":"20160883","DistrictId":"20160888","AddressId":"194325172","RoadLinkId":"35769199"}}}]}]}}