{"Response":{"MetaInfo":{"Timestamp":"2020-03-28T11:18:26.065+0000","NextPageInformation":"2"},"View":[{"_type":"SearchResultsViewType","ViewId":0,"Result":[{"Relevance":1.0,"Distance":0.0,"Direction":0.0,"MatchLevel":"district","MatchQuality":{"Country":1.0,"State":1.0,"County":1.0,"City":1.0,"District":1.0,"PostalCode":1.0},"Location":{"LocationId":"NT_qxO7Y4xKnI9tPW3pvOVcLA","LocationType":"point","DisplayPosition":{"Latitude":51.4748391,"Longitude":-0.610839},"MapView":{"TopLeft":{"Latitude":51.49225,"Longitude":-0.68533},"BottomRight":{"Latitude":51.46601,"Longitude":-0.60407}},"Address":{"Label":"Windsor, England, United Kingdom","Country":"GBR","State":"England","County":"Berkshire","City":"Windsor","District":"Windsor","PostalCode":"SL4 3","AdditionalData":[{"value":"United Kingdom","key":"CountryName"},{"value":"England","key":"StateName"},{"value":"Berkshire","key":"CountyName"}]},"MapReference":{"ReferenceId":"1144504653","SideOfStreet":"neither","StateId":"20248595","CountyId":"20334448","CityId":"20334695","DistrictId":"20334696"}}},{"Relevance":1.0,"Distance":21.0,"MatchLevel":"street","MatchQuality":{"Country":1.0,"State":1.0,"County":1.0,"City":1.0,"District":1.0,"PostalCode":1.0},"Location":{"LocationId":"NT_AGOrXoD-eeSA6GAhe-ZYyA_l_1123211476_R","LocationType":"point","DisplayPosition":{"Latitude":51.4746513,"Longitude":-0.6108766},"MapView":{"TopLeft":{"Latitude":51.47467,"Longitude":-0.61108},"BottomRight":{"Latitude":51.47438,"Longitude":-0.60981}},"Address":{"Label":"Windsor, SL4 3, United Kingdom","Country":"GBR","State":"England","County":"Berkshire","City":"Windsor","District":"Windsor","PostalCode":"SL4 3","AdditionalData":[{"value":"United Kingdom","key":"CountryName"},{"value":"England","key":"StateName"},{"value":"Berkshire","key":"CountyName"}]},"MapReference":{"ReferenceId":"1123211476","Spot":0.81,"SideOfStreet":"right","StateId":"20248595","CountyId":"20334448","CityId":"20334695","DistrictId":"20334696"}}},{"Relevance":1.0,"Distance":37.7,"MatchLevel":"houseNumber","MatchQuality":{"Country":1.0,"State":1.0,"County":1.0,"City":1.0,"District":1.0,"Street":[1.0],"HouseNumber":1.0,"PostalCode":1.0},"MatchType":"interpolated","Location":{"LocationId":"NT_N3n-3cB3o5wZVZ9WIs1fyD_l_836034692_R_1AD","LocationType":"point","DisplayPosition":{"Latitude":51.4746354,"Longitude":-0.6114067},"MapView":{"TopLeft":{"Latitude":51.4757596,"Longitude":-0.6132115},"BottomRight":{"Latitude":51.4735113,"Longitude":-0.6096019}},"Address":{"Label":"50 Osborne Road, Windsor, SL4 3, United Kingdom","Country":"GBR","State":"England","County":"Berkshire","City":"Windsor","District":"Windsor","Street":"Osborne Road","HouseNumber":"50","PostalCode":"SL4 3","AdditionalData":[{"value":"United Kingdom","key":"CountryName"},{"value":"England","key":"StateName"},{"value":"Berkshire","key":"CountyName"}]},"MapReference":{"ReferenceId":"836034692","Spot":0.49,"SideOfStreet":"right","StateId":"20248595","CountyId":"20334448","CityId":"20334695","DistrictId":"20334696"}}},{"Relevance":1.0,"Distance":40.6,"MatchLevel":"houseNumber","MatchQuality":{"Country":1.0,"State":1.0,"County":1.0,"City":1.0,"District":1.0,"Street":[1.0],"HouseNumber":1.0,"PostalCode":1.0},"MatchType":"interpolated","Location":{"LocationId":"NT_WU83aSZq6U0mxHK13Xbd1C_l_25320595_L_1cD","LocationType":"point","DisplayPosition":{"Latitude":51.4744743,"Longitude":-0.61083},"MapView":{"TopLeft":{"Latitude":51.4755984,"Longitude":-0.6126348},"BottomRight":{"Latitude":51.4733501,"Longitude":-0.6090252}},"Address":{"Label":"57 Osborne Road, Windsor, SL4 3EQ, United Kingdom","Country":"GBR","State":"England","County":"Berkshire","City":"Windsor","District":"Windsor","Street":"Osborne Road","HouseNumber":"57","PostalCode":"SL4 3EQ","AdditionalData":[{"value":"United Kingdom","key":"CountryName"},{"value":"England","key":"StateName"},{"value":"Berkshire","key":"CountyName"}]},"MapReference":{"ReferenceId":"25320595","Spot":0.66,"SideOfStreet":"left","StateId":"20248595","CountyId":"20334448","CityId":"20334695","DistrictId":"20334696"}}},{"Relevance":1.0,"Distance":42.9,"MatchLevel":"postalCode","MatchQuality":{"PostalCode":1.0},"MatchType":"interpolated","Location":{"LocationId":"NT_WU83aSZq6U0mxHK13Xbd1C_l_25320595_L_1cD","LocationType":"point","DisplayPosition":{"Latitude":51.47458,"Longitude":-0.61038},"MapView":{"TopLeft":{"Latitude":51.4835732,"Longitude":-0.6248185},"BottomRight":{"Latitude":51.4655868,"Longitude":-0.5959415}},"Address":{"Label":"SL4 3SJ, Windsor, England, United Kingdom","Country":"GBR","State":"England","County":"Berkshire","City":"Windsor","PostalCode":"SL4 3SJ","AdditionalData":[{"value":"United Kingdom","key":"CountryName"},{"value":"England","key":"StateName"},{"value":"Berkshire","key":"CountyName"}]},"MapReference":{"ReferenceId":"25320595","Spot":0.66,"SideOfStreet":"neither","StateId":"20248595","CountyId":"20334448","CityId":"20334695"}}},{"Relevance":1.0,"Distance":43.8,"MatchLevel":"street","MatchQuality":{"Country":1.0,"State":1.0,"County":1.0,"City":1.0,"District":1.0,"PostalCode":1.0},"Location":{"LocationId":"NT_AGOrXoD-eeSA6GAhe-ZYyA_l_25320537_L","LocationType":"point","DisplayPosition":{"Latitude":51.47501,"Longitude":-0.61027},"MapView":{"TopLeft":{"Latitude":51.47501,"Longitude":-0.61027},"BottomRight":{"Latitude":51.47473,"Longitude":-0.60931}},"Address":{"Label":"Windsor, SL4 3, United Kingdom","Country":"GBR","State":"England","County":"Berkshire","City":"Windsor","District":"Windsor","PostalCode":"SL4 3","AdditionalData":[{"value":"United Kingdom","key":"CountryName"},{"value":"England","key":"StateName"},{"value":"Berkshire","key":"CountyName"}]},"MapReference":{"ReferenceId":"25320537","Spot":1.0,"SideOfStreet":"left","StateId":"20248595","CountyId":"20334448","CityId":"20334695","DistrictId":"20334696"}}},{"Relevance":1.0,"Distance":43.8,"MatchLevel":"houseNumber","MatchQuality":{"Country":1.0,"State":1.0,"County":1.0,"City":1.0,"District":1.0,"Street":[1.0],"HouseNumber":1.0,"PostalCode":1.0},"MatchType":"interpolated","Location":{"LocationId":"NT_zPJCasOYI8j33xQHvj3UKC_l_25320450_R_3UD","LocationType":"point","DisplayPosition":{"Latitude":51.4753401,"Longitude":-0.6111098},"MapView":{"TopLeft":{"Latitude":51.4764642,"Longitude":-0.6129147},"BottomRight":{"Latitude":51.4742159,"Longitude":-0.609305}},"Address":{"Label":"75 Frances Road, Windsor, SL4 3AQ, United Kingdom","Country":"GBR","State":"England","County":"Berkshire","City":"Windsor","District":"Windsor","Street":"Frances Road","HouseNumber":"75","PostalCode":"SL4 3AQ","AdditionalData":[{"value":"United Kingdom","key":"CountryName"},{"value":"England","key":"StateName"},{"value":"Berkshire","key":"CountyName"}]},"MapReference":{"ReferenceId":"25320450","Spot":0.09,"SideOfStreet":"right","StateId":"20248595","CountyId":"20334448","CityId":"20334695","DistrictId":"20334696"}}},{"Relevance":1.0,"Distance":46.2,"MatchLevel":"postalCode","MatchQuality":{"PostalCode":1.0},"MatchType":"interpolated","Location":{"LocationId":"NT_N3n-3cB3o5wZVZ9WIs1fyD_l_836034692_R_1AD","LocationType":"point","DisplayPosition":{"Latitude":51.47458,"Longitude":-0.61136},"MapView":{"TopLeft":{"Latitude":51.4835732,"Longitude":-0.6257985},"BottomRight":{"Latitude":51.4655868,"Longitude":-0.5969215}},"Address":{"Label":"SL4 3EQ, Windsor, England, United Kingdom","Country":"GBR","State":"England","County":"Berkshire","City":"Windsor","PostalCode":"SL4 3EQ","AdditionalData":[{"value":"United Kingdom","key":"CountryName"},{"value":"England","key":"StateName"},{"value":"Berkshire","key":"CountyName"}]},"MapReference":{"ReferenceId":"836034692","Spot":0.49,"SideOfStreet":"neither","StateId":"20248595","CountyId":"20334448","CityId":"20334695"}}},{"Relevance":1.0,"Distance":59.6,"MatchLevel":"houseNumber","MatchQuality":{"Country":1.0,"State":1.0,"County":1.0,"City":1.0,"District":1.0,"Street":[1.0],"HouseNumber":1.0,"PostalCode":1.0},"MatchType":"interpolated","Location":{"LocationId":"NT_Y5DoA10YhDheBZGtd47dDC_l_1245819882_L_5AD","LocationType":"point","DisplayPosition":{"Latitude":51.4751798,"Longitude":-0.6115038},"MapView":{"TopLeft":{"Latitude":51.476304,"Longitude":-0.6133086},"BottomRight":{"Latitude":51.4740557,"Longitude":-0.609699}},"Address":{"Label":"90 Frances Road, Windsor, SL4 3AN, United Kingdom","Country":"GBR","State":"England","County":"Berkshire","City":"Windsor","District":"Windsor","Street":"Frances Road","HouseNumber":"90","PostalCode":"SL4 3AN","AdditionalData":[{"value":"United Kingdom","key":"CountryName"},{"value":"England","key":"StateName"},{"value":"Berkshire","key":"CountyName"}]},"MapReference":{"ReferenceId":"1245819882","Spot":0.53,"SideOfStreet":"left","StateId":"20248595","CountyId":"20334448","CityId":"20334695","DistrictId":"20334696"}}},{"Relevance":1.0,"Distance":63.6,"MatchLevel":"houseNumber","MatchQuality":{"Country":1.0,"State":1.0,"County":1.0,"City":1.0,"District":1.0,"Street":[1.0],"HouseNumber":1.0,"PostalCode":1.0},"MatchType":"interpolated","Location":{"LocationId":"NT_N3n-3cB3o5wZVZ9WIs1fyD_l_836034693_L_2cD","LocationType":"point","DisplayPosition":{"Latitude":51.47473,"Longitude":-0.61174},"MapView":{"TopLeft":{"Latitude":51.4758542,"Longitude":-0.6135449},"BottomRight":{"Latitude":51.4736059,"Longitude":-0.6099352}},"Address":{"Label":"67 Osborne Road, Windsor, SL4 3EQ, United Kingdom","Country":"GBR","State":"England","County":"Berkshire","City":"Windsor","District":"Windsor","Street":"Osborne Road","HouseNumber":"67","PostalCode":"SL4 3EQ","AdditionalData":[{"value":"United Kingdom","key":"CountryName"},{"value":"England","key":"StateName"},{"value":"Berkshire","key":"CountyName"}]},"MapReference":{"ReferenceId":"836034693","Spot":0.0,"SideOfStreet":"left","StateId":"20248595","CountyId":"20334448","CityId":"20334695","DistrictId":"20334696"}}}]}]}}