{"Response":{"MetaInfo":{"Timestamp":"2020-03-28T10:56:41.363+0000","NextPageInformation":"2"},"View":[{"_type":"SearchResultsViewType","ViewId":0,"Result":[{"Relevance":1.0,"Distance":0.0,"Direction":0.0,"MatchLevel":"district","MatchQuality":{"Country":1.0,"State":1.0,"County":1.0,"City":1.0,"District":1.0,"PostalCode":1.0},"Location":{"LocationId":"NT_SJUEwvF6.hSMy325GvUloC","LocationType":"point","DisplayPosition":{"Latitude":51.4127446,"Longitude":6.7560034},"MapView":{"TopLeft":{"Latitude":51.42894,"Longitude":6.7342},"BottomRight":{"Latitude":51.40812,"Longitude":6.77216}},"Address":{"Label":"Hochfeld, Duisburg, Nordrhein-Westfalen, Deutschland","Country":"DEU","State":"Nordrhein-Westfalen","County":"Duisburg","City":"Duisburg","District":"Hochfeld","PostalCode":"47053","AdditionalData":[{"value":"Deutschland","key":"CountryName"},{"value":"Nordrhein-Westfalen","key":"StateName"},{"value":"Duisburg","key":"CountyName"}]},"MapReference":{"ReferenceId":"51224009","SideOfStreet":"neither","CountryId":"20147700","StateId":"20157369","CountyId":"20157384","CityId":"20157385","DistrictId":"20248803"}}},{"Relevance":1.0,"Distance":48.2,"MatchLevel":"landmark","MatchQuality":{"Country":1.0,"State":1.0,"County":1.0,"City":1.0,"District":1.0,"PostalCode":1.0,"Name":1.0},"Location":{"LocationId":"NT_H01rUUiX2ldd88vHJF7dzD","LocationType":"park","Name":"DFV 08-Jugendabteilung","DisplayPosition":{"Latitude":51.41272,"Longitude":6.75819},"MapView":{"TopLeft":{"Latitude":51.41348,"Longitude":6.75669},"BottomRight":{"Latitude":51.41197,"Longitude":6.75969}},"Address":{"Label":"47053 Duisburg, Deutschland","Country":"DEU","State":"Nordrhein-Westfalen","County":"Duisburg","City":"Duisburg","District":"Hochfeld","PostalCode":"47053","AdditionalData":[{"value":"Deutschland","key":"CountryName"},{"value":"Nordrhein-Westfalen","key":"StateName"},{"value":"Duisburg","key":"CountyName"}]},"MapReference":{"CountryId":"20147700","StateId":"20157369","CountyId":"20157384","CityId":"20157385","DistrictId":"20248803","PlaceId":"1494968977"}}},{"Relevance":1.0,"Distance":74.6,"MatchLevel":"houseNumber","MatchQuality":{"Country":1.0,"State":1.0,"County":1.0,"City":1.0,"District":1.0,"Street":[1.0],"HouseNumber":1.0,"PostalCode":1.0},"MatchType":"interpolated","Location":{"LocationId":"NT_ySs9fqnIedIfX48ckUu3aD_5AD","LocationType":"point","DisplayPosition":{"Latitude":51.41261,"Longitude":6.75495},"MapView":{"TopLeft":{"Latitude":51.4137342,"Longitude":6.7531476},"BottomRight":{"Latitude":51.4114858,"Longitude":6.7567524}},"Address":{"Label":"Grunewaldstraße 90, 47053 Duisburg, Deutschland","Country":"DEU","State":"Nordrhein-Westfalen","County":"Duisburg","City":"Duisburg","District":"Hochfeld","Street":"Grunewaldstraße","HouseNumber":"90","PostalCode":"47053","AdditionalData":[{"value":"Deutschland","key":"CountryName"},{"value":"Nordrhein-Westfalen","key":"StateName"},{"value":"Duisburg","key":"CountyName"}]},"MapReference":{"ReferenceId":"1260775248","Spot":0.34,"SideOfStreet":"left","CountryId":"20147700","StateId":"20157369","CountyId":"20157384","CityId":"20157385","DistrictId":"20248803","AddressId":"195011485","RoadLinkId":"586273817"}}},{"Relevance":1.0,"Distance":105.6,"MatchLevel":"houseNumber","MatchQuality":{"Country":1.0,"State":1.0,"County":1.0,"City":1.0,"District":1.0,"Street":[1.0],"HouseNumber":1.0,"PostalCode":1.0},"MatchType":"interpolated","Location":{"LocationId":"NT_ySs9fqnIedIfX48ckUu3aD_3ED","LocationType":"point","DisplayPosition":{"Latitude":51.413,"Longitude":6.75747},"MapView":{"TopLeft":{"Latitude":51.4141242,"Longitude":6.7556676},"BottomRight":{"Latitude":51.4118758,"Longitude":6.7592724}},"Address":{"Label":"Grunewaldstraße 71, 47053 Duisburg, Deutschland","Country":"DEU","State":"Nordrhein-Westfalen","County":"Duisburg","City":"Duisburg","District":"Hochfeld","Street":"Grunewaldstraße","HouseNumber":"71","PostalCode":"47053","AdditionalData":[{"value":"Deutschland","key":"CountryName"},{"value":"Nordrhein-Westfalen","key":"StateName"},{"value":"Duisburg","key":"CountyName"}]},"MapReference":{"ReferenceId":"1036629429","Spot":0.47,"SideOfStreet":"right","CountryId":"20147700","StateId":"20157369","CountyId":"20157384","CityId":"20157385","DistrictId":"20248803","AddressId":"192937618","RoadLinkId":"358488017"}}},{"Relevance":1.0,"Distance":115.0,"MatchLevel":"street","MatchQuality":{"Country":1.0,"State":1.0,"County":1.0,"City":1.0,"District":1.0,"PostalCode":1.0},"Location":{"LocationId":"NT_HkZQRwPJaQ.1IDRUQSq8MB_l_1260775249_R","LocationType":"point","DisplayPosition":{"Latitude":51.41204,"Longitude":6.75479},"MapView":{"TopLeft":{"Latitude":51.41256,"Longitude":6.75407},"BottomRight":{"Latitude":51.41204,"Longitude":6.75479}},"Address":{"Label":"47053 Duisburg, Deutschland","Country":"DEU","State":"Nordrhein-Westfalen","County":"Duisburg","City":"Duisburg","District":"Hochfeld","PostalCode":"47053","AdditionalData":[{"value":"Deutschland","key":"CountryName"},{"value":"Nordrhein-Westfalen","key":"StateName"},{"value":"Duisburg","key":"CountyName"}]},"MapReference":{"ReferenceId":"1260775249","Spot":0.0,"SideOfStreet":"right","CountryId":"20147700","StateId":"20157369","CountyId":"20157384","CityId":"20157385","DistrictId":"20248803"}}},{"Relevance":1.0,"Distance":126.7,"MatchLevel":"street","MatchQuality":{"Country":1.0,"State":1.0,"County":1.0,"City":1.0,"District":1.0,"PostalCode":1.0},"Location":{"LocationId":"NT_HkZQRwPJaQ.1IDRUQSq8MB_l_1260775246_R","LocationType":"point","DisplayPosition":{"Latitude":51.4117068,"Longitude":6.7552476},"MapView":{"TopLeft":{"Latitude":51.41204,"Longitude":6.75479},"BottomRight":{"Latitude":51.41009,"Longitude":6.75799}},"Address":{"Label":"47053 Duisburg, Deutschland","Country":"DEU","State":"Nordrhein-Westfalen","County":"Duisburg","City":"Duisburg","District":"Hochfeld","PostalCode":"47053","AdditionalData":[{"value":"Deutschland","key":"CountryName"},{"value":"Nordrhein-Westfalen","key":"StateName"},{"value":"Duisburg","key":"CountyName"}]},"MapReference":{"ReferenceId":"1260775246","Spot":0.85,"SideOfStreet":"right","CountryId":"20147700","StateId":"20157369","CountyId":"20157384","CityId":"20157385","DistrictId":"20248803"}}},{"Relevance":1.0,"Distance":135.6,"MatchLevel":"street","MatchQuality":{"Country":1.0,"State":1.0,"County":1.0,"City":1.0,"District":1.0,"PostalCode":1.0},"Location":{"LocationId":"NT_HkZQRwPJaQ.1IDRUQSq8MB_l_1260775251_R","LocationType":"point","DisplayPosition":{"Latitude":51.41256,"Longitude":6.75407},"MapView":{"TopLeft":{"Latitude":51.4134,"Longitude":6.75295},"BottomRight":{"Latitude":51.41256,"Longitude":6.75407}},"Address":{"Label":"47053 Duisburg, Deutschland","Country":"DEU","State":"Nordrhein-Westfalen","County":"Duisburg","City":"Duisburg","District":"Hochfeld","PostalCode":"47053","AdditionalData":[{"value":"Deutschland","key":"CountryName"},{"value":"Nordrhein-Westfalen","key":"StateName"},{"value":"Duisburg","key":"CountyName"}]},"MapReference":{"ReferenceId":"1260775251","Spot":0.0,"SideOfStreet":"right","CountryId":"20147700","StateId":"20157369","CountyId":"20157384","CityId":"20157385","DistrictId":"20248803"}}},{"Relevance":1.0,"Distance":153.8,"MatchLevel":"houseNumber","MatchQuality":{"Country":1.0,"State":1.0,"County":1.0,"City":1.0,"District":1.0,"Street":[1.0],"HouseNumber":1.0,"PostalCode":1.0},"MatchType":"interpolated","Location":{"LocationId":"NT_ySs9fqnIedIfX48ckUu3aD_xADN","LocationType":"point","DisplayPosition":{"Latitude":51.41254,"Longitude":6.7538},"MapView":{"TopLeft":{"Latitude":51.4136642,"Longitude":6.7519976},"BottomRight":{"Latitude":51.4114158,"Longitude":6.7556024}},"Address":{"Label":"Grunewaldstraße 104, 47053 Duisburg, Deutschland","Country":"DEU","State":"Nordrhein-Westfalen","County":"Duisburg","City":"Duisburg","District":"Hochfeld","Street":"Grunewaldstraße","HouseNumber":"104","PostalCode":"47053","AdditionalData":[{"value":"Deutschland","key":"CountryName"},{"value":"Nordrhein-Westfalen","key":"StateName"},{"value":"Duisburg","key":"CountyName"}]},"MapReference":{"ReferenceId":"1260775247","Spot":0.78,"SideOfStreet":"left","CountryId":"20147700","StateId":"20157369","CountyId":"20157384","CityId":"20157385","DistrictId":"20248803","AddressId":"193525400","RoadLinkId":"586273816"}}},{"Relevance":1.0,"Distance":164.1,"MatchLevel":"houseNumber","MatchQuality":{"Country":1.0,"State":1.0,"County":1.0,"City":1.0,"District":1.0,"Street":[1.0],"HouseNumber":1.0,"PostalCode":1.0},"MatchType":"interpolated","Location":{"LocationId":"NT_PPlFIpDqbJnjeUjXwA2.KC_zUzQ","LocationType":"point","DisplayPosition":{"Latitude":51.41462,"Longitude":6.75591},"MapView":{"TopLeft":{"Latitude":51.4157442,"Longitude":6.7541076},"BottomRight":{"Latitude":51.4134958,"Longitude":6.7577124}},"Address":{"Label":"Wörthstraße 35C, 47053 Duisburg, Deutschland","Country":"DEU","State":"Nordrhein-Westfalen","County":"Duisburg","City":"Duisburg","District":"Hochfeld","Street":"Wörthstraße","HouseNumber":"35C","PostalCode":"47053","AdditionalData":[{"value":"Deutschland","key":"CountryName"},{"value":"Nordrhein-Westfalen","key":"StateName"},{"value":"Duisburg","key":"CountyName"}]},"MapReference":{"ReferenceId":"901213548","Spot":0.52,"SideOfStreet":"right","CountryId":"20147700","StateId":"20157369","CountyId":"20157384","CityId":"20157385","DistrictId":"20248803","AddressId":"196333732","RoadLinkId":"262830948"}}},{"Relevance":1.0,"Distance":171.8,"MatchLevel":"street","MatchQuality":{"Country":1.0,"State":1.0,"County":1.0,"City":1.0,"District":1.0,"Street":[1.0],"PostalCode":1.0},"Location":{"LocationId":"NT_dYiaNAeOKsflxlouPZ266D_l_1184732550_R","LocationType":"point","DisplayPosition":{"Latitude":51.4136,"Longitude":6.75394},"MapView":{"TopLeft":{"Latitude":51.41375,"Longitude":6.7536},"BottomRight":{"Latitude":51.4136,"Longitude":6.75396}},"Address":{"Label":"Wanheimer Straße, 47053 Duisburg, Deutschland","Country":"DEU","State":"Nordrhein-Westfalen","County":"Duisburg","City":"Duisburg","District":"Hochfeld","Street":"Wanheimer Straße","PostalCode":"47053","AdditionalData":[{"value":"Deutschland","key":"CountryName"},{"value":"Nordrhein-Westfalen","key":"StateName"},{"value":"Duisburg","key":"CountyName"}]},"MapReference":{"ReferenceId":"1184732550","Spot":0.69,"SideOfStreet":"right","CountryId":"20147700","StateId":"20157369","CountyId":"20157384","CityId":"20157385","DistrictId":"20248803"}}}]}]}}