{"Response":{"MetaInfo":{"Timestamp":"2020-03-28T11:19:01.306+0000","NextPageInformation":"2"},"View":[{"_type":"SearchResultsViewType","ViewId":0,"Result":[{"Relevance":1.0,"Distance":-2263.9,"MatchLevel":"landmark","MatchQuality":{"Country":1.0,"State":1.0,"County":1.0,"Name":1.0},"Location":{"LocationId":"NT_s4SLaHvSmsseIf8VuUEk5D","LocationType":"island","Name":"Isle of Sheppey","DisplayPosition":{"Latitude":51.39938,"Longitude":0.82649},"MapView":{"TopLeft":{"Latitude":51.44781,"Longitude":0.72132},"BottomRight":{"Latitude":51.35094,"Longitude":0.95095}},"Address":{"Label":"United Kingdom","Country":"GBR","State":"England","County":"Kent","AdditionalData":[{"value":"United Kingdom","key":"CountryName"},{"value":"England","key":"StateName"},{"value":"Kent","key":"CountyName"}]},"MapReference":{"StateId":"20248595","CountyId":"20336836","PlaceId":"1567150604"}}},{"Relevance":1.0,"Distance":0.0,"Direction":0.0,"MatchLevel":"district","MatchQuality":{"Country":1.0,"State":1.0,"County":1.0,"City":1.0,"District":1.0,"PostalCode":1.0},"Location":{"LocationId":"NT_BAMnMQw9nt5u8n4RnctLwA","LocationType":"point","DisplayPosition":{"Latitude":51.4153553,"Longitude":0.7911554},"MapView":{"TopLeft":{"Latitude":51.43545,"Longitude":0.75863},"BottomRight":{"Latitude":51.40993,"Longitude":0.83197}},"Address":{"Label":"Minster on Sea, Sheerness, England, United Kingdom","Country":"GBR","State":"England","County":"Kent","City":"Sheerness","District":"Minster on Sea","PostalCode":"ME12 3","AdditionalData":[{"value":"United Kingdom","key":"CountryName"},{"value":"England","key":"StateName"},{"value":"Kent","key":"CountyName"}]},"MapReference":{"ReferenceId":"25624991","SideOfStreet":"neither","StateId":"20248595","CountyId":"20336836","CityId":"20337330","DistrictId":"20337335"}}},{"Relevance":1.0,"Distance":20.5,"MatchLevel":"houseNumber","MatchQuality":{"Country":1.0,"State":1.0,"County":1.0,"City":1.0,"District":1.0,"Street":[1.0],"HouseNumber":1.0,"PostalCode":1.0},"MatchType":"interpolated","Location":{"LocationId":"NT_8ccvjkkBe32h5NMf7C4GRD_l_565982209_R_xYDN","LocationType":"point","DisplayPosition":{"Latitude":51.4155657,"Longitude":0.7913598},"MapView":{"TopLeft":{"Latitude":51.4166899,"Longitude":0.7895573},"BottomRight":{"Latitude":51.4144416,"Longitude":0.7931623}},"Address":{"Label":"164 Barton Hill Drive, Sheerness, ME12 3LZ, United Kingdom","Country":"GBR","State":"England","County":"Kent","City":"Sheerness","District":"Minster on Sea","Street":"Barton Hill Drive","HouseNumber":"164","PostalCode":"ME12 3LZ","AdditionalData":[{"value":"United Kingdom","key":"CountryName"},{"value":"England","key":"StateName"},{"value":"Kent","key":"CountyName"}]},"MapReference":{"ReferenceId":"565982209","Spot":0.34,"SideOfStreet":"right","StateId":"20248595","CountyId":"20336836","CityId":"20337330","DistrictId":"20337335"}}},{"Relevance":1.0,"Distance":44.2,"MatchLevel":"postalCode","MatchQuality":{"PostalCode":1.0},"MatchType":"interpolated","Location":{"LocationId":"NT_8ccvjkkBe32h5NMf7C4GRD_l_565982209_R_xYDN","LocationType":"point","DisplayPosition":{"Latitude":51.41569,"Longitude":0.7915},"MapView":{"TopLeft":{"Latitude":51.4246832,"Longitude":0.7770801},"BottomRight":{"Latitude":51.4066968,"Longitude":0.8059199}},"Address":{"Label":"ME12 3ND, Sheerness, England, United Kingdom","Country":"GBR","State":"England","County":"Kent","City":"Sheerness","PostalCode":"ME12 3ND","AdditionalData":[{"value":"United Kingdom","key":"CountryName"},{"value":"England","key":"StateName"},{"value":"Kent","key":"CountyName"}]},"MapReference":{"ReferenceId":"565982209","Spot":0.34,"SideOfStreet":"neither","StateId":"20248595","CountyId":"20336836","CityId":"20337330"}}},{"Relevance":1.0,"Distance":45.1,"MatchLevel":"houseNumber","MatchQuality":{"Country":1.0,"State":1.0,"County":1.0,"City":1.0,"District":1.0,"Street":[1.0],"HouseNumber":1.0,"PostalCode":1.0},"MatchType":"interpolated","Location":{"LocationId":"NT_KvwgyVJAizVpcr22lpTdBA_l_25625802_R_5A","LocationType":"point","DisplayPosition":{"Latitude":51.41518,"Longitude":0.79045},"MapView":{"TopLeft":{"Latitude":51.4163042,"Longitude":0.7886475},"BottomRight":{"Latitude":51.4140559,"Longitude":0.7922524}},"Address":{"Label":"9 Miller Court, Sheerness, ME12 3, United Kingdom","Country":"GBR","State":"England","County":"Kent","City":"Sheerness","District":"Minster on Sea","Street":"Miller Court","HouseNumber":"9","PostalCode":"ME12 3","AdditionalData":[{"value":"United Kingdom","key":"CountryName"},{"value":"England","key":"StateName"},{"value":"Kent","key":"CountyName"}]},"MapReference":{"ReferenceId":"25625802","Spot":0.35,"SideOfStreet":"right","StateId":"20248595","CountyId":"20336836","CityId":"20337330","DistrictId":"20337335"}}},{"Relevance":1.0,"Distance":61.2,"MatchLevel":"houseNumber","MatchQuality":{"Country":1.0,"State":1.0,"County":1.0,"City":1.0,"District":1.0,"Street":[1.0],"HouseNumber":1.0,"PostalCode":1.0},"MatchType":"interpolated","Location":{"LocationId":"NT_8ccvjkkBe32h5NMf7C4GRD_l_25625838_R_xYDO","LocationType":"point","DisplayPosition":{"Latitude":51.414985,"Longitude":0.7905017},"MapView":{"TopLeft":{"Latitude":51.4161092,"Longitude":0.7886992},"BottomRight":{"Latitude":51.4138609,"Longitude":0.7923041}},"Address":{"Label":"168 Barton Hill Drive, Sheerness, ME12 3LZ, United Kingdom","Country":"GBR","State":"England","County":"Kent","City":"Sheerness","District":"Minster on Sea","Street":"Barton Hill Drive","HouseNumber":"168","PostalCode":"ME12 3LZ","AdditionalData":[{"value":"United Kingdom","key":"CountryName"},{"value":"England","key":"StateName"},{"value":"Kent","key":"CountyName"}]},"MapReference":{"ReferenceId":"25625838","Spot":0.59,"SideOfStreet":"right","StateId":"20248595","CountyId":"20336836","CityId":"20337330","DistrictId":"20337335"}}},{"Relevance":1.0,"Distance":64.9,"MatchLevel":"street","MatchQuality":{"Country":1.0,"State":1.0,"County":1.0,"City":1.0,"District":1.0,"PostalCode":1.0},"Location":{"LocationId":"NT_jT.Rc2Hob0wWtQ8LDFG4PD_l_586292453_L","LocationType":"point","DisplayPosition":{"Latitude":51.41532,"Longitude":0.79209},"MapView":{"TopLeft":{"Latitude":51.41553,"Longitude":0.79209},"BottomRight":{"Latitude":51.41503,"Longitude":0.79232}},"Address":{"Label":"Sheerness, ME12 3, United Kingdom","Country":"GBR","State":"England","County":"Kent","City":"Sheerness","District":"Minster on Sea","PostalCode":"ME12 3","AdditionalData":[{"value":"United Kingdom","key":"CountryName"},{"value":"England","key":"StateName"},{"value":"Kent","key":"CountyName"}]},"MapReference":{"ReferenceId":"586292453","Spot":0.57,"SideOfStreet":"left","StateId":"20248595","CountyId":"20336836","CityId":"20337330","DistrictId":"20337335"}}},{"Relevance":1.0,"Distance":71.3,"MatchLevel":"houseNumber","MatchQuality":{"Country":1.0,"State":1.0,"County":1.0,"City":1.0,"District":1.0,"Street":[1.0],"HouseNumber":1.0,"PostalCode":1.0},"MatchType":"interpolated","Location":{"LocationId":"NT_cVm0dI1QyVP5x5GA-E7cFD_l_25625747_R_ygD","LocationType":"point","DisplayPosition":{"Latitude":51.4156701,"Longitude":0.79002},"MapView":{"TopLeft":{"Latitude":51.4167942,"Longitude":0.7882175},"BottomRight":{"Latitude":51.4145459,"Longitude":0.7918225}},"Address":{"Label":"28 Holyrood Drive, Sheerness, ME12 3NA, United Kingdom","Country":"GBR","State":"England","County":"Kent","City":"Sheerness","District":"Minster on Sea","Street":"Holyrood Drive","HouseNumber":"28","PostalCode":"ME12 3NA","AdditionalData":[{"value":"United Kingdom","key":"CountryName"},{"value":"England","key":"StateName"},{"value":"Kent","key":"CountyName"}]},"MapReference":{"ReferenceId":"25625747","Spot":0.11,"SideOfStreet":"right","StateId":"20248595","CountyId":"20336836","CityId":"20337330","DistrictId":"20337335"}}},{"Relevance":1.0,"Distance":75.4,"MatchLevel":"postalCode","MatchQuality":{"PostalCode":1.0},"MatchType":"interpolated","Location":{"LocationId":"NT_KvwgyVJAizVpcr22lpTdBA_l_25625802_R_5A","LocationType":"point","DisplayPosition":{"Latitude":51.41522,"Longitude":0.79009},"MapView":{"TopLeft":{"Latitude":51.4242132,"Longitude":0.7756702},"BottomRight":{"Latitude":51.4062268,"Longitude":0.8045098}},"Address":{"Label":"ME12 3NN, Sheerness, England, United Kingdom","Country":"GBR","State":"England","County":"Kent","City":"Sheerness","PostalCode":"ME12 3NN","AdditionalData":[{"value":"United Kingdom","key":"CountryName"},{"value":"England","key":"StateName"},{"value":"Kent","key":"CountyName"}]},"MapReference":{"ReferenceId":"25625802","Spot":0.35,"SideOfStreet":"neither","StateId":"20248595","CountyId":"20336836","CityId":"20337330"}}},{"Relevance":1.0,"Distance":78.5,"MatchLevel":"houseNumber","MatchQuality":{"Country":1.0,"State":1.0,"County":1.0,"City":1.0,"District":1.0,"Street":[1.0],"HouseNumber":1.0,"PostalCode":1.0},"MatchType":"interpolated","Location":{"LocationId":"NT_TP5UIYJ4IoAcnEJsqw11mC_l_25625839_R_yA","LocationType":"point","DisplayPosition":{"Latitude":51.41487,"Longitude":0.79012},"MapView":{"TopLeft":{"Latitude":51.4159942,"Longitude":0.7883175},"BottomRight":{"Latitude":51.4137459,"Longitude":0.7919224}},"Address":{"Label":"2 Lovell Road, Sheerness, ME12 3, United Kingdom","Country":"GBR","State":"England","County":"Kent","City":"Sheerness","District":"Minster on Sea","Street":"Lovell Road","HouseNumber":"2","PostalCode":"ME12 3","AdditionalData":[{"value":"United Kingdom","key":"CountryName"},{"value":"England","key":"StateName"},{"value":"Kent","key":"CountyName"}]},"MapReference":{"ReferenceId":"25625839","Spot":0.3,"SideOfStreet":"right","StateId":"20248595","CountyId":"20336836","CityId":"20337330","DistrictId":"20337335"}}}]}]}}