{"Response":{"MetaInfo":{"Timestamp":"2020-03-28T11:42:43.907+0000","NextPageInformation":"2"},"View":[{"_type":"SearchResultsViewType","ViewId":0,"Result":[{"Relevance":1.0,"Distance":0.0,"Direction":0.0,"MatchLevel":"district","MatchQuality":{"Country":1.0,"State":1.0,"County":1.0,"City":1.0,"District":1.0,"PostalCode":1.0},"Location":{"LocationId":"NT_WjL5alrk7bDlPYCU7fDknC","LocationType":"point","DisplayPosition":{"Latitude":51.4351764,"Longitude":7.7991963},"MapView":{"TopLeft":{"Latitude":51.46216,"Longitude":7.75014},"BottomRight":{"Latitude":51.41703,"Longitude":7.83434}},"Address":{"Label":"Menden (Sauerland), Nordrhein-Westfalen, Deutschland","Country":"DEU","State":"Nordrhein-Westfalen","County":"Märkischer Kreis","City":"Menden (Sauerland)","District":"Menden (Sauerland)","PostalCode":"58706","AdditionalData":[{"value":"Deutschland","key":"CountryName"},{"value":"Nordrhein-Westfalen","key":"StateName"},{"value":"Märkischer Kreis","key":"CountyName"}]},"MapReference":{"ReferenceId":"74974916","SideOfStreet":"neither","CountryId":"20147700","StateId":"20157369","CountyId":"20160489","CityId":"20160544","DistrictId":"20160546"}}},{"Relevance":1.0,"Distance":8.1,"MatchLevel":"houseNumber","MatchQuality":{"Country":1.0,"State":1.0,"County":1.0,"City":1.0,"District":1.0,"Street":[1.0],"HouseNumber":1.0,"PostalCode":1.0},"MatchType":"interpolated","Location":{"LocationId":"NT_DedZfmsA9LBiahyfKrMtRA_0AD","LocationType":"point","DisplayPosition":{"Latitude":51.43507,"Longitude":7.79903},"MapView":{"TopLeft":{"Latitude":51.4361942,"Longitude":7.7972267},"BottomRight":{"Latitude":51.4339458,"Longitude":7.8008333}},"Address":{"Label":"Kolpingstraße 40, 58706 Menden (Sauerland), Deutschland","Country":"DEU","State":"Nordrhein-Westfalen","County":"Märkischer Kreis","City":"Menden (Sauerland)","District":"Menden (Sauerland)","Street":"Kolpingstraße","HouseNumber":"40","PostalCode":"58706","AdditionalData":[{"value":"Deutschland","key":"CountryName"},{"value":"Nordrhein-Westfalen","key":"StateName"},{"value":"Märkischer Kreis","key":"CountyName"}]},"MapReference":{"ReferenceId":"74973877","Spot":0.88,"SideOfStreet":"right","CountryId":"20147700","StateId":"20157369","CountyId":"20160489","CityId":"20160544","DistrictId":"20160546","AddressId":"196093982","RoadLinkId":"35737382"}}},{"Relevance":1.0,"Distance":19.1,"MatchLevel":"houseNumber","MatchQuality":{"Country":1.0,"State":1.0,"County":1.0,"City":1.0,"District":1.0,"Street":[1.0],"HouseNumber":1.0,"PostalCode":1.0},"MatchType":"interpolated","Location":{"LocationId":"NT_OfEVB-u.Ds.qlAwTHtV32C_yA","LocationType":"point","DisplayPosition":{"Latitude":51.43533,"Longitude":7.79932},"MapView":{"TopLeft":{"Latitude":51.4364542,"Longitude":7.7975167},"BottomRight":{"Latitude":51.4342058,"Longitude":7.8011233}},"Address":{"Label":"Kapellenstraße 2, 58706 Menden (Sauerland), Deutschland","Country":"DEU","State":"Nordrhein-Westfalen","County":"Märkischer Kreis","City":"Menden (Sauerland)","District":"Menden (Sauerland)","Street":"Kapellenstraße","HouseNumber":"2","PostalCode":"58706","AdditionalData":[{"value":"Deutschland","key":"CountryName"},{"value":"Nordrhein-Westfalen","key":"StateName"},{"value":"Märkischer Kreis","key":"CountyName"}]},"MapReference":{"ReferenceId":"74973840","Spot":0.48,"SideOfStreet":"right","CountryId":"20147700","StateId":"20157369","CountyId":"20160489","CityId":"20160544","DistrictId":"20160546","AddressId":"196173533","RoadLinkId":"35732179"}}},{"Relevance":1.0,"Distance":32.2,"MatchLevel":"houseNumber","MatchQuality":{"Country":1.0,"State":1.0,"County":1.0,"City":1.0,"District":1.0,"Street":[1.0],"HouseNumber":1.0,"PostalCode":1.0},"MatchType":"interpolated","Location":{"LocationId":"NT_DedZfmsA9LBiahyfKrMtRA_0ID","LocationType":"point","DisplayPosition":{"Latitude":51.43536,"Longitude":7.79878},"MapView":{"TopLeft":{"Latitude":51.4364842,"Longitude":7.7969767},"BottomRight":{"Latitude":51.4342358,"Longitude":7.8005833}},"Address":{"Label":"Kolpingstraße 42, 58706 Menden (Sauerland), Deutschland","Country":"DEU","State":"Nordrhein-Westfalen","County":"Märkischer Kreis","City":"Menden (Sauerland)","District":"Menden (Sauerland)","Street":"Kolpingstraße","HouseNumber":"42","PostalCode":"58706","AdditionalData":[{"value":"Deutschland","key":"CountryName"},{"value":"Nordrhein-Westfalen","key":"StateName"},{"value":"Märkischer Kreis","key":"CountyName"}]},"MapReference":{"ReferenceId":"74973841","Spot":0.29,"SideOfStreet":"right","CountryId":"20147700","StateId":"20157369","CountyId":"20160489","CityId":"20160544","DistrictId":"20160546","AddressId":"195947920","RoadLinkId":"35266145"}}},{"Relevance":1.0,"Distance":47.5,"MatchLevel":"houseNumber","MatchQuality":{"Country":1.0,"State":1.0,"County":1.0,"City":1.0,"District":1.0,"Street":[1.0],"HouseNumber":1.0,"PostalCode":1.0},"MatchType":"interpolated","Location":{"LocationId":"NT_ml8wMCBB3.30.aXZL89piB_xA","LocationType":"point","DisplayPosition":{"Latitude":51.43505,"Longitude":7.79853},"MapView":{"TopLeft":{"Latitude":51.4361742,"Longitude":7.7967267},"BottomRight":{"Latitude":51.4339258,"Longitude":7.8003333}},"Address":{"Label":"Baustraße 1, 58706 Menden (Sauerland), Deutschland","Country":"DEU","State":"Nordrhein-Westfalen","County":"Märkischer Kreis","City":"Menden (Sauerland)","District":"Menden (Sauerland)","Street":"Baustraße","HouseNumber":"1","PostalCode":"58706","AdditionalData":[{"value":"Deutschland","key":"CountryName"},{"value":"Nordrhein-Westfalen","key":"StateName"},{"value":"Märkischer Kreis","key":"CountyName"}]},"MapReference":{"ReferenceId":"74973892","Spot":0.77,"SideOfStreet":"right","CountryId":"20147700","StateId":"20157369","CountyId":"20160489","CityId":"20160544","DistrictId":"20160546","AddressId":"196366093","RoadLinkId":"35678910"}}},{"Relevance":1.0,"Distance":48.3,"MatchLevel":"houseNumber","MatchQuality":{"Country":1.0,"State":1.0,"County":1.0,"City":1.0,"District":1.0,"Street":[1.0],"HouseNumber":1.0,"PostalCode":1.0},"MatchType":"interpolated","Location":{"LocationId":"NT_OFJ0S-U6adD3qrZL9Q5nzA_zcTQ","LocationType":"point","DisplayPosition":{"Latitude":51.43525,"Longitude":7.79997},"MapView":{"TopLeft":{"Latitude":51.4363742,"Longitude":7.7981667},"BottomRight":{"Latitude":51.4341258,"Longitude":7.8017733}},"Address":{"Label":"Wilhelmstraße 37A, 58706 Menden (Sauerland), Deutschland","Country":"DEU","State":"Nordrhein-Westfalen","County":"Märkischer Kreis","City":"Menden (Sauerland)","District":"Menden (Sauerland)","Street":"Wilhelmstraße","HouseNumber":"37A","PostalCode":"58706","AdditionalData":[{"value":"Deutschland","key":"CountryName"},{"value":"Nordrhein-Westfalen","key":"StateName"},{"value":"Märkischer Kreis","key":"CountyName"}]},"MapReference":{"ReferenceId":"1218389171","Spot":0.72,"SideOfStreet":"left","CountryId":"20147700","StateId":"20157369","CountyId":"20160489","CityId":"20160544","DistrictId":"20160546","AddressId":"194859466","RoadLinkId":"535026155"}}},{"Relevance":1.0,"Distance":52.2,"MatchLevel":"houseNumber","MatchQuality":{"Country":1.0,"State":1.0,"County":1.0,"City":1.0,"District":1.0,"Street":[1.0],"HouseNumber":1.0,"PostalCode":1.0},"MatchType":"interpolated","Location":{"LocationId":"NT_OFJ0S-U6adD3qrZL9Q5nzA_3A","LocationType":"point","DisplayPosition":{"Latitude":51.43552,"Longitude":7.79971},"MapView":{"TopLeft":{"Latitude":51.4366442,"Longitude":7.7979067},"BottomRight":{"Latitude":51.4343958,"Longitude":7.8015133}},"Address":{"Label":"Wilhelmstraße 7, 58706 Menden (Sauerland), Deutschland","Country":"DEU","State":"Nordrhein-Westfalen","County":"Märkischer Kreis","City":"Menden (Sauerland)","District":"Menden (Sauerland)","Street":"Wilhelmstraße","HouseNumber":"7","PostalCode":"58706","AdditionalData":[{"value":"Deutschland","key":"CountryName"},{"value":"Nordrhein-Westfalen","key":"StateName"},{"value":"Märkischer Kreis","key":"CountyName"}]},"MapReference":{"ReferenceId":"911733186","Spot":0.3,"SideOfStreet":"right","CountryId":"20147700","StateId":"20157369","CountyId":"20160489","CityId":"20160544","DistrictId":"20160546","AddressId":"192980873","RoadLinkId":"270373864"}}},{"Relevance":1.0,"Distance":54.9,"MatchLevel":"houseNumber","MatchQuality":{"Country":1.0,"State":1.0,"County":1.0,"City":1.0,"District":1.0,"Street":[1.0],"HouseNumber":1.0,"PostalCode":1.0},"MatchType":"interpolated","Location":{"LocationId":"NT_OFJ0S-U6adD3qrZL9Q5nzA_zkD","LocationType":"point","DisplayPosition":{"Latitude":51.43566,"Longitude":7.79958},"MapView":{"TopLeft":{"Latitude":51.4367842,"Longitude":7.7977767},"BottomRight":{"Latitude":51.4345358,"Longitude":7.8013833}},"Address":{"Label":"Wilhelmstraße 39, 58706 Menden (Sauerland), Deutschland","Country":"DEU","State":"Nordrhein-Westfalen","County":"Märkischer Kreis","City":"Menden (Sauerland)","District":"Menden (Sauerland)","Street":"Wilhelmstraße","HouseNumber":"39","PostalCode":"58706","AdditionalData":[{"value":"Deutschland","key":"CountryName"},{"value":"Nordrhein-Westfalen","key":"StateName"},{"value":"Märkischer Kreis","key":"CountyName"}]},"MapReference":{"ReferenceId":"911733187","Spot":0.31,"SideOfStreet":"left","CountryId":"20147700","StateId":"20157369","CountyId":"20160489","CityId":"20160544","DistrictId":"20160546","AddressId":"194479716","RoadLinkId":"270373865"}}},{"Relevance":1.0,"Distance":61.6,"MatchLevel":"houseNumber","MatchQuality":{"Country":1.0,"State":1.0,"County":1.0,"City":1.0,"District":1.0,"Street":[1.0],"HouseNumber":1.0,"PostalCode":1.0},"MatchType":"interpolated","Location":{"LocationId":"NT_mM7FmJrtnfBV0pNnCZ.qsA_2A","LocationType":"point","DisplayPosition":{"Latitude":51.43577,"Longitude":7.79918},"MapView":{"TopLeft":{"Latitude":51.4368942,"Longitude":7.7973767},"BottomRight":{"Latitude":51.4346458,"Longitude":7.8009833}},"Address":{"Label":"Kapellengasse 6, 58706 Menden (Sauerland), Deutschland","Country":"DEU","State":"Nordrhein-Westfalen","County":"Märkischer Kreis","City":"Menden (Sauerland)","District":"Menden (Sauerland)","Street":"Kapellengasse","HouseNumber":"6","PostalCode":"58706","AdditionalData":[{"value":"Deutschland","key":"CountryName"},{"value":"Nordrhein-Westfalen","key":"StateName"},{"value":"Märkischer Kreis","key":"CountyName"}]},"MapReference":{"ReferenceId":"74973822","Spot":0.76,"SideOfStreet":"right","CountryId":"20147700","StateId":"20157369","CountyId":"20160489","CityId":"20160544","DistrictId":"20160546","AddressId":"743390793","RoadLinkId":"35764544"}}},{"Relevance":1.0,"Distance":75.3,"MatchLevel":"houseNumber","MatchQuality":{"Country":1.0,"State":1.0,"County":1.0,"City":1.0,"District":1.0,"Street":[1.0],"HouseNumber":1.0,"PostalCode":1.0},"MatchType":"interpolated","Location":{"LocationId":"NT_OFJ0S-U6adD3qrZL9Q5nzA_0ID","LocationType":"point","DisplayPosition":{"Latitude":51.43584,"Longitude":7.79941},"MapView":{"TopLeft":{"Latitude":51.4369642,"Longitude":7.7976067},"BottomRight":{"Latitude":51.4347158,"Longitude":7.8012133}},"Address":{"Label":"Wilhelmstraße 42, 58706 Menden (Sauerland), Deutschland","Country":"DEU","State":"Nordrhein-Westfalen","County":"Märkischer Kreis","City":"Menden (Sauerland)","District":"Menden (Sauerland)","Street":"Wilhelmstraße","HouseNumber":"42","PostalCode":"58706","AdditionalData":[{"value":"Deutschland","key":"CountryName"},{"value":"Nordrhein-Westfalen","key":"StateName"},{"value":"Märkischer Kreis","key":"CountyName"}]},"MapReference":{"ReferenceId":"74973820","Spot":0.05,"SideOfStreet":"right","CountryId":"20147700","StateId":"20157369","CountyId":"20160489","CityId":"20160544","DistrictId":"20160546","AddressId":"193479684","RoadLinkId":"35280365"}}}]}]}}