{"Response":{"MetaInfo":{"Timestamp":"2020-03-28T11:54:56.056+0000","NextPageInformation":"2"},"View":[{"_type":"SearchResultsViewType","ViewId":0,"Result":[{"Relevance":1.0,"Distance":0.0,"Direction":0.0,"MatchLevel":"district","MatchQuality":{"Country":1.0,"State":1.0,"County":1.0,"City":1.0,"District":1.0,"PostalCode":1.0},"Location":{"LocationId":"NT_dxmP4qMD0eM8GxW-UVI55B","LocationType":"point","DisplayPosition":{"Latitude":51.4970684,"Longitude":-0.1375018},"MapView":{"TopLeft":{"Latitude":51.50129,"Longitude":-0.14517},"BottomRight":{"Latitude":51.49608,"Longitude":-0.12932}},"Address":{"Label":"St James's Park, London, England, United Kingdom","Country":"GBR","State":"England","County":"London","City":"London","District":"St James's Park","PostalCode":"SW1E 6","AdditionalData":[{"value":"United Kingdom","key":"CountryName"},{"value":"England","key":"StateName"},{"value":"London","key":"CountyName"}]},"MapReference":{"ReferenceId":"25308703","SideOfStreet":"neither","StateId":"20248595","CountyId":"20337453","CityId":"20337454"}}},{"Relevance":1.0,"Distance":2.5,"MatchLevel":"houseNumber","MatchQuality":{"Country":1.0,"State":1.0,"County":1.0,"City":1.0,"District":1.0,"Street":[1.0],"HouseNumber":1.0,"PostalCode":1.0},"MatchType":"interpolated","Location":{"LocationId":"NT_7fdFI5VSb-1nZ1nS80WKJB_l_25308703_R_xAzN","LocationType":"point","DisplayPosition":{"Latitude":51.4972172,"Longitude":-0.1375489},"MapView":{"TopLeft":{"Latitude":51.4983414,"Longitude":-0.1393546},"BottomRight":{"Latitude":51.4960931,"Longitude":-0.1357432}},"Address":{"Label":"107 Victoria Street, London, SW1E 6, United Kingdom","Country":"GBR","State":"England","County":"London","City":"London","District":"St James's Park","Street":"Victoria Street","HouseNumber":"107","PostalCode":"SW1E 6","AdditionalData":[{"value":"United Kingdom","key":"CountryName"},{"value":"England","key":"StateName"},{"value":"London","key":"CountyName"}]},"MapReference":{"ReferenceId":"25308703","Spot":0.85,"SideOfStreet":"right","StateId":"20248595","CountyId":"20337453","CityId":"20337454"}}},{"Relevance":1.0,"Distance":21.6,"MatchLevel":"street","MatchQuality":{"Country":1.0,"State":1.0,"County":1.0,"City":1.0,"District":1.0,"Street":[1.0],"PostalCode":1.0},"Location":{"LocationId":"NT_.PGry9N0O9YiyclAJavvmC_l_25326124_L","LocationType":"point","DisplayPosition":{"Latitude":51.4971458,"Longitude":-0.1372163},"MapView":{"TopLeft":{"Latitude":51.49727,"Longitude":-0.13725},"BottomRight":{"Latitude":51.49668,"Longitude":-0.13709}},"Address":{"Label":"Wilcox Place, London, SW1E 6, United Kingdom","Country":"GBR","State":"England","County":"London","City":"London","District":"St James's Park","Street":"Wilcox Place","PostalCode":"SW1E 6","AdditionalData":[{"value":"United Kingdom","key":"CountryName"},{"value":"England","key":"StateName"},{"value":"London","key":"CountyName"}]},"MapReference":{"ReferenceId":"25326124","Spot":0.79,"SideOfStreet":"left","StateId":"20248595","CountyId":"20337453","CityId":"20337454"}}},{"Relevance":1.0,"Distance":26.6,"MatchLevel":"postalCode","MatchQuality":{"PostalCode":1.0},"MatchType":"interpolated","Location":{"LocationId":"NT_7fdFI5VSb-1nZ1nS80WKJB_l_25308703_R_xAzN","LocationType":"point","DisplayPosition":{"Latitude":51.49724,"Longitude":-0.13777},"MapView":{"TopLeft":{"Latitude":51.5062332,"Longitude":-0.1522157},"BottomRight":{"Latitude":51.4882468,"Longitude":-0.1233243}},"Address":{"Label":"SW1E 6AW, London, England, United Kingdom","Country":"GBR","State":"England","County":"London","City":"London","PostalCode":"SW1E 6AW","AdditionalData":[{"value":"United Kingdom","key":"CountryName"},{"value":"England","key":"StateName"},{"value":"London","key":"CountyName"}]},"MapReference":{"ReferenceId":"25308703","Spot":0.85,"SideOfStreet":"neither","StateId":"20248595","CountyId":"20337453","CityId":"20337454"}}},{"Relevance":1.0,"Distance":27.2,"MatchLevel":"postalCode","MatchQuality":{"PostalCode":1.0},"Location":{"LocationId":"NT_.PGry9N0O9YiyclAJavvmC_l_25326124_L","LocationType":"point","DisplayPosition":{"Latitude":51.49701,"Longitude":-0.13712},"MapView":{"TopLeft":{"Latitude":51.5060032,"Longitude":-0.1515656},"BottomRight":{"Latitude":51.4880168,"Longitude":-0.1226744}},"Address":{"Label":"SW1E 6QT, London, England, United Kingdom","Country":"GBR","State":"England","County":"London","City":"London","PostalCode":"SW1E 6QT","AdditionalData":[{"value":"United Kingdom","key":"CountryName"},{"value":"England","key":"StateName"},{"value":"London","key":"CountyName"}]},"MapReference":{"ReferenceId":"25326124","Spot":0.79,"SideOfStreet":"neither","StateId":"20248595","CountyId":"20337453","CityId":"20337454"}}},{"Relevance":1.0,"Distance":29.8,"MatchLevel":"houseNumber","MatchQuality":{"Country":1.0,"State":1.0,"County":1.0,"City":1.0,"District":1.0,"Street":[1.0],"HouseNumber":1.0,"PostalCode":1.0},"MatchType":"interpolated","Location":{"LocationId":"NT_7fdFI5VSb-1nZ1nS80WKJB_l_732622900_R_xATN","LocationType":"point","DisplayPosition":{"Latitude":51.4972906,"Longitude":-0.1371162},"MapView":{"TopLeft":{"Latitude":51.4984147,"Longitude":-0.1389219},"BottomRight":{"Latitude":51.4961664,"Longitude":-0.1353105}},"Address":{"Label":"105 Victoria Street, London, SW1E 6, United Kingdom","Country":"GBR","State":"England","County":"London","City":"London","District":"St James's Park","Street":"Victoria Street","HouseNumber":"105","PostalCode":"SW1E 6","AdditionalData":[{"value":"United Kingdom","key":"CountryName"},{"value":"England","key":"StateName"},{"value":"London","key":"CountyName"}]},"MapReference":{"ReferenceId":"732622900","Spot":0.51,"SideOfStreet":"right","StateId":"20248595","CountyId":"20337453","CityId":"20337454"}}},{"Relevance":1.0,"Distance":36.0,"MatchLevel":"postalCode","MatchQuality":{"PostalCode":1.0},"Location":{"LocationId":"NT_StwUT67pUXK5t9hfEwxRUB_l_1152023976_R","LocationType":"point","DisplayPosition":{"Latitude":51.49676,"Longitude":-0.13766},"MapView":{"TopLeft":{"Latitude":51.5057532,"Longitude":-0.1521056},"BottomRight":{"Latitude":51.4877668,"Longitude":-0.1232144}},"Address":{"Label":"SW1E 5NT, London, England, United Kingdom","Country":"GBR","State":"England","County":"London","City":"London","PostalCode":"SW1E 5NT","AdditionalData":[{"value":"United Kingdom","key":"CountryName"},{"value":"England","key":"StateName"},{"value":"London","key":"CountyName"}]},"MapReference":{"ReferenceId":"1152023976","Spot":0.57,"SideOfStreet":"neither","StateId":"20248595","CountyId":"20337453","CityId":"20337454"}}},{"Relevance":1.0,"Distance":39.9,"MatchLevel":"street","MatchQuality":{"Country":1.0,"State":1.0,"County":1.0,"City":1.0,"District":1.0,"Street":[1.0],"PostalCode":1.0},"Location":{"LocationId":"NT_StwUT67pUXK5t9hfEwxRUB_l_1152023976_R","LocationType":"point","DisplayPosition":{"Latitude":51.49671,"Longitude":-0.1375018},"MapView":{"TopLeft":{"Latitude":51.49671,"Longitude":-0.13781},"BottomRight":{"Latitude":51.49668,"Longitude":-0.13709}},"Address":{"Label":"Howick Place, London, SW1E 6, United Kingdom","Country":"GBR","State":"England","County":"London","City":"London","District":"St James's Park","Street":"Howick Place","PostalCode":"SW1E 6","AdditionalData":[{"value":"United Kingdom","key":"CountryName"},{"value":"England","key":"StateName"},{"value":"London","key":"CountyName"}]},"MapReference":{"ReferenceId":"1152023976","Spot":0.57,"SideOfStreet":"right","StateId":"20248595","CountyId":"20337453","CityId":"20337454"}}},{"Relevance":1.0,"Distance":44.5,"MatchLevel":"street","MatchQuality":{"Country":1.0,"State":1.0,"County":1.0,"City":1.0,"District":1.0,"PostalCode":1.0},"Location":{"LocationId":"NT_.KrE4pOaUDBQBduXdc1dTA_l_732622902_L","LocationType":"point","DisplayPosition":{"Latitude":51.49731,"Longitude":-0.13699},"MapView":{"TopLeft":{"Latitude":51.49781,"Longitude":-0.13714},"BottomRight":{"Latitude":51.49731,"Longitude":-0.13699}},"Address":{"Label":"London, SW1E 6, United Kingdom","Country":"GBR","State":"England","County":"London","City":"London","District":"St James's Park","PostalCode":"SW1E 6","AdditionalData":[{"value":"United Kingdom","key":"CountryName"},{"value":"England","key":"StateName"},{"value":"London","key":"CountyName"}]},"MapReference":{"ReferenceId":"732622902","Spot":0.0,"SideOfStreet":"left","StateId":"20248595","CountyId":"20337453","CityId":"20337454"}}},{"Relevance":1.0,"Distance":45.7,"MatchLevel":"postalCode","MatchQuality":{"PostalCode":1.0},"MatchType":"interpolated","Location":{"LocationId":"NT_z72ku.AfEdv5YGtfFlDOAD","LocationType":"point","DisplayPosition":{"Latitude":51.49666,"Longitude":-0.13743},"MapView":{"TopLeft":{"Latitude":51.5056532,"Longitude":-0.1518755},"BottomRight":{"Latitude":51.4876668,"Longitude":-0.1229845}},"Address":{"Label":"SW1P 1QN, London, England, United Kingdom","Country":"GBR","State":"England","County":"London","City":"London","PostalCode":"SW1P 1QN","AdditionalData":[{"value":"United Kingdom","key":"CountryName"},{"value":"England","key":"StateName"},{"value":"London","key":"CountyName"}]},"MapReference":{"ReferenceId":"25308923","Spot":0.57,"SideOfStreet":"neither","StateId":"20248595","CountyId":"20337453","CityId":"20337454"}}}]}]}}