{"Response":{"MetaInfo":{"Timestamp":"2020-03-28T09:53:12.308+0000","NextPageInformation":"2"},"View":[{"_type":"SearchResultsViewType","ViewId":0,"Result":[{"Relevance":1.0,"Distance":0.0,"Direction":0.0,"MatchLevel":"district","MatchQuality":{"Country":1.0,"State":1.0,"County":1.0,"City":1.0,"District":1.0,"PostalCode":1.0},"Location":{"LocationId":"NT_0u3UWE9C6gkY7oJGsOLXRA","LocationType":"point","DisplayPosition":{"Latitude":51.4410194,"Longitude":-2.6112029},"MapView":{"TopLeft":{"Latitude":51.44308,"Longitude":-2.61778},"BottomRight":{"Latitude":51.43344,"Longitude":-2.60452}},"Address":{"Label":"Bedminster, Bristol, England, United Kingdom","Country":"GBR","State":"England","County":"Avon","City":"Bristol","District":"Bedminster","PostalCode":"BS3 1","AdditionalData":[{"value":"United Kingdom","key":"CountryName"},{"value":"England","key":"StateName"},{"value":"Avon","key":"CountyName"}]},"MapReference":{"ReferenceId":"1198369399","SideOfStreet":"neither","StateId":"20248595","CountyId":"20352323","CityId":"20352420","DistrictId":"20352436"}}},{"Relevance":1.0,"Distance":6.7,"MatchLevel":"houseNumber","MatchQuality":{"Country":1.0,"State":1.0,"County":1.0,"City":1.0,"District":1.0,"Street":[1.0],"HouseNumber":1.0,"PostalCode":1.0},"MatchType":"interpolated","Location":{"LocationId":"NT_6-tAYEbxOn4Vwc9XFXEGLA_l_26729901_R_yIjN","LocationType":"point","DisplayPosition":{"Latitude":51.4408429,"Longitude":-2.6113258},"MapView":{"TopLeft":{"Latitude":51.441967,"Longitude":-2.6131292},"BottomRight":{"Latitude":51.4397187,"Longitude":-2.6095223}},"Address":{"Label":"226 North Street, Bristol, BS3 1JD, United Kingdom","Country":"GBR","State":"England","County":"Avon","City":"Bristol","District":"Bedminster","Street":"North Street","HouseNumber":"226","PostalCode":"BS3 1JD","AdditionalData":[{"value":"United Kingdom","key":"CountryName"},{"value":"England","key":"StateName"},{"value":"Avon","key":"CountyName"}]},"MapReference":{"ReferenceId":"26729901","Spot":0.46,"SideOfStreet":"right","StateId":"20248595","CountyId":"20352323","CityId":"20352420","DistrictId":"20352436"}}},{"Relevance":1.0,"Distance":15.8,"MatchLevel":"postalCode","MatchQuality":{"PostalCode":1.0},"MatchType":"interpolated","Location":{"LocationId":"NT_6-tAYEbxOn4Vwc9XFXEGLA_l_26729901_R_yIjN","LocationType":"point","DisplayPosition":{"Latitude":51.44093,"Longitude":-2.61138},"MapView":{"TopLeft":{"Latitude":51.4499232,"Longitude":-2.6258079},"BottomRight":{"Latitude":51.4319368,"Longitude":-2.5969521}},"Address":{"Label":"BS3 1LA, Bristol, England, United Kingdom","Country":"GBR","State":"England","County":"Avon","City":"Bristol","PostalCode":"BS3 1LA","AdditionalData":[{"value":"United Kingdom","key":"CountryName"},{"value":"England","key":"StateName"},{"value":"Avon","key":"CountyName"}]},"MapReference":{"ReferenceId":"26729901","Spot":0.46,"SideOfStreet":"neither","StateId":"20248595","CountyId":"20352323","CityId":"20352420"}}},{"Relevance":1.0,"Distance":18.2,"MatchLevel":"houseNumber","MatchQuality":{"Country":1.0,"State":1.0,"County":1.0,"City":1.0,"District":1.0,"Street":[1.0],"HouseNumber":1.0,"PostalCode":1.0},"MatchType":"interpolated","Location":{"LocationId":"NT_amn0JyrX5kFBnthSy650XD_l_26729781_R_2gD","LocationType":"point","DisplayPosition":{"Latitude":51.4412793,"Longitude":-2.6114284},"MapView":{"TopLeft":{"Latitude":51.4424035,"Longitude":-2.6132319},"BottomRight":{"Latitude":51.4401552,"Longitude":-2.6096249}},"Address":{"Label":"68 Exeter Road, Bristol, BS3 1LZ, United Kingdom","Country":"GBR","State":"England","County":"Avon","City":"Bristol","District":"Southville","Street":"Exeter Road","HouseNumber":"68","PostalCode":"BS3 1LZ","AdditionalData":[{"value":"United Kingdom","key":"CountryName"},{"value":"England","key":"StateName"},{"value":"Avon","key":"CountyName"}]},"MapReference":{"ReferenceId":"26729781","Spot":0.13,"SideOfStreet":"right","StateId":"20248595","CountyId":"20352323","CityId":"20352420","DistrictId":"20352546"}}},{"Relevance":1.0,"Distance":19.9,"MatchLevel":"houseNumber","MatchQuality":{"Country":1.0,"State":1.0,"County":1.0,"City":1.0,"District":1.0,"Street":[1.0],"HouseNumber":1.0,"PostalCode":1.0},"MatchType":"interpolated","Location":{"LocationId":"NT_ovEFtDn8AhhvlhaaOW4FlC_l_894244487_L_xA","LocationType":"point","DisplayPosition":{"Latitude":51.44078,"Longitude":-2.6109099},"MapView":{"TopLeft":{"Latitude":51.4419042,"Longitude":-2.6127134},"BottomRight":{"Latitude":51.4396559,"Longitude":-2.6091065}},"Address":{"Label":"1 Greville Road, Bristol, BS3 1LL, United Kingdom","Country":"GBR","State":"England","County":"Avon","City":"Bristol","District":"Southville","Street":"Greville Road","HouseNumber":"1","PostalCode":"BS3 1LL","AdditionalData":[{"value":"United Kingdom","key":"CountryName"},{"value":"England","key":"StateName"},{"value":"Avon","key":"CountyName"}]},"MapReference":{"ReferenceId":"894244487","Spot":0.37,"SideOfStreet":"left","StateId":"20248595","CountyId":"20352323","CityId":"20352420","DistrictId":"20352546"}}},{"Relevance":1.0,"Distance":25.5,"MatchLevel":"street","MatchQuality":{"Country":1.0,"State":1.0,"County":1.0,"City":1.0,"District":1.0,"Street":[1.0],"PostalCode":1.0},"Location":{"LocationId":"NT_T-9-CjPtEtODz.gLrqLs-C_l_894244489_L","LocationType":"point","DisplayPosition":{"Latitude":51.44115,"Longitude":-2.6109},"MapView":{"TopLeft":{"Latitude":51.44115,"Longitude":-2.6109},"BottomRight":{"Latitude":51.44093,"Longitude":-2.61061}},"Address":{"Label":"Greville Mews, Bristol, BS3 1, United Kingdom","Country":"GBR","State":"England","County":"Avon","City":"Bristol","District":"Southville","Street":"Greville Mews","PostalCode":"BS3 1","AdditionalData":[{"value":"United Kingdom","key":"CountryName"},{"value":"England","key":"StateName"},{"value":"Avon","key":"CountyName"}]},"MapReference":{"ReferenceId":"894244489","Spot":1.0,"SideOfStreet":"left","StateId":"20248595","CountyId":"20352323","CityId":"20352420","DistrictId":"20352546"}}},{"Relevance":1.0,"Distance":25.6,"MatchLevel":"houseNumber","MatchQuality":{"Country":1.0,"State":1.0,"County":1.0,"City":1.0,"District":1.0,"Street":[1.0],"HouseNumber":1.0,"PostalCode":1.0},"MatchType":"interpolated","Location":{"LocationId":"NT_TFCAMryrJW0jqMI4WjuzFB_l_26729813_R_yMDN","LocationType":"point","DisplayPosition":{"Latitude":51.441,"Longitude":-2.6116},"MapView":{"TopLeft":{"Latitude":51.4421242,"Longitude":-2.6134035},"BottomRight":{"Latitude":51.4398759,"Longitude":-2.6097965}},"Address":{"Label":"234 North Street, Bristol, BS3 1JD, United Kingdom","Country":"GBR","State":"England","County":"Avon","City":"Bristol","District":"Bedminster","Street":"North Street","HouseNumber":"234","PostalCode":"BS3 1JD","AdditionalData":[{"value":"United Kingdom","key":"CountryName"},{"value":"England","key":"StateName"},{"value":"Avon","key":"CountyName"}]},"MapReference":{"ReferenceId":"26729813","Spot":0.0,"SideOfStreet":"right","StateId":"20248595","CountyId":"20352323","CityId":"20352420","DistrictId":"20352436"}}},{"Relevance":1.0,"Distance":28.7,"MatchLevel":"postalCode","MatchQuality":{"PostalCode":1.0},"MatchType":"interpolated","Location":{"LocationId":"NT_TFCAMryrJW0jqMI4WjuzFB_l_26729782_R_yMDO","LocationType":"point","DisplayPosition":{"Latitude":51.44117,"Longitude":-2.61154},"MapView":{"TopLeft":{"Latitude":51.4501632,"Longitude":-2.625968},"BottomRight":{"Latitude":51.4321768,"Longitude":-2.597112}},"Address":{"Label":"BS3 1JD, Bristol, England, United Kingdom","Country":"GBR","State":"England","County":"Avon","City":"Bristol","PostalCode":"BS3 1JD","AdditionalData":[{"value":"United Kingdom","key":"CountryName"},{"value":"England","key":"StateName"},{"value":"Avon","key":"CountyName"}]},"MapReference":{"ReferenceId":"26729782","Spot":0.25,"SideOfStreet":"neither","StateId":"20248595","CountyId":"20352323","CityId":"20352420"}}},{"Relevance":1.0,"Distance":33.9,"MatchLevel":"postalCode","MatchQuality":{"PostalCode":1.0},"MatchType":"interpolated","Location":{"LocationId":"NT_TFCAMryrJW0jqMI4WjuzFB_l_26729813_R_yMDN","LocationType":"point","DisplayPosition":{"Latitude":51.44105,"Longitude":-2.61169},"MapView":{"TopLeft":{"Latitude":51.4500432,"Longitude":-2.6261179},"BottomRight":{"Latitude":51.4320568,"Longitude":-2.5972621}},"Address":{"Label":"BS3 1JL, Bristol, England, United Kingdom","Country":"GBR","State":"England","County":"Avon","City":"Bristol","PostalCode":"BS3 1JL","AdditionalData":[{"value":"United Kingdom","key":"CountryName"},{"value":"England","key":"StateName"},{"value":"Avon","key":"CountyName"}]},"MapReference":{"ReferenceId":"26729813","Spot":0.0,"SideOfStreet":"neither","StateId":"20248595","CountyId":"20352323","CityId":"20352420"}}},{"Relevance":1.0,"Distance":35.3,"MatchLevel":"street","MatchQuality":{"Country":1.0,"State":1.0,"County":1.0,"City":1.0,"District":1.0,"Street":[1.0],"PostalCode":1.0},"Location":{"LocationId":"NT_6-tAYEbxOn4Vwc9XFXEGLA_l_26729914_R","LocationType":"point","DisplayPosition":{"Latitude":51.44071,"Longitude":-2.61109},"MapView":{"TopLeft":{"Latitude":51.44071,"Longitude":-2.61109},"BottomRight":{"Latitude":51.44066,"Longitude":-2.61099}},"Address":{"Label":"North Street, Bristol, BS3 1, United Kingdom","Country":"GBR","State":"England","County":"Avon","City":"Bristol","District":"Bedminster","Street":"North Street","PostalCode":"BS3 1","AdditionalData":[{"value":"United Kingdom","key":"CountryName"},{"value":"England","key":"StateName"},{"value":"Avon","key":"CountyName"}]},"MapReference":{"ReferenceId":"26729914","Spot":1.0,"SideOfStreet":"right","StateId":"20248595","CountyId":"20352323","CityId":"20352420","DistrictId":"20352436"}}}]}]}}