{"Response":{"MetaInfo":{"Timestamp":"2020-03-28T10:39:37.179+0000","NextPageInformation":"2"},"View":[{"_type":"SearchResultsViewType","ViewId":0,"Result":[{"Relevance":1.0,"Distance":0.0,"Direction":0.0,"MatchLevel":"district","MatchQuality":{"Country":1.0,"State":1.0,"County":1.0,"City":1.0,"District":1.0,"PostalCode":1.0},"Location":{"LocationId":"NT_ptRUhTr968TXSDx390lEaD","LocationType":"point","DisplayPosition":{"Latitude":51.4314974,"Longitude":0.1018233},"MapView":{"TopLeft":{"Latitude":51.45781,"Longitude":0.079},"BottomRight":{"Latitude":51.40216,"Longitude":0.15888}},"Address":{"Label":"Sidcup, England, United Kingdom","Country":"GBR","State":"England","County":"Kent","City":"Sidcup","District":"Sidcup","PostalCode":"DA14 6","AdditionalData":[{"value":"United Kingdom","key":"CountryName"},{"value":"England","key":"StateName"},{"value":"Kent","key":"CountyName"}]},"MapReference":{"ReferenceId":"25490338","SideOfStreet":"neither","StateId":"20248595","CountyId":"20336836","CityId":"20337337","DistrictId":"20337338"}}},{"Relevance":1.0,"Distance":20.6,"MatchLevel":"houseNumber","MatchQuality":{"Country":1.0,"State":1.0,"County":1.0,"City":1.0,"District":1.0,"Street":[1.0],"HouseNumber":1.0,"PostalCode":1.0},"MatchType":"interpolated","Location":{"LocationId":"NT_HNpGZitcwneEDdO5PyNr7B_2cD","LocationType":"point","DisplayPosition":{"Latitude":51.4313,"Longitude":0.10224},"MapView":{"TopLeft":{"Latitude":51.4324242,"Longitude":0.1004369},"BottomRight":{"Latitude":51.4301758,"Longitude":0.1040431}},"Address":{"Label":"67 Station Road, Sidcup, DA15 7DR, United Kingdom","Country":"GBR","State":"England","County":"Kent","City":"Sidcup","District":"Sidcup","Street":"Station Road","HouseNumber":"67","PostalCode":"DA15 7DR","AdditionalData":[{"value":"United Kingdom","key":"CountryName"},{"value":"England","key":"StateName"},{"value":"Kent","key":"CountyName"}]},"MapReference":{"ReferenceId":"25417349","Spot":0.57,"SideOfStreet":"left","StateId":"20248595","CountyId":"20336836","CityId":"20337337","DistrictId":"20337338","AddressId":"748871995","RoadLinkId":"82360044"}}},{"Relevance":1.0,"Distance":23.9,"MatchLevel":"houseNumber","MatchQuality":{"Country":1.0,"State":1.0,"County":1.0,"City":1.0,"District":1.0,"Street":[1.0],"HouseNumber":1.0,"PostalCode":1.0},"MatchType":"interpolated","Location":{"LocationId":"NT_uW66I4Hc9p0p7305KxNCnC_xA","LocationType":"point","DisplayPosition":{"Latitude":51.43183,"Longitude":0.10172},"MapView":{"TopLeft":{"Latitude":51.4329542,"Longitude":0.0999169},"BottomRight":{"Latitude":51.4307058,"Longitude":0.1035231}},"Address":{"Label":"1 Manor Road, Sidcup, DA15 7BG, United Kingdom","Country":"GBR","State":"England","County":"Kent","City":"Sidcup","District":"Sidcup","Street":"Manor Road","HouseNumber":"1","PostalCode":"DA15 7BG","AdditionalData":[{"value":"United Kingdom","key":"CountryName"},{"value":"England","key":"StateName"},{"value":"Kent","key":"CountyName"}]},"MapReference":{"ReferenceId":"25416998","Spot":0.42,"SideOfStreet":"left","StateId":"20248595","CountyId":"20336836","CityId":"20337337","DistrictId":"20337338","AddressId":"748838417","RoadLinkId":"83048060"}}},{"Relevance":1.0,"Distance":29.2,"MatchLevel":"postalCode","MatchQuality":{"PostalCode":1.0},"MatchType":"interpolated","Location":{"LocationId":"NT_HNpGZitcwneEDdO5PyNr7B_2cD","LocationType":"point","DisplayPosition":{"Latitude":51.43143,"Longitude":0.10223},"MapView":{"TopLeft":{"Latitude":51.4404232,"Longitude":0.0878051},"BottomRight":{"Latitude":51.4224368,"Longitude":0.1166549}},"Address":{"Label":"DA15 7DS, Sidcup, England, United Kingdom","Country":"GBR","State":"England","County":"Kent","City":"Sidcup","PostalCode":"DA15 7DS","AdditionalData":[{"value":"United Kingdom","key":"CountryName"},{"value":"England","key":"StateName"},{"value":"Kent","key":"CountyName"}]},"MapReference":{"ReferenceId":"25417349","Spot":0.57,"SideOfStreet":"neither","StateId":"20248595","CountyId":"20336836","CityId":"20337337"}}},{"Relevance":1.0,"Distance":35.3,"MatchLevel":"postalCode","MatchQuality":{"PostalCode":1.0},"MatchType":"interpolated","Location":{"LocationId":"NT_uW66I4Hc9p0p7305KxNCnC_xA","LocationType":"point","DisplayPosition":{"Latitude":51.43178,"Longitude":0.10159},"MapView":{"TopLeft":{"Latitude":51.4407732,"Longitude":0.087165},"BottomRight":{"Latitude":51.4227868,"Longitude":0.116015}},"Address":{"Label":"DA15 7BG, Sidcup, England, United Kingdom","Country":"GBR","State":"England","County":"Kent","City":"Sidcup","PostalCode":"DA15 7BG","AdditionalData":[{"value":"United Kingdom","key":"CountryName"},{"value":"England","key":"StateName"},{"value":"Kent","key":"CountyName"}]},"MapReference":{"ReferenceId":"25416998","Spot":0.42,"SideOfStreet":"neither","StateId":"20248595","CountyId":"20336836","CityId":"20337337"}}},{"Relevance":1.0,"Distance":42.5,"MatchLevel":"street","MatchQuality":{"Country":1.0,"State":1.0,"County":1.0,"City":1.0,"District":1.0,"Street":[1.0],"PostalCode":1.0},"Location":{"LocationId":"NT_jSVyKWPtg0W.puzP.SkaPB_l_25417102_R","LocationType":"point","DisplayPosition":{"Latitude":51.43167,"Longitude":0.10237},"MapView":{"TopLeft":{"Latitude":51.43171,"Longitude":0.10237},"BottomRight":{"Latitude":51.4316,"Longitude":0.10317}},"Address":{"Label":"Maltings Mews, Sidcup, DA15 7, United Kingdom","Country":"GBR","State":"England","County":"Kent","City":"Sidcup","District":"Sidcup","Street":"Maltings Mews","PostalCode":"DA15 7","AdditionalData":[{"value":"United Kingdom","key":"CountryName"},{"value":"England","key":"StateName"},{"value":"Kent","key":"CountyName"}]},"MapReference":{"ReferenceId":"25417102","Spot":0.0,"SideOfStreet":"right","StateId":"20248595","CountyId":"20336836","CityId":"20337337","DistrictId":"20337338"}}},{"Relevance":1.0,"Distance":50.1,"MatchLevel":"houseNumber","MatchQuality":{"Country":1.0,"State":1.0,"County":1.0,"City":1.0,"District":1.0,"Street":[1.0],"PostalCode":1.0},"MatchType":"interpolated","Location":{"LocationId":"NT_HNpGZitcwneEDdO5PyNr7B","LocationType":"point","DisplayPosition":{"Latitude":51.43176,"Longitude":0.10241},"MapView":{"TopLeft":{"Latitude":51.4328842,"Longitude":0.1006069},"BottomRight":{"Latitude":51.4306358,"Longitude":0.1042131}},"Address":{"Label":"Station Road, Sidcup, DA15 7, United Kingdom","Country":"GBR","State":"England","County":"Kent","City":"Sidcup","District":"Sidcup","Street":"Station Road","PostalCode":"DA15 7","AdditionalData":[{"value":"United Kingdom","key":"CountryName"},{"value":"England","key":"StateName"},{"value":"Kent","key":"CountyName"}],"Building":"Edam Court"},"MapReference":{"ReferenceId":"25417082","Spot":0.61,"SideOfStreet":"right","StateId":"20248595","CountyId":"20336836","CityId":"20337337","DistrictId":"20337338","AddressId":"763529272","RoadLinkId":"82581483"}}},{"Relevance":1.0,"Distance":55.2,"MatchLevel":"houseNumber","MatchQuality":{"Country":1.0,"State":1.0,"County":1.0,"City":1.0,"District":1.0,"Street":[1.0],"HouseNumber":1.0,"PostalCode":1.0},"MatchType":"interpolated","Location":{"LocationId":"NT_HNpGZitcwneEDdO5PyNr7B_3UD","LocationType":"point","DisplayPosition":{"Latitude":51.43189,"Longitude":0.10245},"MapView":{"TopLeft":{"Latitude":51.4330142,"Longitude":0.1006469},"BottomRight":{"Latitude":51.4307658,"Longitude":0.1042531}},"Address":{"Label":"75 Station Road, Sidcup, DA15 7DN, United Kingdom","Country":"GBR","State":"England","County":"Kent","City":"Sidcup","District":"Sidcup","Street":"Station Road","HouseNumber":"75","PostalCode":"DA15 7DN","AdditionalData":[{"value":"United Kingdom","key":"CountryName"},{"value":"England","key":"StateName"},{"value":"Kent","key":"CountyName"}]},"MapReference":{"ReferenceId":"25416996","Spot":0.14,"SideOfStreet":"left","StateId":"20248595","CountyId":"20336836","CityId":"20337337","DistrictId":"20337338","AddressId":"748875175","RoadLinkId":"82941957"}}},{"Relevance":1.0,"Distance":71.1,"MatchLevel":"houseNumber","MatchQuality":{"Country":1.0,"State":1.0,"County":1.0,"City":1.0,"District":1.0,"Street":[1.0],"HouseNumber":1.0,"PostalCode":1.0},"MatchType":"interpolated","Location":{"LocationId":"NT_z..Q0oaVukCTyKJjEvChbA_3AD","LocationType":"point","DisplayPosition":{"Latitude":51.43104,"Longitude":0.103},"MapView":{"TopLeft":{"Latitude":51.4321642,"Longitude":0.1011969},"BottomRight":{"Latitude":51.4299158,"Longitude":0.1048031}},"Address":{"Label":"70 Langford Place, Sidcup, DA14 4AZ, United Kingdom","Country":"GBR","State":"England","County":"Kent","City":"Sidcup","District":"Sidcup","Street":"Langford Place","HouseNumber":"70","PostalCode":"DA14 4AZ","AdditionalData":[{"value":"United Kingdom","key":"CountryName"},{"value":"England","key":"StateName"},{"value":"Kent","key":"CountyName"}]},"MapReference":{"ReferenceId":"25417699","Spot":0.98,"SideOfStreet":"left","StateId":"20248595","CountyId":"20336836","CityId":"20337337","DistrictId":"20337338","AddressId":"748926775","RoadLinkId":"82863748"}}},{"Relevance":1.0,"Distance":74.3,"MatchLevel":"houseNumber","MatchQuality":{"Country":1.0,"State":1.0,"County":1.0,"City":1.0,"District":1.0,"Street":[1.0],"HouseNumber":1.0,"PostalCode":1.0},"MatchType":"interpolated","Location":{"LocationId":"NT_ETvLBBTyLxbzgn-kSpyxuC_yA","LocationType":"point","DisplayPosition":{"Latitude":51.43078,"Longitude":0.1011},"MapView":{"TopLeft":{"Latitude":51.4319042,"Longitude":0.0992969},"BottomRight":{"Latitude":51.4296558,"Longitude":0.1029031}},"Address":{"Label":"2 Crescent Road, Sidcup, DA15 7HN, United Kingdom","Country":"GBR","State":"England","County":"Kent","City":"Sidcup","District":"Sidcup","Street":"Crescent Road","HouseNumber":"2","PostalCode":"DA15 7HN","AdditionalData":[{"value":"United Kingdom","key":"CountryName"},{"value":"England","key":"StateName"},{"value":"Kent","key":"CountyName"}]},"MapReference":{"ReferenceId":"25417405","Spot":0.74,"SideOfStreet":"left","StateId":"20248595","CountyId":"20336836","CityId":"20337337","DistrictId":"20337338","AddressId":"748929668","RoadLinkId":"82464595"}}}]}]}}