{"Response":{"MetaInfo":{"Timestamp":"2020-03-28T10:40:31.391+0000","NextPageInformation":"2"},"View":[{"_type":"SearchResultsViewType","ViewId":0,"Result":[{"Relevance":1.0,"Distance":0.0,"Direction":0.0,"MatchLevel":"district","MatchQuality":{"Country":1.0,"State":1.0,"County":1.0,"City":1.0,"District":1.0,"PostalCode":1.0},"Location":{"LocationId":"NT_ggdl.vJ9xEIu7Le34Q89zD","LocationType":"point","DisplayPosition":{"Latitude":51.4342205,"Longitude":0.4962152},"MapView":{"TopLeft":{"Latitude":51.43738,"Longitude":0.49202},"BottomRight":{"Latitude":51.42912,"Longitude":0.50675}},"Address":{"Label":"Cliffe Woods, Rochester, England, United Kingdom","Country":"GBR","State":"England","County":"Kent","City":"Rochester","District":"Cliffe Woods","PostalCode":"ME3 8","AdditionalData":[{"value":"United Kingdom","key":"CountryName"},{"value":"England","key":"StateName"},{"value":"Kent","key":"CountyName"}]},"MapReference":{"ReferenceId":"25624420","SideOfStreet":"neither","StateId":"20248595","CountyId":"20336836","CityId":"20337254","DistrictId":"20462667"}}},{"Relevance":1.0,"Distance":23.3,"MatchLevel":"street","MatchQuality":{"Country":1.0,"State":1.0,"County":1.0,"City":1.0,"District":1.0,"PostalCode":1.0},"Location":{"LocationId":"NT_0JxGmRVRlfTUF63HhhOxaA_l_25624378_L","LocationType":"point","DisplayPosition":{"Latitude":51.43441,"Longitude":0.49636},"MapView":{"TopLeft":{"Latitude":51.43501,"Longitude":0.49636},"BottomRight":{"Latitude":51.4343,"Longitude":0.49697}},"Address":{"Label":"Rochester, ME3 8, United Kingdom","Country":"GBR","State":"England","County":"Kent","City":"Rochester","District":"Cliffe Woods","PostalCode":"ME3 8","AdditionalData":[{"value":"United Kingdom","key":"CountryName"},{"value":"England","key":"StateName"},{"value":"Kent","key":"CountyName"}]},"MapReference":{"ReferenceId":"25624378","Spot":0.5,"SideOfStreet":"left","StateId":"20248595","CountyId":"20336836","CityId":"20337254","DistrictId":"20462667"}}},{"Relevance":1.0,"Distance":38.5,"MatchLevel":"postalCode","MatchQuality":{"PostalCode":1.0},"MatchType":"interpolated","Location":{"LocationId":"NT_ubg3Nynre2jSy4kRoZA5cA_l_25624455_L_xMD","LocationType":"point","DisplayPosition":{"Latitude":51.43429,"Longitude":0.49676},"MapView":{"TopLeft":{"Latitude":51.4432832,"Longitude":0.4823342},"BottomRight":{"Latitude":51.4252968,"Longitude":0.5111858}},"Address":{"Label":"ME3 8HX, Rochester, England, United Kingdom","Country":"GBR","State":"England","County":"Kent","City":"Rochester","PostalCode":"ME3 8HX","AdditionalData":[{"value":"United Kingdom","key":"CountryName"},{"value":"England","key":"StateName"},{"value":"Kent","key":"CountyName"}]},"MapReference":{"ReferenceId":"25624455","Spot":0.32,"SideOfStreet":"neither","StateId":"20248595","CountyId":"20336836","CityId":"20337254"}}},{"Relevance":1.0,"Distance":47.5,"MatchLevel":"houseNumber","MatchQuality":{"Country":1.0,"State":1.0,"County":1.0,"City":1.0,"District":1.0,"Street":[1.0],"HouseNumber":1.0,"PostalCode":1.0},"MatchType":"interpolated","Location":{"LocationId":"NT_RzAvMcTSLioyLBqZ-0JA5C_l_25624420_R_1YD","LocationType":"point","DisplayPosition":{"Latitude":51.4343583,"Longitude":0.495376},"MapView":{"TopLeft":{"Latitude":51.4354824,"Longitude":0.4935728},"BottomRight":{"Latitude":51.4332341,"Longitude":0.4971793}},"Address":{"Label":"56 Town Road, Rochester, ME3 8JJ, United Kingdom","Country":"GBR","State":"England","County":"Kent","City":"Rochester","District":"Cliffe Woods","Street":"Town Road","HouseNumber":"56","PostalCode":"ME3 8JJ","AdditionalData":[{"value":"United Kingdom","key":"CountryName"},{"value":"England","key":"StateName"},{"value":"Kent","key":"CountyName"}]},"MapReference":{"ReferenceId":"25624420","Spot":0.64,"SideOfStreet":"right","StateId":"20248595","CountyId":"20336836","CityId":"20337254","DistrictId":"20462667"}}},{"Relevance":1.0,"Distance":66.4,"MatchLevel":"postalCode","MatchQuality":{"PostalCode":1.0},"MatchType":"interpolated","Location":{"LocationId":"NT_RzAvMcTSLioyLBqZ-0JA5C_l_25624420_R_1YD","LocationType":"point","DisplayPosition":{"Latitude":51.43427,"Longitude":0.49526},"MapView":{"TopLeft":{"Latitude":51.4432632,"Longitude":0.4808342},"BottomRight":{"Latitude":51.4252768,"Longitude":0.5096858}},"Address":{"Label":"ME3 8JN, Rochester, England, United Kingdom","Country":"GBR","State":"England","County":"Kent","City":"Rochester","PostalCode":"ME3 8JN","AdditionalData":[{"value":"United Kingdom","key":"CountryName"},{"value":"England","key":"StateName"},{"value":"Kent","key":"CountyName"}]},"MapReference":{"ReferenceId":"25624420","Spot":0.64,"SideOfStreet":"neither","StateId":"20248595","CountyId":"20336836","CityId":"20337254"}}},{"Relevance":1.0,"Distance":68.5,"MatchLevel":"houseNumber","MatchQuality":{"Country":1.0,"State":1.0,"County":1.0,"City":1.0,"District":1.0,"Street":[1.0],"HouseNumber":1.0,"PostalCode":1.0},"MatchType":"interpolated","Location":{"LocationId":"NT_ubg3Nynre2jSy4kRoZA5cA_l_25624455_L_xMD","LocationType":"point","DisplayPosition":{"Latitude":51.4338618,"Longitude":0.4972575},"MapView":{"TopLeft":{"Latitude":51.434986,"Longitude":0.4954543},"BottomRight":{"Latitude":51.4327377,"Longitude":0.4990608}},"Address":{"Label":"13 Parkside, Rochester, ME3 8, United Kingdom","Country":"GBR","State":"England","County":"Kent","City":"Rochester","District":"Cliffe Woods","Street":"Parkside","HouseNumber":"13","PostalCode":"ME3 8","AdditionalData":[{"value":"United Kingdom","key":"CountryName"},{"value":"England","key":"StateName"},{"value":"Kent","key":"CountyName"}]},"MapReference":{"ReferenceId":"25624455","Spot":0.32,"SideOfStreet":"left","StateId":"20248595","CountyId":"20336836","CityId":"20337254","DistrictId":"20462667"}}},{"Relevance":1.0,"Distance":74.8,"MatchLevel":"street","MatchQuality":{"Country":1.0,"State":1.0,"County":1.0,"City":1.0,"District":1.0,"Street":[1.0],"PostalCode":1.0},"Location":{"LocationId":"NT_kHatWQS-4v2yxAA0SX505A_l_25624359_L","LocationType":"point","DisplayPosition":{"Latitude":51.43474,"Longitude":0.49553},"MapView":{"TopLeft":{"Latitude":51.43477,"Longitude":0.49311},"BottomRight":{"Latitude":51.43474,"Longitude":0.49553}},"Address":{"Label":"Mortimers Avenue, Rochester, ME3 8, United Kingdom","Country":"GBR","State":"England","County":"Kent","City":"Rochester","District":"Cliffe Woods","Street":"Mortimers Avenue","PostalCode":"ME3 8","AdditionalData":[{"value":"United Kingdom","key":"CountryName"},{"value":"England","key":"StateName"},{"value":"Kent","key":"CountyName"}]},"MapReference":{"ReferenceId":"25624359","Spot":0.0,"SideOfStreet":"left","StateId":"20248595","CountyId":"20336836","CityId":"20337254","DistrictId":"20462667"}}},{"Relevance":1.0,"Distance":77.7,"MatchLevel":"houseNumber","MatchQuality":{"Country":1.0,"State":1.0,"County":1.0,"City":1.0,"District":1.0,"Street":[1.0],"HouseNumber":1.0,"PostalCode":1.0},"MatchType":"interpolated","Location":{"LocationId":"NT_oQzNQJiM-Ndc1An1UgpxFA_l_25624339_L_yA","LocationType":"point","DisplayPosition":{"Latitude":51.434955,"Longitude":0.49681},"MapView":{"TopLeft":{"Latitude":51.4360792,"Longitude":0.4950067},"BottomRight":{"Latitude":51.4338309,"Longitude":0.4986132}},"Address":{"Label":"2 Milton Avenue, Rochester, ME3 8JS, United Kingdom","Country":"GBR","State":"England","County":"Kent","City":"Rochester","District":"Cliffe Woods","Street":"Milton Avenue","HouseNumber":"2","PostalCode":"ME3 8JS","AdditionalData":[{"value":"United Kingdom","key":"CountryName"},{"value":"England","key":"StateName"},{"value":"Kent","key":"CountyName"}]},"MapReference":{"ReferenceId":"25624339","Spot":0.63,"SideOfStreet":"left","StateId":"20248595","CountyId":"20336836","CityId":"20337254","DistrictId":"20462667"}}},{"Relevance":1.0,"Distance":79.9,"MatchLevel":"postalCode","MatchQuality":{"PostalCode":1.0},"MatchType":"interpolated","Location":{"LocationId":"NT_FDZBJelnG.RUmjh2OPgJbA_l_25624479_L_xQD","LocationType":"point","DisplayPosition":{"Latitude":51.43352,"Longitude":0.49647},"MapView":{"TopLeft":{"Latitude":51.4425132,"Longitude":0.4820444},"BottomRight":{"Latitude":51.4245268,"Longitude":0.5108956}},"Address":{"Label":"ME3 8JB, Rochester, England, United Kingdom","Country":"GBR","State":"England","County":"Kent","City":"Rochester","PostalCode":"ME3 8JB","AdditionalData":[{"value":"United Kingdom","key":"CountryName"},{"value":"England","key":"StateName"},{"value":"Kent","key":"CountyName"}]},"MapReference":{"ReferenceId":"25624479","Spot":0.76,"SideOfStreet":"neither","StateId":"20248595","CountyId":"20336836","CityId":"20337254"}}},{"Relevance":1.0,"Distance":81.0,"MatchLevel":"houseNumber","MatchQuality":{"Country":1.0,"State":1.0,"County":1.0,"City":1.0,"District":1.0,"Street":[1.0],"HouseNumber":1.0,"PostalCode":1.0},"MatchType":"interpolated","Location":{"LocationId":"NT_RzAvMcTSLioyLBqZ-0JA5C_l_25624358_R_1gD","LocationType":"point","DisplayPosition":{"Latitude":51.43487,"Longitude":0.49555},"MapView":{"TopLeft":{"Latitude":51.4359942,"Longitude":0.4937468},"BottomRight":{"Latitude":51.4337459,"Longitude":0.4973532}},"Address":{"Label":"58 Town Road, Rochester, ME3 8JJ, United Kingdom","Country":"GBR","State":"England","County":"Kent","City":"Rochester","District":"Cliffe Woods","Street":"Town Road","HouseNumber":"58","PostalCode":"ME3 8JJ","AdditionalData":[{"value":"United Kingdom","key":"CountryName"},{"value":"England","key":"StateName"},{"value":"Kent","key":"CountyName"}]},"MapReference":{"ReferenceId":"25624358","Spot":0.45,"SideOfStreet":"right","StateId":"20248595","CountyId":"20336836","CityId":"20337254","DistrictId":"20462667"}}}]}]}}