{"Response":{"MetaInfo":{"Timestamp":"2020-03-28T10:35:54.370+0000","NextPageInformation":"2"},"View":[{"_type":"SearchResultsViewType","ViewId":0,"Result":[{"Relevance":1.0,"Distance":0.0,"Direction":0.0,"MatchLevel":"district","MatchQuality":{"Country":1.0,"State":1.0,"County":1.0,"City":1.0,"District":1.0,"PostalCode":1.0},"Location":{"LocationId":"NT_H6YHD2zcNbXRUqzQRc-9dA","LocationType":"point","DisplayPosition":{"Latitude":51.4758657,"Longitude":-0.2828995},"MapView":{"TopLeft":{"Latitude":51.48329,"Longitude":-0.31898},"BottomRight":{"Latitude":51.42778,"Longitude":-0.26415}},"Address":{"Label":"Richmond, England, United Kingdom","Country":"GBR","State":"England","County":"Surrey","City":"Richmond","District":"Richmond","PostalCode":"TW9 1","AdditionalData":[{"value":"United Kingdom","key":"CountryName"},{"value":"England","key":"StateName"},{"value":"Surrey","key":"CountyName"}]},"MapReference":{"ReferenceId":"25493212","SideOfStreet":"neither","StateId":"20248595","CountyId":"20338357","CityId":"20338598","DistrictId":"20338599"}}},{"Relevance":1.0,"Distance":4.0,"MatchLevel":"houseNumber","MatchQuality":{"Country":1.0,"State":1.0,"County":1.0,"City":1.0,"District":1.0,"Street":[1.0],"HouseNumber":1.0,"PostalCode":1.0},"MatchType":"interpolated","Location":{"LocationId":"NT_sEsJav.XkEK3ihUEf.mD4D_xQD","LocationType":"point","DisplayPosition":{"Latitude":51.47565,"Longitude":-0.28299},"MapView":{"TopLeft":{"Latitude":51.4767742,"Longitude":-0.2847949},"BottomRight":{"Latitude":51.4745258,"Longitude":-0.2811851}},"Address":{"Label":"14 High Park Road, Richmond, TW9 4BH, United Kingdom","Country":"GBR","State":"England","County":"Surrey","City":"Richmond","District":"Richmond","Street":"High Park Road","HouseNumber":"14","PostalCode":"TW9 4BH","AdditionalData":[{"value":"United Kingdom","key":"CountryName"},{"value":"England","key":"StateName"},{"value":"Surrey","key":"CountyName"}]},"MapReference":{"ReferenceId":"25408112","Spot":0.48,"SideOfStreet":"right","StateId":"20248595","CountyId":"20338357","CityId":"20338598","DistrictId":"20338599","AddressId":"749369496","RoadLinkId":"82494971"}}},{"Relevance":1.0,"Distance":25.7,"MatchLevel":"postalCode","MatchQuality":{"PostalCode":1.0},"MatchType":"interpolated","Location":{"LocationId":"NT_sEsJav.XkEK3ihUEf.mD4D_xQD","LocationType":"point","DisplayPosition":{"Latitude":51.47575,"Longitude":-0.28322},"MapView":{"TopLeft":{"Latitude":51.4847432,"Longitude":-0.2976589},"BottomRight":{"Latitude":51.4667568,"Longitude":-0.2687811}},"Address":{"Label":"TW9 4BH, Richmond, England, United Kingdom","Country":"GBR","State":"England","County":"Surrey","City":"Richmond","PostalCode":"TW9 4BH","AdditionalData":[{"value":"United Kingdom","key":"CountryName"},{"value":"England","key":"StateName"},{"value":"Surrey","key":"CountyName"}]},"MapReference":{"ReferenceId":"25408112","Spot":0.48,"SideOfStreet":"neither","StateId":"20248595","CountyId":"20338357","CityId":"20338598"}}},{"Relevance":1.0,"Distance":43.6,"MatchLevel":"houseNumber","MatchQuality":{"Country":1.0,"State":1.0,"County":1.0,"City":1.0,"District":1.0,"Street":[1.0],"PostalCode":1.0},"MatchType":"interpolated","Location":{"LocationId":"NT_3TTf3ml1ZI-VI5GGqUWpyB","LocationType":"point","DisplayPosition":{"Latitude":51.47546,"Longitude":-0.28247},"MapView":{"TopLeft":{"Latitude":51.4765842,"Longitude":-0.2842749},"BottomRight":{"Latitude":51.4743358,"Longitude":-0.2806651}},"Address":{"Label":"Pensford Avenue, Richmond, TW9 4, United Kingdom","Country":"GBR","State":"England","County":"Surrey","City":"Richmond","District":"Richmond","Street":"Pensford Avenue","PostalCode":"TW9 4","AdditionalData":[{"value":"United Kingdom","key":"CountryName"},{"value":"England","key":"StateName"},{"value":"Surrey","key":"CountyName"}],"Building":"Stoke House"},"MapReference":{"ReferenceId":"25408149","Spot":0.92,"SideOfStreet":"left","StateId":"20248595","CountyId":"20338357","CityId":"20338598","DistrictId":"20338599","AddressId":"763525897","RoadLinkId":"82699058"}}},{"Relevance":1.0,"Distance":44.2,"MatchLevel":"houseNumber","MatchQuality":{"Country":1.0,"State":1.0,"County":1.0,"City":1.0,"District":1.0,"Street":[1.0],"HouseNumber":1.0,"PostalCode":1.0},"MatchType":"interpolated","Location":{"LocationId":"NT_sEsJav.XkEK3ihUEf.mD4D_yQD","LocationType":"point","DisplayPosition":{"Latitude":51.47577,"Longitude":-0.2836},"MapView":{"TopLeft":{"Latitude":51.4768942,"Longitude":-0.2854049},"BottomRight":{"Latitude":51.4746458,"Longitude":-0.2817951}},"Address":{"Label":"24 High Park Road, Richmond, TW9 4BH, United Kingdom","Country":"GBR","State":"England","County":"Surrey","City":"Richmond","District":"Richmond","Street":"High Park Road","HouseNumber":"24","PostalCode":"TW9 4BH","AdditionalData":[{"value":"United Kingdom","key":"CountryName"},{"value":"England","key":"StateName"},{"value":"Surrey","key":"CountyName"}]},"MapReference":{"ReferenceId":"966228494","Spot":0.01,"SideOfStreet":"right","StateId":"20248595","CountyId":"20338357","CityId":"20338598","DistrictId":"20338599","AddressId":"749151272","RoadLinkId":"304584622"}}},{"Relevance":1.0,"Distance":45.5,"MatchLevel":"houseNumber","MatchQuality":{"Country":1.0,"State":1.0,"County":1.0,"City":1.0,"District":1.0,"Street":[1.0],"HouseNumber":1.0,"PostalCode":1.0},"MatchType":"interpolated","Location":{"LocationId":"NT_DxIG0.wA3lI7pECiSMlHVA_xYD","LocationType":"point","DisplayPosition":{"Latitude":51.47639,"Longitude":-0.28274},"MapView":{"TopLeft":{"Latitude":51.4775142,"Longitude":-0.2845449},"BottomRight":{"Latitude":51.4752658,"Longitude":-0.2809351}},"Address":{"Label":"16 West Park Road, Richmond, TW9 4DA, United Kingdom","Country":"GBR","State":"England","County":"Surrey","City":"Richmond","District":"Richmond","Street":"West Park Road","HouseNumber":"16","PostalCode":"TW9 4DA","AdditionalData":[{"value":"United Kingdom","key":"CountryName"},{"value":"England","key":"StateName"},{"value":"Surrey","key":"CountyName"}]},"MapReference":{"ReferenceId":"25408089","Spot":0.7,"SideOfStreet":"left","StateId":"20248595","CountyId":"20338357","CityId":"20338598","DistrictId":"20338599","AddressId":"749366839","RoadLinkId":"82416705"}}},{"Relevance":1.0,"Distance":54.7,"MatchLevel":"postalCode","MatchQuality":{"PostalCode":1.0},"MatchType":"interpolated","Location":{"LocationId":"NT_R3yegdmHwL.9kSSb.Tt7DC_xA","LocationType":"point","DisplayPosition":{"Latitude":51.47565,"Longitude":-0.28361},"MapView":{"TopLeft":{"Latitude":51.4846432,"Longitude":-0.2980489},"BottomRight":{"Latitude":51.4666568,"Longitude":-0.2691711}},"Address":{"Label":"TW9 4BN, Richmond, England, United Kingdom","Country":"GBR","State":"England","County":"Surrey","City":"Richmond","PostalCode":"TW9 4BN","AdditionalData":[{"value":"United Kingdom","key":"CountryName"},{"value":"England","key":"StateName"},{"value":"Surrey","key":"CountyName"}]},"MapReference":{"ReferenceId":"25459744","Spot":0.07,"SideOfStreet":"neither","StateId":"20248595","CountyId":"20338357","CityId":"20338598"}}},{"Relevance":1.0,"Distance":54.9,"MatchLevel":"houseNumber","MatchQuality":{"Country":1.0,"State":1.0,"County":1.0,"City":1.0,"District":1.0,"Street":[1.0],"HouseNumber":1.0,"PostalCode":1.0},"MatchType":"interpolated","Location":{"LocationId":"NT_sEsJav.XkEK3ihUEf.mD4D_yA","LocationType":"point","DisplayPosition":{"Latitude":51.47551,"Longitude":-0.28235},"MapView":{"TopLeft":{"Latitude":51.4766342,"Longitude":-0.2841549},"BottomRight":{"Latitude":51.4743858,"Longitude":-0.2805451}},"Address":{"Label":"2 High Park Road, Richmond, TW9 4BH, United Kingdom","Country":"GBR","State":"England","County":"Surrey","City":"Richmond","District":"Richmond","Street":"High Park Road","HouseNumber":"2","PostalCode":"TW9 4BH","AdditionalData":[{"value":"United Kingdom","key":"CountryName"},{"value":"England","key":"StateName"},{"value":"Surrey","key":"CountyName"}]},"MapReference":{"ReferenceId":"25408127","Spot":0.95,"SideOfStreet":"right","StateId":"20248595","CountyId":"20338357","CityId":"20338598","DistrictId":"20338599","AddressId":"749333041","RoadLinkId":"82297609"}}},{"Relevance":1.0,"Distance":56.6,"MatchLevel":"houseNumber","MatchQuality":{"Country":1.0,"State":1.0,"County":1.0,"City":1.0,"District":1.0,"Street":[1.0],"HouseNumber":1.0,"PostalCode":1.0},"MatchType":"interpolated","Location":{"LocationId":"NT_R3yegdmHwL.9kSSb.Tt7DC_xA","LocationType":"point","DisplayPosition":{"Latitude":51.47568,"Longitude":-0.28366},"MapView":{"TopLeft":{"Latitude":51.4768042,"Longitude":-0.2854649},"BottomRight":{"Latitude":51.4745558,"Longitude":-0.2818551}},"Address":{"Label":"1 High Park Avenue, Richmond, TW9 4BN, United Kingdom","Country":"GBR","State":"England","County":"Surrey","City":"Richmond","District":"Richmond","Street":"High Park Avenue","HouseNumber":"1","PostalCode":"TW9 4BN","AdditionalData":[{"value":"United Kingdom","key":"CountryName"},{"value":"England","key":"StateName"},{"value":"Surrey","key":"CountyName"}]},"MapReference":{"ReferenceId":"25459744","Spot":0.07,"SideOfStreet":"left","StateId":"20248595","CountyId":"20338357","CityId":"20338598","DistrictId":"20338599","AddressId":"749179371","RoadLinkId":"82908346"}}},{"Relevance":1.0,"Distance":63.8,"MatchLevel":"houseNumber","MatchQuality":{"Country":1.0,"State":1.0,"County":1.0,"City":1.0,"District":1.0,"Street":[1.0],"HouseNumber":1.0,"PostalCode":1.0},"MatchType":"interpolated","Location":{"LocationId":"NT_DxIG0.wA3lI7pECiSMlHVA_yQD","LocationType":"point","DisplayPosition":{"Latitude":51.47649,"Longitude":-0.28328},"MapView":{"TopLeft":{"Latitude":51.4776142,"Longitude":-0.2850849},"BottomRight":{"Latitude":51.4753658,"Longitude":-0.2814751}},"Address":{"Label":"24 West Park Road, Richmond, TW9 4DA, United Kingdom","Country":"GBR","State":"England","County":"Surrey","City":"Richmond","District":"Richmond","Street":"West Park Road","HouseNumber":"24","PostalCode":"TW9 4DA","AdditionalData":[{"value":"United Kingdom","key":"CountryName"},{"value":"England","key":"StateName"},{"value":"Surrey","key":"CountyName"}]},"MapReference":{"ReferenceId":"25408082","Spot":0.06,"SideOfStreet":"left","StateId":"20248595","CountyId":"20338357","CityId":"20338598","DistrictId":"20338599","AddressId":"749307133","RoadLinkId":"82602044"}}}]}]}}