{"Response":{"MetaInfo":{"Timestamp":"2020-03-28T10:38:00.518+0000","NextPageInformation":"2"},"View":[{"_type":"SearchResultsViewType","ViewId":0,"Result":[{"Relevance":1.0,"Distance":0.0,"Direction":0.0,"MatchLevel":"district","MatchQuality":{"Country":1.0,"State":1.0,"County":1.0,"City":1.0,"District":1.0,"PostalCode":1.0},"Location":{"LocationId":"NT_9Xo.dQzbymtD9bIxqpadMC","LocationType":"point","DisplayPosition":{"Latitude":51.4281232,"Longitude":-0.0863785},"MapView":{"TopLeft":{"Latitude":51.44097,"Longitude":-0.116},"BottomRight":{"Latitude":51.42258,"Longitude":-0.0861}},"Address":{"Label":"West Norwood, London, England, United Kingdom","Country":"GBR","State":"England","County":"London","City":"London","District":"West Norwood","PostalCode":"SE27 9","AdditionalData":[{"value":"United Kingdom","key":"CountryName"},{"value":"England","key":"StateName"},{"value":"London","key":"CountyName"}]},"MapReference":{"ReferenceId":"25417586","SideOfStreet":"neither","StateId":"20248595","CountyId":"20337453","CityId":"20337454"}}},{"Relevance":1.0,"Distance":22.0,"MatchLevel":"houseNumber","MatchQuality":{"Country":1.0,"State":1.0,"County":1.0,"City":1.0,"District":1.0,"Street":[1.0],"HouseNumber":1.0,"PostalCode":1.0},"MatchType":"interpolated","Location":{"LocationId":"NT_O9tf-HX.XTvgLwnq6BC-FC_l_25490625_L_yUTN","LocationType":"point","DisplayPosition":{"Latitude":51.4277974,"Longitude":-0.0862674},"MapView":{"TopLeft":{"Latitude":51.4289215,"Longitude":-0.0880704},"BottomRight":{"Latitude":51.4266732,"Longitude":-0.0844645}},"Address":{"Label":"255 Gipsy Road, London, SE19 1, United Kingdom","Country":"GBR","State":"England","County":"London","City":"London","District":"West Norwood","Street":"Gipsy Road","HouseNumber":"255","PostalCode":"SE19 1","AdditionalData":[{"value":"United Kingdom","key":"CountryName"},{"value":"England","key":"StateName"},{"value":"London","key":"CountyName"}]},"MapReference":{"ReferenceId":"25490625","Spot":0.52,"SideOfStreet":"left","StateId":"20248595","CountyId":"20337453","CityId":"20337454"}}},{"Relevance":1.0,"Distance":31.1,"MatchLevel":"houseNumber","MatchQuality":{"Country":1.0,"State":1.0,"County":1.0,"City":1.0,"District":1.0,"Street":[1.0],"HouseNumber":1.0,"PostalCode":1.0},"MatchType":"interpolated","Location":{"LocationId":"NT_YjhuBrUQsR14M8diM6AL9B_yEG","LocationType":"point","DisplayPosition":{"Latitude":51.42785,"Longitude":-0.08663},"MapView":{"TopLeft":{"Latitude":51.4289742,"Longitude":-0.088433},"BottomRight":{"Latitude":51.4267258,"Longitude":-0.084827}},"Address":{"Label":"2a Paxton Place, London, SE27 9, United Kingdom","Country":"GBR","State":"England","County":"London","City":"London","District":"West Norwood","Street":"Paxton Place","HouseNumber":"2a","PostalCode":"SE27 9","AdditionalData":[{"value":"United Kingdom","key":"CountryName"},{"value":"England","key":"StateName"},{"value":"London","key":"CountyName"}]},"MapReference":{"ReferenceId":"25419404","Spot":0.12,"SideOfStreet":"right","StateId":"20248595","CountyId":"20337453","CityId":"20337454","AddressId":"747496310","RoadLinkId":"82965717"}}},{"Relevance":1.0,"Distance":36.0,"MatchLevel":"street","MatchQuality":{"Country":1.0,"State":1.0,"County":1.0,"City":1.0,"District":1.0,"Street":[1.0],"PostalCode":1.0},"Location":{"LocationId":"NT_mUvj2vEGyixhNLYQ7biYmA_l_25490607_L","LocationType":"point","DisplayPosition":{"Latitude":51.42785,"Longitude":-0.0861},"MapView":{"TopLeft":{"Latitude":51.42801,"Longitude":-0.0861},"BottomRight":{"Latitude":51.42785,"Longitude":-0.08574}},"Address":{"Label":"Gipsy Road, London, SE19 1, United Kingdom","Country":"GBR","State":"England","County":"London","City":"London","District":"Dulwich","Street":"Gipsy Road","PostalCode":"SE19 1","AdditionalData":[{"value":"United Kingdom","key":"CountryName"},{"value":"England","key":"StateName"},{"value":"London","key":"CountyName"}]},"MapReference":{"ReferenceId":"25490607","Spot":0.0,"SideOfStreet":"left","StateId":"20248595","CountyId":"20337453","CityId":"20337454"}}},{"Relevance":1.0,"Distance":41.5,"MatchLevel":"street","MatchQuality":{"Country":1.0,"State":1.0,"County":1.0,"City":1.0,"District":1.0,"PostalCode":1.0},"Location":{"LocationId":"NT_Xa2zm06Pd1VN0NSmmQs1TB_l_25419372_L","LocationType":"point","DisplayPosition":{"Latitude":51.42812,"Longitude":-0.08578},"MapView":{"TopLeft":{"Latitude":51.42815,"Longitude":-0.08578},"BottomRight":{"Latitude":51.42801,"Longitude":-0.08574}},"Address":{"Label":"London, SE19 1, United Kingdom","Country":"GBR","State":"England","County":"London","City":"London","District":"Dulwich","PostalCode":"SE19 1","AdditionalData":[{"value":"United Kingdom","key":"CountryName"},{"value":"England","key":"StateName"},{"value":"London","key":"CountyName"}]},"MapReference":{"ReferenceId":"25419372","Spot":0.79,"SideOfStreet":"left","StateId":"20248595","CountyId":"20337453","CityId":"20337454"}}},{"Relevance":1.0,"Distance":44.2,"MatchLevel":"houseNumber","MatchQuality":{"Country":1.0,"State":1.0,"County":1.0,"City":1.0,"District":1.0,"Street":[1.0],"HouseNumber":1.0,"PostalCode":1.0},"MatchType":"interpolated","Location":{"LocationId":"NT_QdbodwCvdd88nAPZyFM5-A_yQTO","LocationType":"point","DisplayPosition":{"Latitude":51.42767,"Longitude":-0.08665},"MapView":{"TopLeft":{"Latitude":51.4287942,"Longitude":-0.088453},"BottomRight":{"Latitude":51.4265458,"Longitude":-0.084847}},"Address":{"Label":"249 Gipsy Road, London, SE27 9QY, United Kingdom","Country":"GBR","State":"England","County":"London","City":"London","District":"West Norwood","Street":"Gipsy Road","HouseNumber":"249","PostalCode":"SE27 9QY","AdditionalData":[{"value":"United Kingdom","key":"CountryName"},{"value":"England","key":"StateName"},{"value":"London","key":"CountyName"}]},"MapReference":{"ReferenceId":"1166008865","Spot":0.76,"SideOfStreet":"left","StateId":"20248595","CountyId":"20337453","CityId":"20337454","AddressId":"748460058","RoadLinkId":"472515421"}}},{"Relevance":1.0,"Distance":45.5,"MatchLevel":"street","MatchQuality":{"Country":1.0,"State":1.0,"County":1.0,"City":1.0,"District":1.0,"Street":[1.0],"PostalCode":1.0},"Location":{"LocationId":"NT_f94cdF9b70iusqpzQkzEAA_l_1209436914_L","LocationType":"point","DisplayPosition":{"Latitude":51.4283549,"Longitude":-0.0858378},"MapView":{"TopLeft":{"Latitude":51.42836,"Longitude":-0.08584},"BottomRight":{"Latitude":51.42815,"Longitude":-0.08577}},"Address":{"Label":"South Croxted Road, London, SE21 8, United Kingdom","Country":"GBR","State":"England","County":"London","City":"London","District":"Dulwich","Street":"South Croxted Road","PostalCode":"SE21 8","AdditionalData":[{"value":"United Kingdom","key":"CountryName"},{"value":"England","key":"StateName"},{"value":"London","key":"CountyName"}]},"MapReference":{"ReferenceId":"1209436914","Spot":0.98,"SideOfStreet":"left","StateId":"20248595","CountyId":"20337453","CityId":"20337454"}}},{"Relevance":1.0,"Distance":45.7,"MatchLevel":"street","MatchQuality":{"Country":1.0,"State":1.0,"County":1.0,"City":1.0,"District":1.0,"Street":[1.0],"PostalCode":1.0},"Location":{"LocationId":"NT_f94cdF9b70iusqpzQkzEAA_l_1209436915_L","LocationType":"point","DisplayPosition":{"Latitude":51.42836,"Longitude":-0.08584},"MapView":{"TopLeft":{"Latitude":51.42844,"Longitude":-0.08585},"BottomRight":{"Latitude":51.42836,"Longitude":-0.08584}},"Address":{"Label":"South Croxted Road, London, SE21 8, United Kingdom","Country":"GBR","State":"England","County":"London","City":"London","District":"Dulwich","Street":"South Croxted Road","PostalCode":"SE21 8","AdditionalData":[{"value":"United Kingdom","key":"CountryName"},{"value":"England","key":"StateName"},{"value":"London","key":"CountyName"}]},"MapReference":{"ReferenceId":"1209436915","Spot":0.0,"SideOfStreet":"left","StateId":"20248595","CountyId":"20337453","CityId":"20337454"}}},{"Relevance":1.0,"Distance":51.5,"MatchLevel":"postalCode","MatchQuality":{"PostalCode":1.0},"MatchType":"interpolated","Location":{"LocationId":"NT_YjhuBrUQsR14M8diM6AL9B_yEG","LocationType":"point","DisplayPosition":{"Latitude":51.42809,"Longitude":-0.08712},"MapView":{"TopLeft":{"Latitude":51.4370832,"Longitude":-0.1015438},"BottomRight":{"Latitude":51.4190968,"Longitude":-0.0726962}},"Address":{"Label":"SE27 9SS, London, England, United Kingdom","Country":"GBR","State":"England","County":"London","City":"London","PostalCode":"SE27 9SS","AdditionalData":[{"value":"United Kingdom","key":"CountryName"},{"value":"England","key":"StateName"},{"value":"London","key":"CountyName"}]},"MapReference":{"ReferenceId":"25419404","Spot":0.12,"SideOfStreet":"neither","StateId":"20248595","CountyId":"20337453","CityId":"20337454"}}},{"Relevance":1.0,"Distance":51.7,"MatchLevel":"street","MatchQuality":{"Country":1.0,"State":1.0,"County":1.0,"City":1.0,"District":1.0,"Street":[1.0],"PostalCode":1.0},"Location":{"LocationId":"NT_f94cdF9b70iusqpzQkzEAA_l_1209436920_L","LocationType":"point","DisplayPosition":{"Latitude":51.42849,"Longitude":-0.08592},"MapView":{"TopLeft":{"Latitude":51.42849,"Longitude":-0.08592},"BottomRight":{"Latitude":51.42844,"Longitude":-0.08585}},"Address":{"Label":"South Croxted Road, London, SE21 8, United Kingdom","Country":"GBR","State":"England","County":"London","City":"London","District":"Dulwich","Street":"South Croxted Road","PostalCode":"SE21 8","AdditionalData":[{"value":"United Kingdom","key":"CountryName"},{"value":"England","key":"StateName"},{"value":"London","key":"CountyName"}]},"MapReference":{"ReferenceId":"1209436920","Spot":1.0,"SideOfStreet":"left","StateId":"20248595","CountyId":"20337453","CityId":"20337454"}}}]}]}}