{"Response":{"MetaInfo":{"Timestamp":"2020-03-28T10:10:02.849+0000","NextPageInformation":"2"},"View":[{"_type":"SearchResultsViewType","ViewId":0,"Result":[{"Relevance":1.0,"Distance":0.0,"Direction":0.0,"MatchLevel":"district","MatchQuality":{"Country":1.0,"State":1.0,"County":1.0,"City":1.0,"District":1.0,"PostalCode":1.0},"Location":{"LocationId":"NT_A3TL.HzIvxEqiUVGHY2RkC","LocationType":"point","DisplayPosition":{"Latitude":51.4662876,"Longitude":-2.5808579},"MapView":{"TopLeft":{"Latitude":51.47533,"Longitude":-2.59295},"BottomRight":{"Latitude":51.46516,"Longitude":-2.5793}},"Address":{"Label":"St Andrews, Bristol, England, United Kingdom","Country":"GBR","State":"England","County":"Avon","City":"Bristol","District":"St Andrews","PostalCode":"BS6 5","AdditionalData":[{"value":"United Kingdom","key":"CountryName"},{"value":"England","key":"StateName"},{"value":"Avon","key":"CountyName"}]},"MapReference":{"ReferenceId":"26723633","SideOfStreet":"neither","StateId":"20248595","CountyId":"20352323","CityId":"20352420","DistrictId":"20352549"}}},{"Relevance":1.0,"Distance":18.1,"MatchLevel":"houseNumber","MatchQuality":{"Country":1.0,"State":1.0,"County":1.0,"City":1.0,"District":1.0,"Street":[1.0],"HouseNumber":1.0,"PostalCode":1.0},"MatchType":"interpolated","Location":{"LocationId":"NT_ynfmkH9WMQr8Ixdat0Hw.A_l_1212023709_L_xUzM","LocationType":"point","DisplayPosition":{"Latitude":51.4660133,"Longitude":-2.58068},"MapView":{"TopLeft":{"Latitude":51.4671375,"Longitude":-2.5824845},"BottomRight":{"Latitude":51.4648892,"Longitude":-2.5788755}},"Address":{"Label":"153 Ashley Road, Bristol, BS6 5, United Kingdom","Country":"GBR","State":"England","County":"Avon","City":"Bristol","District":"St Andrews","Street":"Ashley Road","HouseNumber":"153","PostalCode":"BS6 5","AdditionalData":[{"value":"United Kingdom","key":"CountryName"},{"value":"England","key":"StateName"},{"value":"Avon","key":"CountyName"}]},"MapReference":{"ReferenceId":"1212023709","Spot":0.67,"SideOfStreet":"left","StateId":"20248595","CountyId":"20352323","CityId":"20352420","DistrictId":"20352549"}}},{"Relevance":1.0,"Distance":22.4,"MatchLevel":"street","MatchQuality":{"Country":1.0,"State":1.0,"County":1.0,"City":1.0,"District":1.0,"PostalCode":1.0},"Location":{"LocationId":"NT_Ye6AG1QgGZS7Pd.BIKn2dC_l_881303726_R","LocationType":"point","DisplayPosition":{"Latitude":51.46644,"Longitude":-2.58107},"MapView":{"TopLeft":{"Latitude":51.46644,"Longitude":-2.58189},"BottomRight":{"Latitude":51.46631,"Longitude":-2.58107}},"Address":{"Label":"Bristol, BS6 5, United Kingdom","Country":"GBR","State":"England","County":"Avon","City":"Bristol","District":"Montpelier","PostalCode":"BS6 5","AdditionalData":[{"value":"United Kingdom","key":"CountryName"},{"value":"England","key":"StateName"},{"value":"Avon","key":"CountyName"}]},"MapReference":{"ReferenceId":"881303726","Spot":1.0,"SideOfStreet":"right","StateId":"20248595","CountyId":"20352323","CityId":"20352420","DistrictId":"20352515"}}},{"Relevance":1.0,"Distance":24.5,"MatchLevel":"houseNumber","MatchQuality":{"Country":1.0,"State":1.0,"County":1.0,"City":1.0,"District":1.0,"Street":[1.0],"HouseNumber":1.0,"PostalCode":1.0},"MatchType":"interpolated","Location":{"LocationId":"NT_leFRokwIhauvV--UYJ61GC_l_1197794083_L_xUTN","LocationType":"point","DisplayPosition":{"Latitude":51.4661,"Longitude":-2.58046},"MapView":{"TopLeft":{"Latitude":51.4672242,"Longitude":-2.5822645},"BottomRight":{"Latitude":51.4649759,"Longitude":-2.5786555}},"Address":{"Label":"155 Ashley Road, Bristol, BS6 5NX, United Kingdom","Country":"GBR","State":"England","County":"Avon","City":"Bristol","District":"St Andrews","Street":"Ashley Road","HouseNumber":"155","PostalCode":"BS6 5NX","AdditionalData":[{"value":"United Kingdom","key":"CountryName"},{"value":"England","key":"StateName"},{"value":"Avon","key":"CountyName"}]},"MapReference":{"ReferenceId":"1197794083","Spot":0.42,"SideOfStreet":"left","StateId":"20248595","CountyId":"20352323","CityId":"20352420","DistrictId":"20352549"}}},{"Relevance":1.0,"Distance":26.8,"MatchLevel":"postalCode","MatchQuality":{"PostalCode":1.0},"MatchType":"interpolated","Location":{"LocationId":"NT_leFRokwIhauvV--UYJ61GC_l_1197794083_L_xUTN","LocationType":"point","DisplayPosition":{"Latitude":51.46608,"Longitude":-2.58066},"MapView":{"TopLeft":{"Latitude":51.4750732,"Longitude":-2.5950959},"BottomRight":{"Latitude":51.4570868,"Longitude":-2.5662241}},"Address":{"Label":"BS6 5NW, Bristol, England, United Kingdom","Country":"GBR","State":"England","County":"Avon","City":"Bristol","PostalCode":"BS6 5NW","AdditionalData":[{"value":"United Kingdom","key":"CountryName"},{"value":"England","key":"StateName"},{"value":"Avon","key":"CountyName"}]},"MapReference":{"ReferenceId":"1197794083","Spot":0.42,"SideOfStreet":"neither","StateId":"20248595","CountyId":"20352323","CityId":"20352420"}}},{"Relevance":1.0,"Distance":31.3,"MatchLevel":"houseNumber","MatchQuality":{"Country":1.0,"State":1.0,"County":1.0,"City":1.0,"District":1.0,"Street":[1.0],"HouseNumber":1.0,"PostalCode":1.0},"MatchType":"interpolated","Location":{"LocationId":"NT_ynfmkH9WMQr8Ixdat0Hw.A_l_1212023708_L_xQzN","LocationType":"point","DisplayPosition":{"Latitude":51.4658948,"Longitude":-2.5809868},"MapView":{"TopLeft":{"Latitude":51.4670189,"Longitude":-2.5827913},"BottomRight":{"Latitude":51.4647706,"Longitude":-2.5791823}},"Address":{"Label":"147 Ashley Road, Bristol, BS6 5, United Kingdom","Country":"GBR","State":"England","County":"Avon","City":"Bristol","District":"St Andrews","Street":"Ashley Road","HouseNumber":"147","PostalCode":"BS6 5","AdditionalData":[{"value":"United Kingdom","key":"CountryName"},{"value":"England","key":"StateName"},{"value":"Avon","key":"CountyName"}]},"MapReference":{"ReferenceId":"1212023708","Spot":0.73,"SideOfStreet":"left","StateId":"20248595","CountyId":"20352323","CityId":"20352420","DistrictId":"20352549"}}},{"Relevance":1.0,"Distance":45.1,"MatchLevel":"postalCode","MatchQuality":{"PostalCode":1.0},"Location":{"LocationId":"NT_I0d.-x3HPfy1N9ohmnUWtC_l_26723926_L","LocationType":"point","DisplayPosition":{"Latitude":51.46657,"Longitude":-2.58039},"MapView":{"TopLeft":{"Latitude":51.4755632,"Longitude":-2.594826},"BottomRight":{"Latitude":51.4575768,"Longitude":-2.565954}},"Address":{"Label":"BS6 5BF, Bristol, England, United Kingdom","Country":"GBR","State":"England","County":"Avon","City":"Bristol","PostalCode":"BS6 5BF","AdditionalData":[{"value":"United Kingdom","key":"CountryName"},{"value":"England","key":"StateName"},{"value":"Avon","key":"CountyName"}]},"MapReference":{"ReferenceId":"26723926","Spot":1.0,"SideOfStreet":"neither","StateId":"20248595","CountyId":"20352323","CityId":"20352420"}}},{"Relevance":1.0,"Distance":49.4,"MatchLevel":"houseNumber","MatchQuality":{"Country":1.0,"State":1.0,"County":1.0,"City":1.0,"District":1.0,"Street":[1.0],"HouseNumber":1.0,"PostalCode":1.0},"MatchType":"interpolated","Location":{"LocationId":"NT_ynfmkH9WMQr8Ixdat0Hw.A_l_1197794084_L_xUTO","LocationType":"point","DisplayPosition":{"Latitude":51.4662556,"Longitude":-2.5801086},"MapView":{"TopLeft":{"Latitude":51.4673797,"Longitude":-2.5819131},"BottomRight":{"Latitude":51.4651314,"Longitude":-2.5783041}},"Address":{"Label":"159 Ashley Road, Bristol, BS6 5NX, United Kingdom","Country":"GBR","State":"England","County":"Avon","City":"Bristol","District":"St Andrews","Street":"Ashley Road","HouseNumber":"159","PostalCode":"BS6 5NX","AdditionalData":[{"value":"United Kingdom","key":"CountryName"},{"value":"England","key":"StateName"},{"value":"Avon","key":"CountyName"}]},"MapReference":{"ReferenceId":"1197794084","Spot":0.51,"SideOfStreet":"left","StateId":"20248595","CountyId":"20352323","CityId":"20352420","DistrictId":"20352549"}}},{"Relevance":1.0,"Distance":50.5,"MatchLevel":"houseNumber","MatchQuality":{"Country":1.0,"State":1.0,"County":1.0,"City":1.0,"District":1.0,"Street":[1.0],"HouseNumber":1.0,"PostalCode":1.0},"MatchType":"interpolated","Location":{"LocationId":"NT_pDKdeeqvMisRSHYDSqJhsA_l_26724119_R_xQjN","LocationType":"point","DisplayPosition":{"Latitude":51.4658393,"Longitude":-2.5807437},"MapView":{"TopLeft":{"Latitude":51.4669635,"Longitude":-2.5825482},"BottomRight":{"Latitude":51.4647152,"Longitude":-2.5789393}},"Address":{"Label":"146 Grosvenor Road, Bristol, BS2 8YA, United Kingdom","Country":"GBR","State":"England","County":"Avon","City":"Bristol","District":"St Pauls","Street":"Grosvenor Road","HouseNumber":"146","PostalCode":"BS2 8YA","AdditionalData":[{"value":"United Kingdom","key":"CountryName"},{"value":"England","key":"StateName"},{"value":"Avon","key":"CountyName"}]},"MapReference":{"ReferenceId":"26724119","Spot":0.72,"SideOfStreet":"right","StateId":"20248595","CountyId":"20352323","CityId":"20352420","DistrictId":"20352555"}}},{"Relevance":1.0,"Distance":51.4,"MatchLevel":"houseNumber","MatchQuality":{"Country":1.0,"State":1.0,"County":1.0,"City":1.0,"District":1.0,"Street":[1.0],"HouseNumber":1.0,"PostalCode":1.0},"MatchType":"interpolated","Location":{"LocationId":"NT_49hYQuMapiyKxudHs9PLxD_l_26723850_R_xAD","LocationType":"point","DisplayPosition":{"Latitude":51.4666697,"Longitude":-2.5815049},"MapView":{"TopLeft":{"Latitude":51.4677939,"Longitude":-2.5833094},"BottomRight":{"Latitude":51.4655456,"Longitude":-2.5797004}},"Address":{"Label":"10 East Grove, Bristol, BS6 5LP, United Kingdom","Country":"GBR","State":"England","County":"Avon","City":"Bristol","District":"St Andrews","Street":"East Grove","HouseNumber":"10","PostalCode":"BS6 5LP","AdditionalData":[{"value":"United Kingdom","key":"CountryName"},{"value":"England","key":"StateName"},{"value":"Avon","key":"CountyName"}]},"MapReference":{"ReferenceId":"26723850","Spot":0.69,"SideOfStreet":"right","StateId":"20248595","CountyId":"20352323","CityId":"20352420","DistrictId":"20352549"}}}]}]}}