{"Response":{"MetaInfo":{"Timestamp":"2020-03-28T11:59:06.146+0000","NextPageInformation":"2"},"View":[{"_type":"SearchResultsViewType","ViewId":0,"Result":[{"Relevance":1.0,"Distance":0.0,"Direction":0.0,"MatchLevel":"district","MatchQuality":{"Country":1.0,"State":1.0,"County":1.0,"City":1.0,"District":1.0,"PostalCode":1.0},"Location":{"LocationId":"NT_pnWlZh6tqEWiSOGEPA9xBB","LocationType":"point","DisplayPosition":{"Latitude":51.4595412,"Longitude":-2.5541182},"MapView":{"TopLeft":{"Latitude":51.46147,"Longitude":-2.55465},"BottomRight":{"Latitude":51.45419,"Longitude":-2.53368}},"Address":{"Label":"St George, Bristol, England, United Kingdom","Country":"GBR","State":"England","County":"Avon","City":"Bristol","District":"St George","PostalCode":"BS5 8","AdditionalData":[{"value":"United Kingdom","key":"CountryName"},{"value":"England","key":"StateName"},{"value":"Avon","key":"CountyName"}]},"MapReference":{"ReferenceId":"864265650","SideOfStreet":"neither","StateId":"20248595","CountyId":"20352323","CityId":"20352420","DistrictId":"20352552"}}},{"Relevance":1.0,"Distance":1.2,"MatchLevel":"houseNumber","MatchQuality":{"Country":1.0,"State":1.0,"County":1.0,"City":1.0,"District":1.0,"Street":[1.0],"HouseNumber":1.0,"PostalCode":1.0},"MatchType":"interpolated","Location":{"LocationId":"NT_ixJTZbNxG-2ry0cC-Q.KeB_l_26725664_L_yMTN","LocationType":"point","DisplayPosition":{"Latitude":51.4593967,"Longitude":-2.5540966},"MapView":{"TopLeft":{"Latitude":51.4605208,"Longitude":-2.5559008},"BottomRight":{"Latitude":51.4582725,"Longitude":-2.5522924}},"Address":{"Label":"235 Church Road, Bristol, BS5 9HL, United Kingdom","Country":"GBR","State":"England","County":"Avon","City":"Bristol","District":"St George","Street":"Church Road","HouseNumber":"235","PostalCode":"BS5 9HL","AdditionalData":[{"value":"United Kingdom","key":"CountryName"},{"value":"England","key":"StateName"},{"value":"Avon","key":"CountyName"}]},"MapReference":{"ReferenceId":"26725664","Spot":0.56,"SideOfStreet":"left","StateId":"20248595","CountyId":"20352323","CityId":"20352420","DistrictId":"20352552"}}},{"Relevance":1.0,"Distance":4.5,"MatchLevel":"houseNumber","MatchQuality":{"Country":1.0,"State":1.0,"County":1.0,"City":1.0,"District":1.0,"Street":[1.0],"HouseNumber":1.0,"PostalCode":1.0},"MatchType":"interpolated","Location":{"LocationId":"NT_KNwG-o3u-a5aBQShexAhrD_l_1185159933_L_1A","LocationType":"point","DisplayPosition":{"Latitude":51.4596076,"Longitude":-2.5538575},"MapView":{"TopLeft":{"Latitude":51.4607317,"Longitude":-2.5556617},"BottomRight":{"Latitude":51.4584834,"Longitude":-2.5520533}},"Address":{"Label":"5 Lyppiatt Road, Bristol, BS5 9HW, United Kingdom","Country":"GBR","State":"England","County":"Avon","City":"Bristol","District":"Whitehall","Street":"Lyppiatt Road","HouseNumber":"5","PostalCode":"BS5 9HW","AdditionalData":[{"value":"United Kingdom","key":"CountryName"},{"value":"England","key":"StateName"},{"value":"Avon","key":"CountyName"}]},"MapReference":{"ReferenceId":"1185159933","Spot":0.41,"SideOfStreet":"left","StateId":"20248595","CountyId":"20352323","CityId":"20352420","DistrictId":"20352578"}}},{"Relevance":1.0,"Distance":20.8,"MatchLevel":"houseNumber","MatchQuality":{"Country":1.0,"State":1.0,"County":1.0,"City":1.0,"District":1.0,"Street":[1.0],"HouseNumber":1.0,"PostalCode":1.0},"MatchType":"interpolated","Location":{"LocationId":"NT_CBHDnzZkLRqZcX68Yy5KuC_l_837422652_L_yQTM","LocationType":"point","DisplayPosition":{"Latitude":51.45945,"Longitude":-2.5538099},"MapView":{"TopLeft":{"Latitude":51.4605742,"Longitude":-2.5556141},"BottomRight":{"Latitude":51.4583259,"Longitude":-2.5520057}},"Address":{"Label":"241 Church Road, Bristol, BS5 9HT, United Kingdom","Country":"GBR","State":"England","County":"Avon","City":"Bristol","District":"St George","Street":"Church Road","HouseNumber":"241","PostalCode":"BS5 9HT","AdditionalData":[{"value":"United Kingdom","key":"CountryName"},{"value":"England","key":"StateName"},{"value":"Avon","key":"CountyName"}]},"MapReference":{"ReferenceId":"837422652","Spot":0.0,"SideOfStreet":"left","StateId":"20248595","CountyId":"20352323","CityId":"20352420","DistrictId":"20352552"}}},{"Relevance":1.0,"Distance":23.6,"MatchLevel":"street","MatchQuality":{"Country":1.0,"State":1.0,"County":1.0,"City":1.0,"District":1.0,"Street":[1.0],"PostalCode":1.0},"Location":{"LocationId":"NT_gE.1oSP6egLUcEn2ljRqSD_l_881415290_L","LocationType":"point","DisplayPosition":{"Latitude":51.45945,"Longitude":-2.55381},"MapView":{"TopLeft":{"Latitude":51.45945,"Longitude":-2.55381},"BottomRight":{"Latitude":51.45914,"Longitude":-2.55363}},"Address":{"Label":"George and Dragon Lane, Bristol, BS5 9, United Kingdom","Country":"GBR","State":"England","County":"Avon","City":"Bristol","District":"St George","Street":"George and Dragon Lane","PostalCode":"BS5 9","AdditionalData":[{"value":"United Kingdom","key":"CountryName"},{"value":"England","key":"StateName"},{"value":"Avon","key":"CountyName"}]},"MapReference":{"ReferenceId":"881415290","Spot":1.0,"SideOfStreet":"left","StateId":"20248595","CountyId":"20352323","CityId":"20352420","DistrictId":"20352552"}}},{"Relevance":1.0,"Distance":31.6,"MatchLevel":"houseNumber","MatchQuality":{"Country":1.0,"State":1.0,"County":1.0,"City":1.0,"District":1.0,"Street":[1.0],"HouseNumber":1.0,"PostalCode":1.0},"MatchType":"interpolated","Location":{"LocationId":"NT_jVXYf.nQeTcIK6WvGywISD_l_1197799219_L_yITM","LocationType":"point","DisplayPosition":{"Latitude":51.4593263,"Longitude":-2.5545287},"MapView":{"TopLeft":{"Latitude":51.4604504,"Longitude":-2.5563329},"BottomRight":{"Latitude":51.4582021,"Longitude":-2.5527245}},"Address":{"Label":"221 Church Road, Bristol, BS5 9HL, United Kingdom","Country":"GBR","State":"England","County":"Avon","City":"Bristol","District":"Redfield","Street":"Church Road","HouseNumber":"221","PostalCode":"BS5 9HL","AdditionalData":[{"value":"United Kingdom","key":"CountryName"},{"value":"England","key":"StateName"},{"value":"Avon","key":"CountyName"}]},"MapReference":{"ReferenceId":"1197799219","Spot":0.54,"SideOfStreet":"left","StateId":"20248595","CountyId":"20352323","CityId":"20352420","DistrictId":"20352534"}}},{"Relevance":1.0,"Distance":36.0,"MatchLevel":"postalCode","MatchQuality":{"PostalCode":1.0},"MatchType":"interpolated","Location":{"LocationId":"NT_jVXYf.nQeTcIK6WvGywISD_l_1197799219_L_yITM","LocationType":"point","DisplayPosition":{"Latitude":51.45937,"Longitude":-2.55456},"MapView":{"TopLeft":{"Latitude":51.4683632,"Longitude":-2.5689937},"BottomRight":{"Latitude":51.4503768,"Longitude":-2.5401263}},"Address":{"Label":"BS5 9HL, Bristol, England, United Kingdom","Country":"GBR","State":"England","County":"Avon","City":"Bristol","PostalCode":"BS5 9HL","AdditionalData":[{"value":"United Kingdom","key":"CountryName"},{"value":"England","key":"StateName"},{"value":"Avon","key":"CountyName"}]},"MapReference":{"ReferenceId":"1197799219","Spot":0.54,"SideOfStreet":"neither","StateId":"20248595","CountyId":"20352323","CityId":"20352420"}}},{"Relevance":1.0,"Distance":39.9,"MatchLevel":"houseNumber","MatchQuality":{"Country":1.0,"State":1.0,"County":1.0,"City":1.0,"District":1.0,"Street":[1.0],"HouseNumber":1.0,"PostalCode":1.0},"MatchType":"interpolated","Location":{"LocationId":"NT_KNwG-o3u-a5aBQShexAhrD_l_1185159934_L_xcD","LocationType":"point","DisplayPosition":{"Latitude":51.4599603,"Longitude":-2.5539701},"MapView":{"TopLeft":{"Latitude":51.4610845,"Longitude":-2.5557743},"BottomRight":{"Latitude":51.4588362,"Longitude":-2.5521659}},"Address":{"Label":"17 Lyppiatt Road, Bristol, BS5 9HW, United Kingdom","Country":"GBR","State":"England","County":"Avon","City":"Bristol","District":"Whitehall","Street":"Lyppiatt Road","HouseNumber":"17","PostalCode":"BS5 9HW","AdditionalData":[{"value":"United Kingdom","key":"CountryName"},{"value":"England","key":"StateName"},{"value":"Avon","key":"CountyName"}]},"MapReference":{"ReferenceId":"1185159934","Spot":0.06,"SideOfStreet":"left","StateId":"20248595","CountyId":"20352323","CityId":"20352420","DistrictId":"20352578"}}},{"Relevance":1.0,"Distance":42.4,"MatchLevel":"houseNumber","MatchQuality":{"Country":1.0,"State":1.0,"County":1.0,"City":1.0,"District":1.0,"Street":[1.0],"HouseNumber":1.0,"PostalCode":1.0},"MatchType":"interpolated","Location":{"LocationId":"NT_x63DHsmwfJarhtNNNgOJdC_l_1212024708_L_yETO","LocationType":"point","DisplayPosition":{"Latitude":51.4592967,"Longitude":-2.5546767},"MapView":{"TopLeft":{"Latitude":51.4604208,"Longitude":-2.5564809},"BottomRight":{"Latitude":51.4581725,"Longitude":-2.5528724}},"Address":{"Label":"219 Church Road, Bristol, BS5 9HL, United Kingdom","Country":"GBR","State":"England","County":"Avon","City":"Bristol","District":"Redfield","Street":"Church Road","HouseNumber":"219","PostalCode":"BS5 9HL","AdditionalData":[{"value":"United Kingdom","key":"CountryName"},{"value":"England","key":"StateName"},{"value":"Avon","key":"CountyName"}]},"MapReference":{"ReferenceId":"1212024708","Spot":0.67,"SideOfStreet":"left","StateId":"20248595","CountyId":"20352323","CityId":"20352420","DistrictId":"20352534"}}},{"Relevance":1.0,"Distance":43.0,"MatchLevel":"postalCode","MatchQuality":{"PostalCode":1.0},"MatchType":"interpolated","Location":{"LocationId":"NT_ixJTZbNxG-2ry0cC-Q.KeB_l_26725664_L_yMTN","LocationType":"point","DisplayPosition":{"Latitude":51.45931,"Longitude":-2.55362},"MapView":{"TopLeft":{"Latitude":51.4683032,"Longitude":-2.5680537},"BottomRight":{"Latitude":51.4503168,"Longitude":-2.5391863}},"Address":{"Label":"BS5 9HN, Bristol, England, United Kingdom","Country":"GBR","State":"England","County":"Avon","City":"Bristol","PostalCode":"BS5 9HN","AdditionalData":[{"value":"United Kingdom","key":"CountryName"},{"value":"England","key":"StateName"},{"value":"Avon","key":"CountyName"}]},"MapReference":{"ReferenceId":"26725664","Spot":0.56,"SideOfStreet":"neither","StateId":"20248595","CountyId":"20352323","CityId":"20352420"}}}]}]}}