{"Response":{"MetaInfo":{"Timestamp":"2020-03-28T10:10:34.934+0000","NextPageInformation":"2"},"View":[{"_type":"SearchResultsViewType","ViewId":0,"Result":[{"Relevance":1.0,"Distance":0.0,"Direction":0.0,"MatchLevel":"district","MatchQuality":{"Country":1.0,"State":1.0,"County":1.0,"City":1.0,"District":1.0,"PostalCode":1.0},"Location":{"LocationId":"NT_.Jl0XvCk-b5KAMGI3q3BPD","LocationType":"point","DisplayPosition":{"Latitude":51.4191487,"Longitude":-0.7702769},"MapView":{"TopLeft":{"Latitude":51.43769,"Longitude":-0.79828},"BottomRight":{"Latitude":51.38544,"Longitude":-0.70728}},"Address":{"Label":"Bracknell, England, United Kingdom","Country":"GBR","State":"England","County":"Berkshire","City":"Bracknell","District":"Bracknell","PostalCode":"RG42 1","AdditionalData":[{"value":"United Kingdom","key":"CountryName"},{"value":"England","key":"StateName"},{"value":"Berkshire","key":"CountyName"}]},"MapReference":{"ReferenceId":"25827254","SideOfStreet":"neither","StateId":"20248595","CountyId":"20334448","CityId":"20334456","DistrictId":"20334457"}}},{"Relevance":1.0,"Distance":10.3,"MatchLevel":"street","MatchQuality":{"Country":1.0,"State":1.0,"County":1.0,"City":1.0,"District":1.0,"Street":[1.0],"PostalCode":1.0},"Location":{"LocationId":"NT_uQbcV-wSOLXCfIt9Zn27lD_l_77748171_L","LocationType":"point","DisplayPosition":{"Latitude":51.4192401,"Longitude":-0.7702517},"MapView":{"TopLeft":{"Latitude":51.41927,"Longitude":-0.77036},"BottomRight":{"Latitude":51.41891,"Longitude":-0.76906}},"Address":{"Label":"Wokingham Road, Bracknell, RG42 1, United Kingdom","Country":"GBR","State":"England","County":"Berkshire","City":"Bracknell","District":"Bracknell","Street":"Wokingham Road","PostalCode":"RG42 1","AdditionalData":[{"value":"United Kingdom","key":"CountryName"},{"value":"England","key":"StateName"},{"value":"Berkshire","key":"CountyName"}]},"MapReference":{"ReferenceId":"77748171","Spot":0.92,"SideOfStreet":"left","StateId":"20248595","CountyId":"20334448","CityId":"20334456","DistrictId":"20334457"}}},{"Relevance":1.0,"Distance":14.7,"MatchLevel":"street","MatchQuality":{"Country":1.0,"State":1.0,"County":1.0,"City":1.0,"District":1.0,"Street":[1.0],"PostalCode":1.0},"Location":{"LocationId":"NT_rP3vCOIQ0USizsI7GosuyC_l_77748173_R","LocationType":"point","DisplayPosition":{"Latitude":51.41927,"Longitude":-0.77036},"MapView":{"TopLeft":{"Latitude":51.41962,"Longitude":-0.77036},"BottomRight":{"Latitude":51.41927,"Longitude":-0.77024}},"Address":{"Label":"Anders Corner, Bracknell, RG42 1, United Kingdom","Country":"GBR","State":"England","County":"Berkshire","City":"Bracknell","District":"Bracknell","Street":"Anders Corner","PostalCode":"RG42 1","AdditionalData":[{"value":"United Kingdom","key":"CountryName"},{"value":"England","key":"StateName"},{"value":"Berkshire","key":"CountyName"}]},"MapReference":{"ReferenceId":"77748173","Spot":0.0,"SideOfStreet":"right","StateId":"20248595","CountyId":"20334448","CityId":"20334456","DistrictId":"20334457"}}},{"Relevance":1.0,"Distance":14.7,"MatchLevel":"street","MatchQuality":{"Country":1.0,"State":1.0,"County":1.0,"City":1.0,"District":1.0,"Street":[1.0],"PostalCode":1.0},"Location":{"LocationId":"NT_1tYheQ7dFQvmwK8oTV..pA_l_77748172_L","LocationType":"point","DisplayPosition":{"Latitude":51.41927,"Longitude":-0.77036},"MapView":{"TopLeft":{"Latitude":51.4195,"Longitude":-0.77116},"BottomRight":{"Latitude":51.41927,"Longitude":-0.77036}},"Address":{"Label":"Wokingham Road, Bracknell, RG42 1, United Kingdom","Country":"GBR","State":"England","County":"Berkshire","City":"Bracknell","District":"Bracknell","Street":"Wokingham Road","PostalCode":"RG42 1","AdditionalData":[{"value":"United Kingdom","key":"CountryName"},{"value":"England","key":"StateName"},{"value":"Berkshire","key":"CountyName"}]},"MapReference":{"ReferenceId":"77748172","Spot":0.0,"SideOfStreet":"left","StateId":"20248595","CountyId":"20334448","CityId":"20334456","DistrictId":"20334457"}}},{"Relevance":1.0,"Distance":14.7,"MatchLevel":"postalCode","MatchQuality":{"PostalCode":1.0},"Location":{"LocationId":"NT_1tYheQ7dFQvmwK8oTV..pA_l_77748172_L","LocationType":"point","DisplayPosition":{"Latitude":51.41924,"Longitude":-0.77043},"MapView":{"TopLeft":{"Latitude":51.4282332,"Longitude":-0.7848511},"BottomRight":{"Latitude":51.4102468,"Longitude":-0.7560089}},"Address":{"Label":"RG42 1PB, Bracknell, England, United Kingdom","Country":"GBR","State":"England","County":"Berkshire","City":"Bracknell","PostalCode":"RG42 1PB","AdditionalData":[{"value":"United Kingdom","key":"CountryName"},{"value":"England","key":"StateName"},{"value":"Berkshire","key":"CountyName"}]},"MapReference":{"ReferenceId":"77748172","Spot":0.0,"SideOfStreet":"neither","StateId":"20248595","CountyId":"20334448","CityId":"20334456"}}},{"Relevance":1.0,"Distance":52.4,"MatchLevel":"street","MatchQuality":{"Country":1.0,"State":1.0,"County":1.0,"City":1.0,"District":1.0,"Street":[1.0],"PostalCode":1.0},"Location":{"LocationId":"NT_rP3vCOIQ0USizsI7GosuyC_l_77748174_L","LocationType":"point","DisplayPosition":{"Latitude":51.41962,"Longitude":-0.77028},"MapView":{"TopLeft":{"Latitude":51.4198,"Longitude":-0.77092},"BottomRight":{"Latitude":51.41962,"Longitude":-0.77028}},"Address":{"Label":"Anders Corner, Bracknell, RG42 1, United Kingdom","Country":"GBR","State":"England","County":"Berkshire","City":"Bracknell","District":"Bracknell","Street":"Anders Corner","PostalCode":"RG42 1","AdditionalData":[{"value":"United Kingdom","key":"CountryName"},{"value":"England","key":"StateName"},{"value":"Berkshire","key":"CountyName"}]},"MapReference":{"ReferenceId":"77748174","Spot":0.0,"SideOfStreet":"left","StateId":"20248595","CountyId":"20334448","CityId":"20334456","DistrictId":"20334457"}}},{"Relevance":1.0,"Distance":52.4,"MatchLevel":"street","MatchQuality":{"Country":1.0,"State":1.0,"County":1.0,"City":1.0,"District":1.0,"Street":[1.0],"PostalCode":1.0},"Location":{"LocationId":"NT_rP3vCOIQ0USizsI7GosuyC_l_77748175_R","LocationType":"point","DisplayPosition":{"Latitude":51.41962,"Longitude":-0.77028},"MapView":{"TopLeft":{"Latitude":51.41993,"Longitude":-0.77028},"BottomRight":{"Latitude":51.41962,"Longitude":-0.77004}},"Address":{"Label":"Anders Corner, Bracknell, RG42 1, United Kingdom","Country":"GBR","State":"England","County":"Berkshire","City":"Bracknell","District":"Bracknell","Street":"Anders Corner","PostalCode":"RG42 1","AdditionalData":[{"value":"United Kingdom","key":"CountryName"},{"value":"England","key":"StateName"},{"value":"Berkshire","key":"CountyName"}]},"MapReference":{"ReferenceId":"77748175","Spot":0.0,"SideOfStreet":"right","StateId":"20248595","CountyId":"20334448","CityId":"20334456","DistrictId":"20334457"}}},{"Relevance":1.0,"Distance":56.5,"MatchLevel":"postalCode","MatchQuality":{"PostalCode":1.0},"Location":{"LocationId":"NT_rP3vCOIQ0USizsI7GosuyC_l_77748175_R","LocationType":"point","DisplayPosition":{"Latitude":51.41965,"Longitude":-0.77014},"MapView":{"TopLeft":{"Latitude":51.4286432,"Longitude":-0.7845612},"BottomRight":{"Latitude":51.4106568,"Longitude":-0.7557188}},"Address":{"Label":"RG42 1PU, Bracknell, England, United Kingdom","Country":"GBR","State":"England","County":"Berkshire","City":"Bracknell","PostalCode":"RG42 1PU","AdditionalData":[{"value":"United Kingdom","key":"CountryName"},{"value":"England","key":"StateName"},{"value":"Berkshire","key":"CountyName"}]},"MapReference":{"ReferenceId":"77748175","Spot":0.0,"SideOfStreet":"neither","StateId":"20248595","CountyId":"20334448","CityId":"20334456"}}},{"Relevance":1.0,"Distance":61.0,"MatchLevel":"landmark","MatchQuality":{"Country":1.0,"State":1.0,"County":1.0,"City":1.0,"District":1.0,"PostalCode":1.0,"Name":1.0},"Location":{"LocationId":"NT_PxGrgEHMHcnf3PCLDIN4XA","LocationType":"industrialComplex","Name":"Western Industrial Estate","DisplayPosition":{"Latitude":51.4168,"Longitude":-0.76525},"MapView":{"TopLeft":{"Latitude":51.42014,"Longitude":-0.77393},"BottomRight":{"Latitude":51.41346,"Longitude":-0.75941}},"Address":{"Label":"Bracknell, RG42 1, United Kingdom","Country":"GBR","State":"England","County":"Berkshire","City":"Bracknell","District":"Bracknell","PostalCode":"RG42 1","AdditionalData":[{"value":"United Kingdom","key":"CountryName"},{"value":"England","key":"StateName"},{"value":"Berkshire","key":"CountyName"}]},"MapReference":{"StateId":"20248595","CountyId":"20334448","CityId":"20334456","DistrictId":"20334457","PlaceId":"1407326941"}}},{"Relevance":1.0,"Distance":61.0,"MatchLevel":"houseNumber","MatchQuality":{"Country":1.0,"State":1.0,"County":1.0,"City":1.0,"District":1.0,"Street":[1.0],"HouseNumber":1.0,"PostalCode":1.0},"MatchType":"interpolated","Location":{"LocationId":"NT_8JtQq4asEOOsSFVT.-VovB_l_565990571_R_yAD","LocationType":"point","DisplayPosition":{"Latitude":51.41962,"Longitude":-0.77107},"MapView":{"TopLeft":{"Latitude":51.4207442,"Longitude":-0.7728726},"BottomRight":{"Latitude":51.4184959,"Longitude":-0.7692673}},"Address":{"Label":"20 Pollardrow Avenue, Bracknell, RG42 1PS, United Kingdom","Country":"GBR","State":"England","County":"Berkshire","City":"Bracknell","District":"Bracknell","Street":"Pollardrow Avenue","HouseNumber":"20","PostalCode":"RG42 1PS","AdditionalData":[{"value":"United Kingdom","key":"CountryName"},{"value":"England","key":"StateName"},{"value":"Berkshire","key":"CountyName"}]},"MapReference":{"ReferenceId":"565990571","Spot":0.38,"SideOfStreet":"right","StateId":"20248595","CountyId":"20334448","CityId":"20334456","DistrictId":"20334457"}}}]}]}}