{"Response":{"MetaInfo":{"Timestamp":"2020-03-28T10:34:51.710+0000","NextPageInformation":"2"},"View":[{"_type":"SearchResultsViewType","ViewId":0,"Result":[{"Relevance":1.0,"Distance":0.0,"Direction":0.0,"MatchLevel":"district","MatchQuality":{"Country":1.0,"State":1.0,"County":1.0,"City":1.0,"District":1.0,"PostalCode":1.0},"Location":{"LocationId":"NT_0MoeZVeMN8-C8D9atFOxsA","LocationType":"point","DisplayPosition":{"Latitude":51.4851196,"Longitude":-2.5871385},"MapView":{"TopLeft":{"Latitude":51.4928,"Longitude":-2.59353},"BottomRight":{"Latitude":51.48197,"Longitude":-2.57819}},"Address":{"Label":"Horfield, Bristol, England, United Kingdom","Country":"GBR","State":"England","County":"Avon","City":"Bristol","District":"Horfield","PostalCode":"BS7 0","AdditionalData":[{"value":"United Kingdom","key":"CountryName"},{"value":"England","key":"StateName"},{"value":"Avon","key":"CountyName"}]},"MapReference":{"ReferenceId":"26753361","SideOfStreet":"neither","StateId":"20248595","CountyId":"20352323","CityId":"20352420","DistrictId":"20352498"}}},{"Relevance":1.0,"Distance":32.2,"MatchLevel":"houseNumber","MatchQuality":{"Country":1.0,"State":1.0,"County":1.0,"City":1.0,"District":1.0,"Street":[1.0],"HouseNumber":1.0,"PostalCode":1.0},"MatchType":"interpolated","Location":{"LocationId":"NT_WcY7dhEbFSidUWDjK4L.yB_l_26754135_R_3A","LocationType":"point","DisplayPosition":{"Latitude":51.4847167,"Longitude":-2.5873401},"MapView":{"TopLeft":{"Latitude":51.4858408,"Longitude":-2.5891453},"BottomRight":{"Latitude":51.4835925,"Longitude":-2.5855348}},"Address":{"Label":"7 Church Road, Bristol, BS7 8SA, United Kingdom","Country":"GBR","State":"England","County":"Avon","City":"Bristol","District":"Horfield","Street":"Church Road","HouseNumber":"7","PostalCode":"BS7 8SA","AdditionalData":[{"value":"United Kingdom","key":"CountryName"},{"value":"England","key":"StateName"},{"value":"Avon","key":"CountyName"}]},"MapReference":{"ReferenceId":"26754135","Spot":0.33,"SideOfStreet":"right","StateId":"20248595","CountyId":"20352323","CityId":"20352420","DistrictId":"20352498"}}},{"Relevance":1.0,"Distance":36.4,"MatchLevel":"houseNumber","MatchQuality":{"Country":1.0,"State":1.0,"County":1.0,"City":1.0,"District":1.0,"Street":[1.0],"HouseNumber":1.0,"PostalCode":1.0},"MatchType":"interpolated","Location":{"LocationId":"NT_rKBCDqpx6R46Qba0Ga.XtB_l_881408660_R_xQD","LocationType":"point","DisplayPosition":{"Latitude":51.4855167,"Longitude":-2.5874933},"MapView":{"TopLeft":{"Latitude":51.4866408,"Longitude":-2.5892986},"BottomRight":{"Latitude":51.4843925,"Longitude":-2.5856881}},"Address":{"Label":"14 Tennyson Road, Bristol, BS7 8SB, United Kingdom","Country":"GBR","State":"England","County":"Avon","City":"Bristol","District":"Horfield","Street":"Tennyson Road","HouseNumber":"14","PostalCode":"BS7 8SB","AdditionalData":[{"value":"United Kingdom","key":"CountryName"},{"value":"England","key":"StateName"},{"value":"Avon","key":"CountyName"}]},"MapReference":{"ReferenceId":"881408660","Spot":0.67,"SideOfStreet":"right","StateId":"20248595","CountyId":"20352323","CityId":"20352420","DistrictId":"20352498"}}},{"Relevance":1.0,"Distance":39.8,"MatchLevel":"houseNumber","MatchQuality":{"Country":1.0,"State":1.0,"County":1.0,"City":1.0,"District":1.0,"Street":[1.0],"HouseNumber":1.0,"PostalCode":1.0},"MatchType":"interpolated","Location":{"LocationId":"NT_cpmqV0lTPOQFpGIaIb9LdB_l_881300277_L_xID","LocationType":"point","DisplayPosition":{"Latitude":51.48552,"Longitude":-2.5866901},"MapView":{"TopLeft":{"Latitude":51.4866442,"Longitude":-2.5884953},"BottomRight":{"Latitude":51.4843959,"Longitude":-2.5848848}},"Address":{"Label":"12 Pitt Road, Bristol, BS7 8TY, United Kingdom","Country":"GBR","State":"England","County":"Avon","City":"Bristol","District":"Horfield","Street":"Pitt Road","HouseNumber":"12","PostalCode":"BS7 8TY","AdditionalData":[{"value":"United Kingdom","key":"CountryName"},{"value":"England","key":"StateName"},{"value":"Avon","key":"CountyName"}]},"MapReference":{"ReferenceId":"881300277","Spot":0.35,"SideOfStreet":"left","StateId":"20248595","CountyId":"20352323","CityId":"20352420","DistrictId":"20352498"}}},{"Relevance":1.0,"Distance":45.0,"MatchLevel":"postalCode","MatchQuality":{"PostalCode":1.0},"MatchType":"interpolated","Location":{"LocationId":"NT_rKBCDqpx6R46Qba0Ga.XtB_l_881408660_R_xQD","LocationType":"point","DisplayPosition":{"Latitude":51.4855,"Longitude":-2.58736},"MapView":{"TopLeft":{"Latitude":51.4944932,"Longitude":-2.601802},"BottomRight":{"Latitude":51.4765068,"Longitude":-2.572918}},"Address":{"Label":"BS7 8SB, Bristol, England, United Kingdom","Country":"GBR","State":"England","County":"Avon","City":"Bristol","PostalCode":"BS7 8SB","AdditionalData":[{"value":"United Kingdom","key":"CountryName"},{"value":"England","key":"StateName"},{"value":"Avon","key":"CountyName"}]},"MapReference":{"ReferenceId":"881408660","Spot":0.67,"SideOfStreet":"neither","StateId":"20248595","CountyId":"20352323","CityId":"20352420"}}},{"Relevance":1.0,"Distance":45.8,"MatchLevel":"houseNumber","MatchQuality":{"Country":1.0,"State":1.0,"County":1.0,"City":1.0,"District":1.0,"Street":[1.0],"HouseNumber":1.0,"PostalCode":1.0},"MatchType":"interpolated","Location":{"LocationId":"NT_WcY7dhEbFSidUWDjK4L.yB_l_26754123_R_xUD","LocationType":"point","DisplayPosition":{"Latitude":51.4848101,"Longitude":-2.5877802},"MapView":{"TopLeft":{"Latitude":51.4859342,"Longitude":-2.5895854},"BottomRight":{"Latitude":51.4836859,"Longitude":-2.5859749}},"Address":{"Label":"15 Church Road, Bristol, BS7 8SA, United Kingdom","Country":"GBR","State":"England","County":"Avon","City":"Bristol","District":"Horfield","Street":"Church Road","HouseNumber":"15","PostalCode":"BS7 8SA","AdditionalData":[{"value":"United Kingdom","key":"CountryName"},{"value":"England","key":"StateName"},{"value":"Avon","key":"CountyName"}]},"MapReference":{"ReferenceId":"26754123","Spot":0.23,"SideOfStreet":"right","StateId":"20248595","CountyId":"20352323","CityId":"20352420","DistrictId":"20352498"}}},{"Relevance":1.0,"Distance":49.5,"MatchLevel":"postalCode","MatchQuality":{"PostalCode":1.0},"MatchType":"interpolated","Location":{"LocationId":"NT_WcY7dhEbFSidUWDjK4L.yB_l_26754123_R_xUD","LocationType":"point","DisplayPosition":{"Latitude":51.48486,"Longitude":-2.58772},"MapView":{"TopLeft":{"Latitude":51.4938532,"Longitude":-2.6021618},"BottomRight":{"Latitude":51.4758668,"Longitude":-2.5732782}},"Address":{"Label":"BS7 8SA, Bristol, England, United Kingdom","Country":"GBR","State":"England","County":"Avon","City":"Bristol","PostalCode":"BS7 8SA","AdditionalData":[{"value":"United Kingdom","key":"CountryName"},{"value":"England","key":"StateName"},{"value":"Avon","key":"CountyName"}]},"MapReference":{"ReferenceId":"26754123","Spot":0.23,"SideOfStreet":"neither","StateId":"20248595","CountyId":"20352323","CityId":"20352420"}}},{"Relevance":1.0,"Distance":50.7,"MatchLevel":"houseNumber","MatchQuality":{"Country":1.0,"State":1.0,"County":1.0,"City":1.0,"District":1.0,"Street":[1.0],"HouseNumber":1.0,"PostalCode":1.0},"MatchType":"interpolated","Location":{"LocationId":"NT_WcY7dhEbFSidUWDjK4L.yB_l_26754153_R_xA","LocationType":"point","DisplayPosition":{"Latitude":51.4845852,"Longitude":-2.586821},"MapView":{"TopLeft":{"Latitude":51.4857094,"Longitude":-2.5886262},"BottomRight":{"Latitude":51.4834611,"Longitude":-2.5850158}},"Address":{"Label":"1 Church Road, Bristol, BS7 8SA, United Kingdom","Country":"GBR","State":"England","County":"Avon","City":"Bristol","District":"Horfield","Street":"Church Road","HouseNumber":"1","PostalCode":"BS7 8SA","AdditionalData":[{"value":"United Kingdom","key":"CountryName"},{"value":"England","key":"StateName"},{"value":"Avon","key":"CountyName"}]},"MapReference":{"ReferenceId":"26754153","Spot":0.49,"SideOfStreet":"right","StateId":"20248595","CountyId":"20352323","CityId":"20352420","DistrictId":"20352498"}}},{"Relevance":1.0,"Distance":52.6,"MatchLevel":"houseNumber","MatchQuality":{"Country":1.0,"State":1.0,"County":1.0,"City":1.0,"District":1.0,"Street":[1.0],"HouseNumber":1.0,"PostalCode":1.0},"MatchType":"interpolated","Location":{"LocationId":"NT_pt-S9wGGHbXUREGqfzZS2D_l_26754152_L_0IjN","LocationType":"point","DisplayPosition":{"Latitude":51.4849045,"Longitude":-2.5862367},"MapView":{"TopLeft":{"Latitude":51.4860286,"Longitude":-2.5880419},"BottomRight":{"Latitude":51.4837803,"Longitude":-2.5844314}},"Address":{"Label":"426 Gloucester Road, Bristol, BS7 8, United Kingdom","Country":"GBR","State":"England","County":"Avon","City":"Bristol","District":"Horfield","Street":"Gloucester Road","HouseNumber":"426","PostalCode":"BS7 8","AdditionalData":[{"value":"United Kingdom","key":"CountryName"},{"value":"England","key":"StateName"},{"value":"Avon","key":"CountyName"}]},"MapReference":{"ReferenceId":"26754152","Spot":0.71,"SideOfStreet":"left","StateId":"20248595","CountyId":"20352323","CityId":"20352420","DistrictId":"20352498"}}},{"Relevance":1.0,"Distance":54.1,"MatchLevel":"street","MatchQuality":{"Country":1.0,"State":1.0,"County":1.0,"City":1.0,"District":1.0,"PostalCode":1.0},"Location":{"LocationId":"NT_bVbyiZ5EkMpkqgtFREFW-D_l_881408661_R","LocationType":"point","DisplayPosition":{"Latitude":51.48543,"Longitude":-2.58774},"MapView":{"TopLeft":{"Latitude":51.48582,"Longitude":-2.58784},"BottomRight":{"Latitude":51.48543,"Longitude":-2.58774}},"Address":{"Label":"Bristol, BS7 8, United Kingdom","Country":"GBR","State":"England","County":"Avon","City":"Bristol","District":"Horfield","PostalCode":"BS7 8","AdditionalData":[{"value":"United Kingdom","key":"CountryName"},{"value":"England","key":"StateName"},{"value":"Avon","key":"CountyName"}]},"MapReference":{"ReferenceId":"881408661","Spot":0.0,"SideOfStreet":"right","StateId":"20248595","CountyId":"20352323","CityId":"20352420","DistrictId":"20352498"}}}]}]}}