{"Response":{"MetaInfo":{"Timestamp":"2020-03-28T11:57:29.117+0000","NextPageInformation":"2"},"View":[{"_type":"SearchResultsViewType","ViewId":0,"Result":[{"Relevance":1.0,"Distance":0.0,"Direction":0.0,"MatchLevel":"district","MatchQuality":{"Country":1.0,"State":1.0,"County":1.0,"City":1.0,"District":1.0,"PostalCode":1.0},"Location":{"LocationId":"NT_BezwsLw0ckyy7gMgn6j66C","LocationType":"point","DisplayPosition":{"Latitude":51.4054417,"Longitude":-1.3245579},"MapView":{"TopLeft":{"Latitude":51.42196,"Longitude":-1.36436},"BottomRight":{"Latitude":51.36747,"Longitude":-1.28311}},"Address":{"Label":"Newbury, England, United Kingdom","Country":"GBR","State":"England","County":"Berkshire","City":"Newbury","District":"Newbury","PostalCode":"RG14 1","AdditionalData":[{"value":"United Kingdom","key":"CountryName"},{"value":"England","key":"StateName"},{"value":"Berkshire","key":"CountyName"}]},"MapReference":{"ReferenceId":"901008379","SideOfStreet":"neither","StateId":"20248595","CountyId":"20334448","CityId":"20334503","DistrictId":"20334504"}}},{"Relevance":1.0,"Distance":21.7,"MatchLevel":"street","MatchQuality":{"Country":1.0,"State":1.0,"County":1.0,"City":1.0,"District":1.0,"Street":[1.0],"PostalCode":1.0},"Location":{"LocationId":"NT_Zj15mp2EgdBFz6NgUd4nvA_l_25830719_L","LocationType":"point","DisplayPosition":{"Latitude":51.4056371,"Longitude":-1.3245694},"MapView":{"TopLeft":{"Latitude":51.40565,"Longitude":-1.32496},"BottomRight":{"Latitude":51.40563,"Longitude":-1.32452}},"Address":{"Label":"London Road, Newbury, RG14 1, United Kingdom","Country":"GBR","State":"England","County":"Berkshire","City":"Newbury","District":"Newbury","Street":"London Road","PostalCode":"RG14 1","AdditionalData":[{"value":"United Kingdom","key":"CountryName"},{"value":"England","key":"StateName"},{"value":"Berkshire","key":"CountyName"}]},"MapReference":{"ReferenceId":"25830719","Spot":0.11,"SideOfStreet":"left","StateId":"20248595","CountyId":"20334448","CityId":"20334503","DistrictId":"20334504"}}},{"Relevance":1.0,"Distance":21.9,"MatchLevel":"postalCode","MatchQuality":{"PostalCode":1.0},"Location":{"LocationId":"NT_wp6Bfas48y.w4PmS5OgLBC_l_25830798_R","LocationType":"point","DisplayPosition":{"Latitude":51.40529,"Longitude":-1.32476},"MapView":{"TopLeft":{"Latitude":51.4142832,"Longitude":-1.3391767},"BottomRight":{"Latitude":51.3962968,"Longitude":-1.3103433}},"Address":{"Label":"RG14 1BA, Newbury, England, United Kingdom","Country":"GBR","State":"England","County":"Berkshire","City":"Newbury","PostalCode":"RG14 1BA","AdditionalData":[{"value":"United Kingdom","key":"CountryName"},{"value":"England","key":"StateName"},{"value":"Berkshire","key":"CountyName"}]},"MapReference":{"ReferenceId":"25830798","Spot":0.29,"SideOfStreet":"neither","StateId":"20248595","CountyId":"20334448","CityId":"20334503"}}},{"Relevance":1.0,"Distance":22.4,"MatchLevel":"houseNumber","MatchQuality":{"Country":1.0,"State":1.0,"County":1.0,"City":1.0,"District":1.0,"Street":[1.0],"HouseNumber":1.0,"PostalCode":1.0},"MatchType":"interpolated","Location":{"LocationId":"NT_Zj15mp2EgdBFz6NgUd4nvA_l_25830697_R_xA","LocationType":"point","DisplayPosition":{"Latitude":51.40567,"Longitude":-1.3242998},"MapView":{"TopLeft":{"Latitude":51.4067942,"Longitude":-1.3261019},"BottomRight":{"Latitude":51.4045459,"Longitude":-1.3224977}},"Address":{"Label":"1 London Road, Newbury, RG14 1AX, United Kingdom","Country":"GBR","State":"England","County":"Berkshire","City":"Newbury","District":"Newbury","Street":"London Road","HouseNumber":"1","PostalCode":"RG14 1AX","AdditionalData":[{"value":"United Kingdom","key":"CountryName"},{"value":"England","key":"StateName"},{"value":"Berkshire","key":"CountyName"}]},"MapReference":{"ReferenceId":"25830697","Spot":0.26,"SideOfStreet":"right","StateId":"20248595","CountyId":"20334448","CityId":"20334503","DistrictId":"20334504"}}},{"Relevance":1.0,"Distance":22.7,"MatchLevel":"street","MatchQuality":{"Country":1.0,"State":1.0,"County":1.0,"City":1.0,"District":1.0,"Street":[1.0],"PostalCode":1.0},"Location":{"LocationId":"NT_wp6Bfas48y.w4PmS5OgLBC_l_25830798_R","LocationType":"point","DisplayPosition":{"Latitude":51.40532,"Longitude":-1.32482},"MapView":{"TopLeft":{"Latitude":51.40559,"Longitude":-1.32506},"BottomRight":{"Latitude":51.40517,"Longitude":-1.32481}},"Address":{"Label":"Northbrook Street, Newbury, RG14 1, United Kingdom","Country":"GBR","State":"England","County":"Berkshire","City":"Newbury","District":"Newbury","Street":"Northbrook Street","PostalCode":"RG14 1","AdditionalData":[{"value":"United Kingdom","key":"CountryName"},{"value":"England","key":"StateName"},{"value":"Berkshire","key":"CountyName"}]},"MapReference":{"ReferenceId":"25830798","Spot":0.29,"SideOfStreet":"right","StateId":"20248595","CountyId":"20334448","CityId":"20334503","DistrictId":"20334504"}}},{"Relevance":1.0,"Distance":27.7,"MatchLevel":"postalCode","MatchQuality":{"PostalCode":1.0},"MatchType":"interpolated","Location":{"LocationId":"NT_Zj15mp2EgdBFz6NgUd4nvA_l_25830697_R_xA","LocationType":"point","DisplayPosition":{"Latitude":51.40569,"Longitude":-1.32459},"MapView":{"TopLeft":{"Latitude":51.4146832,"Longitude":-1.3390068},"BottomRight":{"Latitude":51.3966968,"Longitude":-1.3101732}},"Address":{"Label":"RG14 1AX, Newbury, England, United Kingdom","Country":"GBR","State":"England","County":"Berkshire","City":"Newbury","PostalCode":"RG14 1AX","AdditionalData":[{"value":"United Kingdom","key":"CountryName"},{"value":"England","key":"StateName"},{"value":"Berkshire","key":"CountyName"}]},"MapReference":{"ReferenceId":"25830697","Spot":0.26,"SideOfStreet":"neither","StateId":"20248595","CountyId":"20334448","CityId":"20334503"}}},{"Relevance":1.0,"Distance":34.8,"MatchLevel":"street","MatchQuality":{"Country":1.0,"State":1.0,"County":1.0,"City":1.0,"District":1.0,"PostalCode":1.0},"Location":{"LocationId":"NT_Tz-RE0ol3tdxKAd0AFpGDC_l_971526128_R","LocationType":"point","DisplayPosition":{"Latitude":51.40562,"Longitude":-1.32497},"MapView":{"TopLeft":{"Latitude":51.40562,"Longitude":-1.32506},"BottomRight":{"Latitude":51.40559,"Longitude":-1.32497}},"Address":{"Label":"Newbury, RG14 1, United Kingdom","Country":"GBR","State":"England","County":"Berkshire","City":"Newbury","District":"Newbury","PostalCode":"RG14 1","AdditionalData":[{"value":"United Kingdom","key":"CountryName"},{"value":"England","key":"StateName"},{"value":"Berkshire","key":"CountyName"}]},"MapReference":{"ReferenceId":"971526128","Spot":1.0,"SideOfStreet":"right","StateId":"20248595","CountyId":"20334448","CityId":"20334503","DistrictId":"20334504"}}},{"Relevance":1.0,"Distance":34.8,"MatchLevel":"street","MatchQuality":{"Country":1.0,"State":1.0,"County":1.0,"City":1.0,"District":1.0,"PostalCode":1.0},"Location":{"LocationId":"NT_Tz-RE0ol3tdxKAd0AFpGDC_l_971526126_R","LocationType":"point","DisplayPosition":{"Latitude":51.40562,"Longitude":-1.32497},"MapView":{"TopLeft":{"Latitude":51.40565,"Longitude":-1.32497},"BottomRight":{"Latitude":51.40562,"Longitude":-1.32496}},"Address":{"Label":"Newbury, RG14 1, United Kingdom","Country":"GBR","State":"England","County":"Berkshire","City":"Newbury","District":"Newbury","PostalCode":"RG14 1","AdditionalData":[{"value":"United Kingdom","key":"CountryName"},{"value":"England","key":"StateName"},{"value":"Berkshire","key":"CountyName"}]},"MapReference":{"ReferenceId":"971526126","Spot":0.0,"SideOfStreet":"right","StateId":"20248595","CountyId":"20334448","CityId":"20334503","DistrictId":"20334504"}}},{"Relevance":1.0,"Distance":36.3,"MatchLevel":"street","MatchQuality":{"Country":1.0,"State":1.0,"County":1.0,"City":1.0,"District":1.0,"PostalCode":1.0},"Location":{"LocationId":"NT_Tz-RE0ol3tdxKAd0AFpGDC_l_971526127_R","LocationType":"point","DisplayPosition":{"Latitude":51.40565,"Longitude":-1.32496},"MapView":{"TopLeft":{"Latitude":51.40571,"Longitude":-1.32515},"BottomRight":{"Latitude":51.40565,"Longitude":-1.32496}},"Address":{"Label":"Newbury, RG14 1, United Kingdom","Country":"GBR","State":"England","County":"Berkshire","City":"Newbury","District":"Newbury","PostalCode":"RG14 1","AdditionalData":[{"value":"United Kingdom","key":"CountryName"},{"value":"England","key":"StateName"},{"value":"Berkshire","key":"CountyName"}]},"MapReference":{"ReferenceId":"971526127","Spot":0.0,"SideOfStreet":"right","StateId":"20248595","CountyId":"20334448","CityId":"20334503","DistrictId":"20334504"}}},{"Relevance":1.0,"Distance":38.5,"MatchLevel":"street","MatchQuality":{"Country":1.0,"State":1.0,"County":1.0,"City":1.0,"District":1.0,"PostalCode":1.0},"Location":{"LocationId":"NT_Tz-RE0ol3tdxKAd0AFpGDC_l_971526129_L","LocationType":"point","DisplayPosition":{"Latitude":51.40559,"Longitude":-1.32506},"MapView":{"TopLeft":{"Latitude":51.40568,"Longitude":-1.32516},"BottomRight":{"Latitude":51.40559,"Longitude":-1.32506}},"Address":{"Label":"Newbury, RG14 1, United Kingdom","Country":"GBR","State":"England","County":"Berkshire","City":"Newbury","District":"Newbury","PostalCode":"RG14 1","AdditionalData":[{"value":"United Kingdom","key":"CountryName"},{"value":"England","key":"StateName"},{"value":"Berkshire","key":"CountyName"}]},"MapReference":{"ReferenceId":"971526129","Spot":0.0,"SideOfStreet":"left","StateId":"20248595","CountyId":"20334448","CityId":"20334503","DistrictId":"20334504"}}}]}]}}