{"Response":{"MetaInfo":{"Timestamp":"2020-03-28T10:10:32.966+0000","NextPageInformation":"2"},"View":[{"_type":"SearchResultsViewType","ViewId":0,"Result":[{"Relevance":1.0,"Distance":0.0,"Direction":0.0,"MatchLevel":"district","MatchQuality":{"Country":1.0,"State":1.0,"County":1.0,"City":1.0,"District":1.0,"PostalCode":1.0},"Location":{"LocationId":"NT_lCpDgWS9xG2s-Prv1ts15B","LocationType":"point","DisplayPosition":{"Latitude":51.4238074,"Longitude":-0.8657162},"MapView":{"TopLeft":{"Latitude":51.42949,"Longitude":-0.88848},"BottomRight":{"Latitude":51.37022,"Longitude":-0.80098}},"Address":{"Label":"Wokingham, England, United Kingdom","Country":"GBR","State":"England","County":"Berkshire","City":"Wokingham","District":"Wokingham","PostalCode":"RG40 1","AdditionalData":[{"value":"United Kingdom","key":"CountryName"},{"value":"England","key":"StateName"},{"value":"Berkshire","key":"CountyName"}]},"MapReference":{"ReferenceId":"836159906","SideOfStreet":"neither","StateId":"20248595","CountyId":"20334448","CityId":"20334706","DistrictId":"20334707"}}},{"Relevance":1.0,"Distance":23.7,"MatchLevel":"postalCode","MatchQuality":{"PostalCode":1.0},"MatchType":"interpolated","Location":{"LocationId":"NT_OQAJAd9hEOCnd3r5vK6zMD_l_25869452_R_yYTN","LocationType":"point","DisplayPosition":{"Latitude":51.42362,"Longitude":-0.86588},"MapView":{"TopLeft":{"Latitude":51.4326132,"Longitude":-0.8803024},"BottomRight":{"Latitude":51.4146268,"Longitude":-0.8514576}},"Address":{"Label":"RG41 5AG, Wokingham, England, United Kingdom","Country":"GBR","State":"England","County":"Berkshire","City":"Wokingham","PostalCode":"RG41 5AG","AdditionalData":[{"value":"United Kingdom","key":"CountryName"},{"value":"England","key":"StateName"},{"value":"Berkshire","key":"CountyName"}]},"MapReference":{"ReferenceId":"25869452","Spot":0.5,"SideOfStreet":"neither","StateId":"20248595","CountyId":"20334448","CityId":"20334706"}}},{"Relevance":1.0,"Distance":34.2,"MatchLevel":"street","MatchQuality":{"Country":1.0,"State":1.0,"County":1.0,"City":1.0,"District":1.0,"Street":[1.0],"PostalCode":1.0},"Location":{"LocationId":"NT_Z0BtYLT2kwUAJ4-X7qqX3A_l_864373283_L","LocationType":"point","DisplayPosition":{"Latitude":51.4235,"Longitude":-0.86574},"MapView":{"TopLeft":{"Latitude":51.4235,"Longitude":-0.86594},"BottomRight":{"Latitude":51.42335,"Longitude":-0.86574}},"Address":{"Label":"Roundabout Lane, Wokingham, RG41 5, United Kingdom","Country":"GBR","State":"England","County":"Berkshire","City":"Wokingham","District":"Wokingham","Street":"Roundabout Lane","PostalCode":"RG41 5","AdditionalData":[{"value":"United Kingdom","key":"CountryName"},{"value":"England","key":"StateName"},{"value":"Berkshire","key":"CountyName"}]},"MapReference":{"ReferenceId":"864373283","Spot":1.0,"SideOfStreet":"left","StateId":"20248595","CountyId":"20334448","CityId":"20334706","DistrictId":"20334707"}}},{"Relevance":1.0,"Distance":39.3,"MatchLevel":"houseNumber","MatchQuality":{"Country":1.0,"State":1.0,"County":1.0,"City":1.0,"District":1.0,"Street":[1.0],"HouseNumber":1.0,"PostalCode":1.0},"MatchType":"interpolated","Location":{"LocationId":"NT_OQAJAd9hEOCnd3r5vK6zMD_l_25869452_R_yYTN","LocationType":"point","DisplayPosition":{"Latitude":51.4237312,"Longitude":-0.866328},"MapView":{"TopLeft":{"Latitude":51.4248553,"Longitude":-0.8681308},"BottomRight":{"Latitude":51.422607,"Longitude":-0.8645251}},"Address":{"Label":"265 Reading Road, Wokingham, RG41 5AG, United Kingdom","Country":"GBR","State":"England","County":"Berkshire","City":"Wokingham","District":"Wokingham","Street":"Reading Road","HouseNumber":"265","PostalCode":"RG41 5AG","AdditionalData":[{"value":"United Kingdom","key":"CountryName"},{"value":"England","key":"StateName"},{"value":"Berkshire","key":"CountyName"}]},"MapReference":{"ReferenceId":"25869452","Spot":0.5,"SideOfStreet":"right","StateId":"20248595","CountyId":"20334448","CityId":"20334706","DistrictId":"20334707"}}},{"Relevance":1.0,"Distance":51.0,"MatchLevel":"houseNumber","MatchQuality":{"Country":1.0,"State":1.0,"County":1.0,"City":1.0,"District":1.0,"Street":[1.0],"HouseNumber":1.0,"PostalCode":1.0},"MatchType":"interpolated","Location":{"LocationId":"NT_TFmIzeBpr.atYgUC1fUnqD_l_864373281_L_yYDN","LocationType":"point","DisplayPosition":{"Latitude":51.4234201,"Longitude":-0.8661101},"MapView":{"TopLeft":{"Latitude":51.4245442,"Longitude":-0.8679129},"BottomRight":{"Latitude":51.4222959,"Longitude":-0.8643073}},"Address":{"Label":"264 Reading Road, Wokingham, RG41 5AA, United Kingdom","Country":"GBR","State":"England","County":"Berkshire","City":"Wokingham","District":"Wokingham","Street":"Reading Road","HouseNumber":"264","PostalCode":"RG41 5AA","AdditionalData":[{"value":"United Kingdom","key":"CountryName"},{"value":"England","key":"StateName"},{"value":"Berkshire","key":"CountyName"}]},"MapReference":{"ReferenceId":"864373281","Spot":0.15,"SideOfStreet":"left","StateId":"20248595","CountyId":"20334448","CityId":"20334706","DistrictId":"20334707"}}},{"Relevance":1.0,"Distance":51.1,"MatchLevel":"houseNumber","MatchQuality":{"Country":1.0,"State":1.0,"County":1.0,"City":1.0,"District":1.0,"Street":[1.0],"HouseNumber":1.0,"PostalCode":1.0},"MatchType":"interpolated","Location":{"LocationId":"NT_TFmIzeBpr.atYgUC1fUnqD_l_25826542_L_yYjM","LocationType":"point","DisplayPosition":{"Latitude":51.4233793,"Longitude":-0.8654464},"MapView":{"TopLeft":{"Latitude":51.4245034,"Longitude":-0.8672492},"BottomRight":{"Latitude":51.4222551,"Longitude":-0.8636436}},"Address":{"Label":"262 Reading Road, Wokingham, RG41 5AA, United Kingdom","Country":"GBR","State":"England","County":"Berkshire","City":"Wokingham","District":"Wokingham","Street":"Reading Road","HouseNumber":"262","PostalCode":"RG41 5AA","AdditionalData":[{"value":"United Kingdom","key":"CountryName"},{"value":"England","key":"StateName"},{"value":"Berkshire","key":"CountyName"}]},"MapReference":{"ReferenceId":"25826542","Spot":0.84,"SideOfStreet":"left","StateId":"20248595","CountyId":"20334448","CityId":"20334706","DistrictId":"20334707"}}},{"Relevance":1.0,"Distance":53.2,"MatchLevel":"street","MatchQuality":{"Country":1.0,"State":1.0,"County":1.0,"City":1.0,"District":1.0,"Street":[1.0],"PostalCode":1.0},"Location":{"LocationId":"NT_Z0BtYLT2kwUAJ4-X7qqX3A_l_864373282_L","LocationType":"point","DisplayPosition":{"Latitude":51.42335,"Longitude":-0.86594},"MapView":{"TopLeft":{"Latitude":51.42335,"Longitude":-0.86698},"BottomRight":{"Latitude":51.42102,"Longitude":-0.86585}},"Address":{"Label":"Roundabout Lane, Wokingham, RG41 5, United Kingdom","Country":"GBR","State":"England","County":"Berkshire","City":"Wokingham","District":"Wokingham","Street":"Roundabout Lane","PostalCode":"RG41 5","AdditionalData":[{"value":"United Kingdom","key":"CountryName"},{"value":"England","key":"StateName"},{"value":"Berkshire","key":"CountyName"}]},"MapReference":{"ReferenceId":"864373282","Spot":1.0,"SideOfStreet":"left","StateId":"20248595","CountyId":"20334448","CityId":"20334706","DistrictId":"20334707"}}},{"Relevance":1.0,"Distance":66.4,"MatchLevel":"postalCode","MatchQuality":{"PostalCode":1.0},"MatchType":"interpolated","Location":{"LocationId":"NT_TFmIzeBpr.atYgUC1fUnqD_l_25826542_L_yYjM","LocationType":"point","DisplayPosition":{"Latitude":51.42327,"Longitude":-0.8653},"MapView":{"TopLeft":{"Latitude":51.4322632,"Longitude":-0.8797223},"BottomRight":{"Latitude":51.4142768,"Longitude":-0.8508777}},"Address":{"Label":"RG41 5AA, Wokingham, England, United Kingdom","Country":"GBR","State":"England","County":"Berkshire","City":"Wokingham","PostalCode":"RG41 5AA","AdditionalData":[{"value":"United Kingdom","key":"CountryName"},{"value":"England","key":"StateName"},{"value":"Berkshire","key":"CountyName"}]},"MapReference":{"ReferenceId":"25826542","Spot":0.84,"SideOfStreet":"neither","StateId":"20248595","CountyId":"20334448","CityId":"20334706"}}},{"Relevance":1.0,"Distance":87.9,"MatchLevel":"houseNumber","MatchQuality":{"Country":1.0,"State":1.0,"County":1.0,"City":1.0,"District":1.0,"Street":[1.0],"HouseNumber":1.0,"PostalCode":1.0},"MatchType":"interpolated","Location":{"LocationId":"NT_woLZoh8LKOC.oiNgn1W-JA_l_864373280_L_xQD","LocationType":"point","DisplayPosition":{"Latitude":51.4239267,"Longitude":-0.86697},"MapView":{"TopLeft":{"Latitude":51.4250508,"Longitude":-0.8687728},"BottomRight":{"Latitude":51.4228025,"Longitude":-0.8651672}},"Address":{"Label":"14 Sadlers Court, Wokingham, RG41 5AF, United Kingdom","Country":"GBR","State":"England","County":"Berkshire","City":"Wokingham","District":"Wokingham","Street":"Sadlers Court","HouseNumber":"14","PostalCode":"RG41 5AF","AdditionalData":[{"value":"United Kingdom","key":"CountryName"},{"value":"England","key":"StateName"},{"value":"Berkshire","key":"CountyName"}]},"MapReference":{"ReferenceId":"864373280","Spot":0.67,"SideOfStreet":"left","StateId":"20248595","CountyId":"20334448","CityId":"20334706","DistrictId":"20334707"}}},{"Relevance":1.0,"Distance":102.4,"MatchLevel":"houseNumber","MatchQuality":{"Country":1.0,"State":1.0,"County":1.0,"City":1.0,"District":1.0,"Street":[1.0],"HouseNumber":1.0,"PostalCode":1.0},"MatchType":"interpolated","Location":{"LocationId":"NT_woLZoh8LKOC.oiNgn1W-JA_l_864373279_L_xED","LocationType":"point","DisplayPosition":{"Latitude":51.4237136,"Longitude":-0.8671854},"MapView":{"TopLeft":{"Latitude":51.4248378,"Longitude":-0.8689883},"BottomRight":{"Latitude":51.4225895,"Longitude":-0.8653826}},"Address":{"Label":"11 Sadlers Court, Wokingham, RG41 5AF, United Kingdom","Country":"GBR","State":"England","County":"Berkshire","City":"Wokingham","District":"Wokingham","Street":"Sadlers Court","HouseNumber":"11","PostalCode":"RG41 5AF","AdditionalData":[{"value":"United Kingdom","key":"CountryName"},{"value":"England","key":"StateName"},{"value":"Berkshire","key":"CountyName"}]},"MapReference":{"ReferenceId":"864373279","Spot":0.59,"SideOfStreet":"left","StateId":"20248595","CountyId":"20334448","CityId":"20334706","DistrictId":"20334707"}}}]}]}}