{"Response":{"MetaInfo":{"Timestamp":"2020-03-28T10:32:31.012+0000","NextPageInformation":"2"},"View":[{"_type":"SearchResultsViewType","ViewId":0,"Result":[{"Relevance":1.0,"Distance":0.0,"Direction":0.0,"MatchLevel":"district","MatchQuality":{"Country":1.0,"State":1.0,"County":1.0,"City":1.0,"District":1.0,"PostalCode":1.0},"Location":{"LocationId":"NT_SasxijJuKMANSGEykejWFD","LocationType":"point","DisplayPosition":{"Latitude":51.4867407,"Longitude":-0.3101776},"MapView":{"TopLeft":{"Latitude":51.50106,"Longitude":-0.32972},"BottomRight":{"Latitude":51.4725,"Longitude":-0.28454}},"Address":{"Label":"Brentford, England, United Kingdom","Country":"GBR","State":"England","County":"Middlesex","City":"Brentford","District":"Brentford","PostalCode":"TW8 8","AdditionalData":[{"value":"United Kingdom","key":"CountryName"},{"value":"England","key":"StateName"},{"value":"Middlesex","key":"CountyName"}]},"MapReference":{"ReferenceId":"25492187","SideOfStreet":"neither","StateId":"20248595","CountyId":"20337579","CityId":"20337582","DistrictId":"20337583"}}},{"Relevance":1.0,"Distance":22.4,"MatchLevel":"postalCode","MatchQuality":{"PostalCode":1.0},"MatchType":"interpolated","Location":{"LocationId":"NT_oSAsJ5sopDSFpRPCyhtvoB_xA","LocationType":"point","DisplayPosition":{"Latitude":51.48693,"Longitude":-0.31029},"MapView":{"TopLeft":{"Latitude":51.4959232,"Longitude":-0.3247325},"BottomRight":{"Latitude":51.4779368,"Longitude":-0.2958475}},"Address":{"Label":"TW8 8DS, Brentford, England, United Kingdom","Country":"GBR","State":"England","County":"Middlesex","City":"Brentford","PostalCode":"TW8 8DS","AdditionalData":[{"value":"United Kingdom","key":"CountryName"},{"value":"England","key":"StateName"},{"value":"Middlesex","key":"CountyName"}]},"MapReference":{"ReferenceId":"25317164","Spot":0.47,"SideOfStreet":"neither","StateId":"20248595","CountyId":"20337579","CityId":"20337582"}}},{"Relevance":1.0,"Distance":22.7,"MatchLevel":"houseNumber","MatchQuality":{"Country":1.0,"State":1.0,"County":1.0,"City":1.0,"District":1.0,"Street":[1.0],"HouseNumber":1.0,"PostalCode":1.0},"MatchType":"interpolated","Location":{"LocationId":"NT_oSAsJ5sopDSFpRPCyhtvoB_xA","LocationType":"point","DisplayPosition":{"Latitude":51.48698,"Longitude":-0.31029},"MapView":{"TopLeft":{"Latitude":51.4881042,"Longitude":-0.3120953},"BottomRight":{"Latitude":51.4858558,"Longitude":-0.3084847}},"Address":{"Label":"1 The Dell, Brentford, TW8 8DY, United Kingdom","Country":"GBR","State":"England","County":"Middlesex","City":"Brentford","District":"Brentford","Street":"The Dell","HouseNumber":"1","PostalCode":"TW8 8DY","AdditionalData":[{"value":"United Kingdom","key":"CountryName"},{"value":"England","key":"StateName"},{"value":"Middlesex","key":"CountyName"}]},"MapReference":{"ReferenceId":"25317164","Spot":0.47,"SideOfStreet":"right","StateId":"20248595","CountyId":"20337579","CityId":"20337582","DistrictId":"20337583","AddressId":"749627493","RoadLinkId":"82347362"}}},{"Relevance":1.0,"Distance":44.7,"MatchLevel":"houseNumber","MatchQuality":{"Country":1.0,"State":1.0,"County":1.0,"City":1.0,"District":1.0,"Street":[1.0],"HouseNumber":1.0,"PostalCode":1.0},"MatchType":"interpolated","Location":{"LocationId":"NT_boDVSUXhxComNg5B8MPMDA_3A","LocationType":"point","DisplayPosition":{"Latitude":51.48632,"Longitude":-0.3107},"MapView":{"TopLeft":{"Latitude":51.4874442,"Longitude":-0.3125053},"BottomRight":{"Latitude":51.4851958,"Longitude":-0.3088947}},"Address":{"Label":"7 Church Walk, Brentford, TW8 8DB, United Kingdom","Country":"GBR","State":"England","County":"Middlesex","City":"Brentford","District":"Brentford","Street":"Church Walk","HouseNumber":"7","PostalCode":"TW8 8DB","AdditionalData":[{"value":"United Kingdom","key":"CountryName"},{"value":"England","key":"StateName"},{"value":"Middlesex","key":"CountyName"}]},"MapReference":{"ReferenceId":"25317307","Spot":0.26,"SideOfStreet":"right","StateId":"20248595","CountyId":"20337579","CityId":"20337582","DistrictId":"20337583","AddressId":"749715853","RoadLinkId":"82498578"}}},{"Relevance":1.0,"Distance":56.2,"MatchLevel":"houseNumber","MatchQuality":{"Country":1.0,"State":1.0,"County":1.0,"City":1.0,"District":1.0,"Street":[1.0],"HouseNumber":1.0,"PostalCode":1.0},"MatchType":"interpolated","Location":{"LocationId":"NT_boDVSUXhxComNg5B8MPMDA_0A","LocationType":"point","DisplayPosition":{"Latitude":51.48618,"Longitude":-0.31054},"MapView":{"TopLeft":{"Latitude":51.4873042,"Longitude":-0.3123453},"BottomRight":{"Latitude":51.4850558,"Longitude":-0.3087347}},"Address":{"Label":"4 Church Walk, Brentford, TW8 8, United Kingdom","Country":"GBR","State":"England","County":"Middlesex","City":"Brentford","District":"Brentford","Street":"Church Walk","HouseNumber":"4","PostalCode":"TW8 8","AdditionalData":[{"value":"United Kingdom","key":"CountryName"},{"value":"England","key":"StateName"},{"value":"Middlesex","key":"CountyName"}]},"MapReference":{"ReferenceId":"25492411","Spot":1.0,"SideOfStreet":"right","StateId":"20248595","CountyId":"20337579","CityId":"20337582","DistrictId":"20337583","AddressId":"749454502","RoadLinkId":"82443591"}}},{"Relevance":1.0,"Distance":60.0,"MatchLevel":"houseNumber","MatchQuality":{"Country":1.0,"State":1.0,"County":1.0,"City":1.0,"District":1.0,"Street":[1.0],"HouseNumber":1.0,"PostalCode":1.0},"MatchType":"interpolated","Location":{"LocationId":"NT_boDVSUXhxComNg5B8MPMDA_xcD","LocationType":"point","DisplayPosition":{"Latitude":51.48676,"Longitude":-0.3112},"MapView":{"TopLeft":{"Latitude":51.4878842,"Longitude":-0.3130053},"BottomRight":{"Latitude":51.4856358,"Longitude":-0.3093947}},"Address":{"Label":"17 Church Walk, Brentford, TW8 8DB, United Kingdom","Country":"GBR","State":"England","County":"Middlesex","City":"Brentford","District":"Brentford","Street":"Church Walk","HouseNumber":"17","PostalCode":"TW8 8DB","AdditionalData":[{"value":"United Kingdom","key":"CountryName"},{"value":"England","key":"StateName"},{"value":"Middlesex","key":"CountyName"}]},"MapReference":{"ReferenceId":"25317210","Spot":0.16,"SideOfStreet":"right","StateId":"20248595","CountyId":"20337579","CityId":"20337582","DistrictId":"20337583","AddressId":"749413625","RoadLinkId":"82326998"}}},{"Relevance":1.0,"Distance":61.5,"MatchLevel":"houseNumber","MatchQuality":{"Country":1.0,"State":1.0,"County":1.0,"City":1.0,"District":1.0,"Street":[1.0],"PostalCode":1.0},"MatchType":"interpolated","Location":{"LocationId":"NT_BPS4q--xASkCd.ARAEa5SC","LocationType":"point","DisplayPosition":{"Latitude":51.48725,"Longitude":-0.30983},"MapView":{"TopLeft":{"Latitude":51.4883742,"Longitude":-0.3116353},"BottomRight":{"Latitude":51.4861258,"Longitude":-0.3080247}},"Address":{"Label":"Boston Manor Road, Brentford, TW8 8, United Kingdom","Country":"GBR","State":"England","County":"Middlesex","City":"Brentford","District":"Brentford","Street":"Boston Manor Road","PostalCode":"TW8 8","AdditionalData":[{"value":"United Kingdom","key":"CountryName"},{"value":"England","key":"StateName"},{"value":"Middlesex","key":"CountyName"}],"Building":"Station House"},"MapReference":{"ReferenceId":"25317168","Spot":0.89,"SideOfStreet":"right","StateId":"20248595","CountyId":"20337579","CityId":"20337582","DistrictId":"20337583","AddressId":"763584673","RoadLinkId":"82764417"}}},{"Relevance":1.0,"Distance":64.0,"MatchLevel":"postalCode","MatchQuality":{"PostalCode":1.0},"MatchType":"interpolated","Location":{"LocationId":"NT_8IQU7Y9xC9XXnws4sCLlEA_1A","LocationType":"point","DisplayPosition":{"Latitude":51.48627,"Longitude":-0.31071},"MapView":{"TopLeft":{"Latitude":51.4952632,"Longitude":-0.3251522},"BottomRight":{"Latitude":51.4772768,"Longitude":-0.2962678}},"Address":{"Label":"TW8 8DF, Brentford, England, United Kingdom","Country":"GBR","State":"England","County":"Middlesex","City":"Brentford","PostalCode":"TW8 8DF","AdditionalData":[{"value":"United Kingdom","key":"CountryName"},{"value":"England","key":"StateName"},{"value":"Middlesex","key":"CountyName"}]},"MapReference":{"ReferenceId":"25492410","Spot":1.0,"SideOfStreet":"neither","StateId":"20248595","CountyId":"20337579","CityId":"20337582"}}},{"Relevance":1.0,"Distance":65.6,"MatchLevel":"houseNumber","MatchQuality":{"Country":1.0,"State":1.0,"County":1.0,"City":1.0,"District":1.0,"Street":[1.0],"HouseNumber":1.0,"PostalCode":1.0},"MatchType":"interpolated","Location":{"LocationId":"NT_Z3e3eD-vhcnhczj7502JBA_l_25317167_L_xA","LocationType":"point","DisplayPosition":{"Latitude":51.48698,"Longitude":-0.30924},"MapView":{"TopLeft":{"Latitude":51.4881042,"Longitude":-0.3110453},"BottomRight":{"Latitude":51.4858559,"Longitude":-0.3074347}},"Address":{"Label":"1 Sidney Gardens, Brentford, TW8 8DX, United Kingdom","Country":"GBR","State":"England","County":"Middlesex","City":"Brentford","District":"Brentford","Street":"Sidney Gardens","HouseNumber":"1","PostalCode":"TW8 8DX","AdditionalData":[{"value":"United Kingdom","key":"CountryName"},{"value":"England","key":"StateName"},{"value":"Middlesex","key":"CountyName"}]},"MapReference":{"ReferenceId":"25317167","Spot":0.0,"SideOfStreet":"left","StateId":"20248595","CountyId":"20337579","CityId":"20337582","DistrictId":"20337583"}}},{"Relevance":1.0,"Distance":66.4,"MatchLevel":"houseNumber","MatchQuality":{"Country":1.0,"State":1.0,"County":1.0,"City":1.0,"District":1.0,"Street":[1.0],"HouseNumber":1.0,"PostalCode":1.0},"MatchType":"interpolated","Location":{"LocationId":"NT_BPS4q--xASkCd.ARAEa5SC_l_837411371_L_yYD","LocationType":"point","DisplayPosition":{"Latitude":51.4869406,"Longitude":-0.3091612},"MapView":{"TopLeft":{"Latitude":51.4880647,"Longitude":-0.3109665},"BottomRight":{"Latitude":51.4858164,"Longitude":-0.3073559}},"Address":{"Label":"26 Boston Manor Road, Brentford, TW8 8, United Kingdom","Country":"GBR","State":"England","County":"Middlesex","City":"Brentford","District":"Brentford","Street":"Boston Manor Road","HouseNumber":"26","PostalCode":"TW8 8","AdditionalData":[{"value":"United Kingdom","key":"CountryName"},{"value":"England","key":"StateName"},{"value":"Middlesex","key":"CountyName"}]},"MapReference":{"ReferenceId":"837411371","Spot":0.51,"SideOfStreet":"left","StateId":"20248595","CountyId":"20337579","CityId":"20337582","DistrictId":"20337583"}}}]}]}}