{"Response":{"MetaInfo":{"Timestamp":"2020-03-28T10:39:26.555+0000","NextPageInformation":"2"},"View":[{"_type":"SearchResultsViewType","ViewId":0,"Result":[{"Relevance":1.0,"Distance":0.0,"Direction":0.0,"MatchLevel":"district","MatchQuality":{"Country":1.0,"State":1.0,"County":1.0,"City":1.0,"District":1.0,"PostalCode":1.0},"Location":{"LocationId":"NT_yiVLUMKCoB2cihYqqMU1UA","LocationType":"point","DisplayPosition":{"Latitude":51.4313959,"Longitude":-2.5646047},"MapView":{"TopLeft":{"Latitude":51.44165,"Longitude":-2.57999},"BottomRight":{"Latitude":51.42705,"Longitude":-2.56397}},"Address":{"Label":"Knowle, Bristol, England, United Kingdom","Country":"GBR","State":"England","County":"Avon","City":"Bristol","District":"Knowle","PostalCode":"BS4 2","AdditionalData":[{"value":"United Kingdom","key":"CountryName"},{"value":"England","key":"StateName"},{"value":"Avon","key":"CountyName"}]},"MapReference":{"ReferenceId":"883472565","SideOfStreet":"neither","StateId":"20248595","CountyId":"20352323","CityId":"20352420","DistrictId":"20352505"}}},{"Relevance":1.0,"Distance":3.8,"MatchLevel":"houseNumber","MatchQuality":{"Country":1.0,"State":1.0,"County":1.0,"City":1.0,"District":1.0,"Street":[1.0],"HouseNumber":1.0,"PostalCode":1.0},"MatchType":"interpolated","Location":{"LocationId":"NT_HteNXRmYsUE7uyQYcYiu-A_l_26732303_R_zgDM","LocationType":"point","DisplayPosition":{"Latitude":51.431336,"Longitude":-2.5647449},"MapView":{"TopLeft":{"Latitude":51.4324602,"Longitude":-2.566548},"BottomRight":{"Latitude":51.4302119,"Longitude":-2.5629418}},"Address":{"Label":"380 Wells Road, Bristol, BS4 2QP, United Kingdom","Country":"GBR","State":"England","County":"Avon","City":"Bristol","District":"Knowle","Street":"Wells Road","HouseNumber":"380","PostalCode":"BS4 2QP","AdditionalData":[{"value":"United Kingdom","key":"CountryName"},{"value":"England","key":"StateName"},{"value":"Avon","key":"CountyName"}]},"MapReference":{"ReferenceId":"26732303","Spot":0.33,"SideOfStreet":"right","StateId":"20248595","CountyId":"20352323","CityId":"20352420","DistrictId":"20352505"}}},{"Relevance":1.0,"Distance":28.5,"MatchLevel":"houseNumber","MatchQuality":{"Country":1.0,"State":1.0,"County":1.0,"City":1.0,"District":1.0,"Street":[1.0],"HouseNumber":1.0,"PostalCode":1.0},"MatchType":"interpolated","Location":{"LocationId":"NT_K4H.N4c2RoyYQE11zd9awA_l_26732202_L_2cD","LocationType":"point","DisplayPosition":{"Latitude":51.4317755,"Longitude":-2.5645015},"MapView":{"TopLeft":{"Latitude":51.4328996,"Longitude":-2.5663047},"BottomRight":{"Latitude":51.4306513,"Longitude":-2.5626984}},"Address":{"Label":"67 St Martin's Road, Bristol, BS4 2NH, United Kingdom","Country":"GBR","State":"England","County":"Avon","City":"Bristol","District":"Bristol","Street":"St Martin's Road","HouseNumber":"67","PostalCode":"BS4 2NH","AdditionalData":[{"value":"United Kingdom","key":"CountryName"},{"value":"England","key":"StateName"},{"value":"Avon","key":"CountyName"}]},"MapReference":{"ReferenceId":"26732202","Spot":0.5,"SideOfStreet":"left","StateId":"20248595","CountyId":"20352323","CityId":"20352420","DistrictId":"20352421"}}},{"Relevance":1.0,"Distance":31.8,"MatchLevel":"postalCode","MatchQuality":{"PostalCode":1.0},"MatchType":"interpolated","Location":{"LocationId":"NT_HteNXRmYsUE7uyQYcYiu-A_l_26732303_R_zgDM","LocationType":"point","DisplayPosition":{"Latitude":51.43111,"Longitude":-2.56462},"MapView":{"TopLeft":{"Latitude":51.4401032,"Longitude":-2.5790448},"BottomRight":{"Latitude":51.4221168,"Longitude":-2.5501952}},"Address":{"Label":"BS4 2QP, Bristol, England, United Kingdom","Country":"GBR","State":"England","County":"Avon","City":"Bristol","PostalCode":"BS4 2QP","AdditionalData":[{"value":"United Kingdom","key":"CountryName"},{"value":"England","key":"StateName"},{"value":"Avon","key":"CountyName"}]},"MapReference":{"ReferenceId":"26732303","Spot":0.33,"SideOfStreet":"neither","StateId":"20248595","CountyId":"20352323","CityId":"20352420"}}},{"Relevance":1.0,"Distance":50.6,"MatchLevel":"houseNumber","MatchQuality":{"Country":1.0,"State":1.0,"County":1.0,"City":1.0,"District":1.0,"Street":[1.0],"HouseNumber":1.0,"PostalCode":1.0},"MatchType":"interpolated","Location":{"LocationId":"NT_uB2lY296-d9i7VVdyHk2LB_l_1001110500_L_0AD","LocationType":"point","DisplayPosition":{"Latitude":51.43157,"Longitude":-2.56388},"MapView":{"TopLeft":{"Latitude":51.4326942,"Longitude":-2.5656831},"BottomRight":{"Latitude":51.4304459,"Longitude":-2.5620769}},"Address":{"Label":"40 St Martin's Road, Bristol, BS4 2NG, United Kingdom","Country":"GBR","State":"England","County":"Avon","City":"Bristol","District":"Bristol","Street":"St Martin's Road","HouseNumber":"40","PostalCode":"BS4 2NG","AdditionalData":[{"value":"United Kingdom","key":"CountryName"},{"value":"England","key":"StateName"},{"value":"Avon","key":"CountyName"}]},"MapReference":{"ReferenceId":"1001110500","Spot":0.37,"SideOfStreet":"left","StateId":"20248595","CountyId":"20352323","CityId":"20352420","DistrictId":"20352421"}}},{"Relevance":1.0,"Distance":58.8,"MatchLevel":"houseNumber","MatchQuality":{"Country":1.0,"State":1.0,"County":1.0,"City":1.0,"District":1.0,"Street":[1.0],"HouseNumber":1.0,"PostalCode":1.0},"MatchType":"interpolated","Location":{"LocationId":"NT_Ip8hwKhfIK1-BraLlwpoPB_l_26732304_L_xQD","LocationType":"point","DisplayPosition":{"Latitude":51.4312961,"Longitude":-2.5637714},"MapView":{"TopLeft":{"Latitude":51.4324203,"Longitude":-2.5655745},"BottomRight":{"Latitude":51.430172,"Longitude":-2.5619683}},"Address":{"Label":"14 St Martin's Gardens, Bristol, BS4 2, United Kingdom","Country":"GBR","State":"England","County":"Avon","City":"Bristol","District":"Bristol","Street":"St Martin's Gardens","HouseNumber":"14","PostalCode":"BS4 2","AdditionalData":[{"value":"United Kingdom","key":"CountryName"},{"value":"England","key":"StateName"},{"value":"Avon","key":"CountyName"}]},"MapReference":{"ReferenceId":"26732304","Spot":0.8,"SideOfStreet":"left","StateId":"20248595","CountyId":"20352323","CityId":"20352420","DistrictId":"20352421"}}},{"Relevance":1.0,"Distance":59.5,"MatchLevel":"houseNumber","MatchQuality":{"Country":1.0,"State":1.0,"County":1.0,"City":1.0,"District":1.0,"Street":[1.0],"HouseNumber":1.0,"PostalCode":1.0},"MatchType":"interpolated","Location":{"LocationId":"NT_mkhXd.7cf4ruMTNdFhXwOD_l_26732443_L_1cD","LocationType":"point","DisplayPosition":{"Latitude":51.4307836,"Longitude":-2.5648397},"MapView":{"TopLeft":{"Latitude":51.4319077,"Longitude":-2.5666428},"BottomRight":{"Latitude":51.4296594,"Longitude":-2.5630366}},"Address":{"Label":"57 Greenleaze, Bristol, BS4 2TL, United Kingdom","Country":"GBR","State":"England","County":"Avon","City":"Bristol","District":"Knowle","Street":"Greenleaze","HouseNumber":"57","PostalCode":"BS4 2TL","AdditionalData":[{"value":"United Kingdom","key":"CountryName"},{"value":"England","key":"StateName"},{"value":"Avon","key":"CountyName"}]},"MapReference":{"ReferenceId":"26732443","Spot":0.91,"SideOfStreet":"left","StateId":"20248595","CountyId":"20352323","CityId":"20352420","DistrictId":"20352505"}}},{"Relevance":1.0,"Distance":59.6,"MatchLevel":"houseNumber","MatchQuality":{"Country":1.0,"State":1.0,"County":1.0,"City":1.0,"District":1.0,"Street":[1.0],"HouseNumber":1.0,"PostalCode":1.0},"MatchType":"interpolated","Location":{"LocationId":"NT_E6SadWxWTg9vYq5wcBzu.C_l_26732368_R_zgjN","LocationType":"point","DisplayPosition":{"Latitude":51.4308125,"Longitude":-2.5645875},"MapView":{"TopLeft":{"Latitude":51.4319367,"Longitude":-2.5663906},"BottomRight":{"Latitude":51.4296884,"Longitude":-2.5627844}},"Address":{"Label":"386 Wells Road, Bristol, BS4 2QP, United Kingdom","Country":"GBR","State":"England","County":"Avon","City":"Bristol","District":"Knowle","Street":"Wells Road","HouseNumber":"386","PostalCode":"BS4 2QP","AdditionalData":[{"value":"United Kingdom","key":"CountryName"},{"value":"England","key":"StateName"},{"value":"Avon","key":"CountyName"}]},"MapReference":{"ReferenceId":"26732368","Spot":0.51,"SideOfStreet":"right","StateId":"20248595","CountyId":"20352323","CityId":"20352420","DistrictId":"20352505"}}},{"Relevance":1.0,"Distance":74.4,"MatchLevel":"postalCode","MatchQuality":{"PostalCode":1.0},"MatchType":"interpolated","Location":{"LocationId":"NT_uB2lY296-d9i7VVdyHk2LB_l_1001110501_L_zQD","LocationType":"point","DisplayPosition":{"Latitude":51.43194,"Longitude":-2.56398},"MapView":{"TopLeft":{"Latitude":51.4409332,"Longitude":-2.5784051},"BottomRight":{"Latitude":51.4229468,"Longitude":-2.5495549}},"Address":{"Label":"BS4 2ND, Bristol, England, United Kingdom","Country":"GBR","State":"England","County":"Avon","City":"Bristol","PostalCode":"BS4 2ND","AdditionalData":[{"value":"United Kingdom","key":"CountryName"},{"value":"England","key":"StateName"},{"value":"Avon","key":"CountyName"}]},"MapReference":{"ReferenceId":"1001110501","Spot":0.05,"SideOfStreet":"neither","StateId":"20248595","CountyId":"20352323","CityId":"20352420"}}},{"Relevance":1.0,"Distance":80.4,"MatchLevel":"street","MatchQuality":{"Country":1.0,"State":1.0,"County":1.0,"City":1.0,"District":1.0,"Street":[1.0],"PostalCode":1.0},"Location":{"LocationId":"NT_IMO.mi16EY5U2vCbkQVIoB_l_1001110502_L","LocationType":"point","DisplayPosition":{"Latitude":51.43202,"Longitude":-2.56402},"MapView":{"TopLeft":{"Latitude":51.43202,"Longitude":-2.56402},"BottomRight":{"Latitude":51.4318,"Longitude":-2.56372}},"Address":{"Label":"St Martins Close, Bristol, BS4 2, United Kingdom","Country":"GBR","State":"England","County":"Avon","City":"Bristol","District":"Bristol","Street":"St Martins Close","PostalCode":"BS4 2","AdditionalData":[{"value":"United Kingdom","key":"CountryName"},{"value":"England","key":"StateName"},{"value":"Avon","key":"CountyName"}]},"MapReference":{"ReferenceId":"1001110502","Spot":1.0,"SideOfStreet":"left","StateId":"20248595","CountyId":"20352323","CityId":"20352420","DistrictId":"20352421"}}}]}]}}