{"Response":{"MetaInfo":{"Timestamp":"2020-03-28T10:33:28.901+0000","NextPageInformation":"2"},"View":[{"_type":"SearchResultsViewType","ViewId":0,"Result":[{"Relevance":1.0,"Distance":0.0,"Direction":0.0,"MatchLevel":"district","MatchQuality":{"Country":1.0,"State":1.0,"County":1.0,"City":1.0,"District":1.0,"PostalCode":1.0},"Location":{"LocationId":"NT_8Q06MI4YTPOcy01-Pk7zxA","LocationType":"point","DisplayPosition":{"Latitude":51.4774042,"Longitude":-0.0727399},"MapView":{"TopLeft":{"Latitude":51.48751,"Longitude":-0.08555},"BottomRight":{"Latitude":51.461,"Longitude":-0.04913}},"Address":{"Label":"Peckham, London, England, United Kingdom","Country":"GBR","State":"England","County":"London","City":"London","District":"Peckham","PostalCode":"SE15 5","AdditionalData":[{"value":"United Kingdom","key":"CountryName"},{"value":"England","key":"StateName"},{"value":"London","key":"CountyName"}]},"MapReference":{"ReferenceId":"25404557","SideOfStreet":"neither","StateId":"20248595","CountyId":"20337453","CityId":"20337454"}}},{"Relevance":1.0,"Distance":1.7,"MatchLevel":"houseNumber","MatchQuality":{"Country":1.0,"State":1.0,"County":1.0,"City":1.0,"District":1.0,"Street":[1.0],"HouseNumber":1.0,"PostalCode":1.0},"MatchType":"interpolated","Location":{"LocationId":"NT_3iicuQPoWD4b2VQWReCLOB_xAzN","LocationType":"point","DisplayPosition":{"Latitude":51.47725,"Longitude":-0.0727},"MapView":{"TopLeft":{"Latitude":51.4783742,"Longitude":-0.0745049},"BottomRight":{"Latitude":51.4761258,"Longitude":-0.0708951}},"Address":{"Label":"107 Commercial Way, London, SE15 6DB, United Kingdom","Country":"GBR","State":"England","County":"London","City":"London","District":"Peckham","Street":"Commercial Way","HouseNumber":"107","PostalCode":"SE15 6DB","AdditionalData":[{"value":"United Kingdom","key":"CountryName"},{"value":"England","key":"StateName"},{"value":"London","key":"CountyName"}]},"MapReference":{"ReferenceId":"565979659","Spot":0.33,"SideOfStreet":"left","StateId":"20248595","CountyId":"20337453","CityId":"20337454","AddressId":"748210726","RoadLinkId":"82982673"}}},{"Relevance":1.0,"Distance":23.1,"MatchLevel":"postalCode","MatchQuality":{"PostalCode":1.0},"MatchType":"interpolated","Location":{"LocationId":"NT_3iicuQPoWD4b2VQWReCLOB_xAzN","LocationType":"point","DisplayPosition":{"Latitude":51.4772,"Longitude":-0.07268},"MapView":{"TopLeft":{"Latitude":51.4861932,"Longitude":-0.0871194},"BottomRight":{"Latitude":51.4682068,"Longitude":-0.0582406}},"Address":{"Label":"SE15 5GQ, London, England, United Kingdom","Country":"GBR","State":"England","County":"London","City":"London","PostalCode":"SE15 5GQ","AdditionalData":[{"value":"United Kingdom","key":"CountryName"},{"value":"England","key":"StateName"},{"value":"London","key":"CountyName"}]},"MapReference":{"ReferenceId":"565979659","Spot":0.33,"SideOfStreet":"neither","StateId":"20248595","CountyId":"20337453","CityId":"20337454"}}},{"Relevance":1.0,"Distance":23.4,"MatchLevel":"houseNumber","MatchQuality":{"Country":1.0,"State":1.0,"County":1.0,"City":1.0,"District":1.0,"Street":[1.0],"HouseNumber":1.0,"PostalCode":1.0},"MatchType":"interpolated","Location":{"LocationId":"NT_jG2056m19YDpIdC3sfFG3C_xYTO","LocationType":"point","DisplayPosition":{"Latitude":51.47733,"Longitude":-0.07324},"MapView":{"TopLeft":{"Latitude":51.4784542,"Longitude":-0.0750449},"BottomRight":{"Latitude":51.4762058,"Longitude":-0.0714351}},"Address":{"Label":"169 Sumner Road, London, SE15 6JW, United Kingdom","Country":"GBR","State":"England","County":"London","City":"London","District":"Peckham","Street":"Sumner Road","HouseNumber":"169","PostalCode":"SE15 6JW","AdditionalData":[{"value":"United Kingdom","key":"CountryName"},{"value":"England","key":"StateName"},{"value":"London","key":"CountyName"}]},"MapReference":{"ReferenceId":"25403598","Spot":0.18,"SideOfStreet":"right","StateId":"20248595","CountyId":"20337453","CityId":"20337454","AddressId":"747870469","RoadLinkId":"82360550"}}},{"Relevance":1.0,"Distance":30.7,"MatchLevel":"street","MatchQuality":{"Country":1.0,"State":1.0,"County":1.0,"City":1.0,"District":1.0,"PostalCode":1.0},"Location":{"LocationId":"NT_t8rglYke0gNIVTrvFjGAcD_l_1183008517_L","LocationType":"point","DisplayPosition":{"Latitude":51.4776799,"Longitude":-0.0727192},"MapView":{"TopLeft":{"Latitude":51.47815,"Longitude":-0.07289},"BottomRight":{"Latitude":51.47765,"Longitude":-0.07202}},"Address":{"Label":"London, SE15 6, United Kingdom","Country":"GBR","State":"England","County":"London","City":"London","District":"Peckham","PostalCode":"SE15 6","AdditionalData":[{"value":"United Kingdom","key":"CountryName"},{"value":"England","key":"StateName"},{"value":"London","key":"CountyName"}]},"MapReference":{"ReferenceId":"1183008517","Spot":0.6,"SideOfStreet":"left","StateId":"20248595","CountyId":"20337453","CityId":"20337454"}}},{"Relevance":1.0,"Distance":30.9,"MatchLevel":"postalCode","MatchQuality":{"PostalCode":1.0},"MatchType":"interpolated","Location":{"LocationId":"NT_jG2056m19YDpIdC3sfFG3C_xYTO","LocationType":"point","DisplayPosition":{"Latitude":51.47736,"Longitude":-0.07318},"MapView":{"TopLeft":{"Latitude":51.4863532,"Longitude":-0.0876194},"BottomRight":{"Latitude":51.4683668,"Longitude":-0.0587406}},"Address":{"Label":"SE15 6JW, London, England, United Kingdom","Country":"GBR","State":"England","County":"London","City":"London","PostalCode":"SE15 6JW","AdditionalData":[{"value":"United Kingdom","key":"CountryName"},{"value":"England","key":"StateName"},{"value":"London","key":"CountyName"}]},"MapReference":{"ReferenceId":"25403598","Spot":0.18,"SideOfStreet":"neither","StateId":"20248595","CountyId":"20337453","CityId":"20337454"}}},{"Relevance":1.0,"Distance":38.6,"MatchLevel":"postalCode","MatchQuality":{"PostalCode":1.0},"MatchType":"interpolated","Location":{"LocationId":"NT_3iicuQPoWD4b2VQWReCLOB_5UD","LocationType":"point","DisplayPosition":{"Latitude":51.47732,"Longitude":-0.07328},"MapView":{"TopLeft":{"Latitude":51.4863132,"Longitude":-0.0877194},"BottomRight":{"Latitude":51.4683268,"Longitude":-0.0588406}},"Address":{"Label":"SE15 6DB, London, England, United Kingdom","Country":"GBR","State":"England","County":"London","City":"London","PostalCode":"SE15 6DB","AdditionalData":[{"value":"United Kingdom","key":"CountryName"},{"value":"England","key":"StateName"},{"value":"London","key":"CountyName"}]},"MapReference":{"ReferenceId":"77739825","Spot":0.71,"SideOfStreet":"neither","StateId":"20248595","CountyId":"20337453","CityId":"20337454"}}},{"Relevance":1.0,"Distance":49.5,"MatchLevel":"houseNumber","MatchQuality":{"Country":1.0,"State":1.0,"County":1.0,"City":1.0,"District":1.0,"Street":[1.0],"HouseNumber":1.0,"PostalCode":1.0},"MatchType":"interpolated","Location":{"LocationId":"NT_jG2056m19YDpIdC3sfFG3C_xcTM","LocationType":"point","DisplayPosition":{"Latitude":51.47692,"Longitude":-0.07302},"MapView":{"TopLeft":{"Latitude":51.4780442,"Longitude":-0.0748249},"BottomRight":{"Latitude":51.4757958,"Longitude":-0.0712151}},"Address":{"Label":"171 Sumner Road, London, SE15 6, United Kingdom","Country":"GBR","State":"England","County":"London","City":"London","District":"Peckham","Street":"Sumner Road","HouseNumber":"171","PostalCode":"SE15 6","AdditionalData":[{"value":"United Kingdom","key":"CountryName"},{"value":"England","key":"StateName"},{"value":"London","key":"CountyName"}]},"MapReference":{"ReferenceId":"77739814","Spot":0.46,"SideOfStreet":"right","StateId":"20248595","CountyId":"20337453","CityId":"20337454","AddressId":"748383869","RoadLinkId":"82358182"}}},{"Relevance":1.0,"Distance":52.1,"MatchLevel":"houseNumber","MatchQuality":{"Country":1.0,"State":1.0,"County":1.0,"City":1.0,"District":1.0,"Street":[1.0],"HouseNumber":1.0,"PostalCode":1.0},"MatchType":"interpolated","Location":{"LocationId":"NT_3rMwwR3JqcJcEM0t41Su5B_xED","LocationType":"point","DisplayPosition":{"Latitude":51.47697,"Longitude":-0.07209},"MapView":{"TopLeft":{"Latitude":51.4780942,"Longitude":-0.0738949},"BottomRight":{"Latitude":51.4758458,"Longitude":-0.0702851}},"Address":{"Label":"11 Ashmore Close, London, SE15 5GY, United Kingdom","Country":"GBR","State":"England","County":"London","City":"London","District":"Peckham","Street":"Ashmore Close","HouseNumber":"11","PostalCode":"SE15 5GY","AdditionalData":[{"value":"United Kingdom","key":"CountryName"},{"value":"England","key":"StateName"},{"value":"London","key":"CountyName"}]},"MapReference":{"ReferenceId":"565979694","Spot":1.0,"SideOfStreet":"left","StateId":"20248595","CountyId":"20337453","CityId":"20337454","AddressId":"748121730","RoadLinkId":"82582869"}}},{"Relevance":1.0,"Distance":56.4,"MatchLevel":"houseNumber","MatchQuality":{"Country":1.0,"State":1.0,"County":1.0,"City":1.0,"District":1.0,"Street":[1.0],"HouseNumber":1.0,"PostalCode":1.0},"MatchType":"interpolated","Location":{"LocationId":"NT_8aOJS8rDwRqXXx68H4IrwC_xED","LocationType":"point","DisplayPosition":{"Latitude":51.47718,"Longitude":-0.07201},"MapView":{"TopLeft":{"Latitude":51.4783042,"Longitude":-0.0738149},"BottomRight":{"Latitude":51.4760558,"Longitude":-0.0702051}},"Address":{"Label":"11 Compton Close, London, SE15 5, United Kingdom","Country":"GBR","State":"England","County":"London","City":"London","District":"Peckham","Street":"Compton Close","HouseNumber":"11","PostalCode":"SE15 5","AdditionalData":[{"value":"United Kingdom","key":"CountryName"},{"value":"England","key":"StateName"},{"value":"London","key":"CountyName"}]},"MapReference":{"ReferenceId":"565979663","Spot":0.0,"SideOfStreet":"right","StateId":"20248595","CountyId":"20337453","CityId":"20337454","AddressId":"748404542","RoadLinkId":"82494035"}}}]}]}}