{"Response":{"MetaInfo":{"Timestamp":"2020-03-28T10:08:03.861+0000","NextPageInformation":"2"},"View":[{"_type":"SearchResultsViewType","ViewId":0,"Result":[{"Relevance":1.0,"Distance":0.0,"Direction":0.0,"MatchLevel":"district","MatchQuality":{"Country":1.0,"State":1.0,"County":1.0,"City":1.0,"District":1.0,"PostalCode":1.0},"Location":{"LocationId":"NT_ZxuQyfg.hh5Js55C1pbvsA","LocationType":"point","DisplayPosition":{"Latitude":51.4092749,"Longitude":0.0085126},"MapView":{"TopLeft":{"Latitude":51.43574,"Longitude":-0.01399},"BottomRight":{"Latitude":51.36292,"Longitude":0.06942}},"Address":{"Label":"Bromley, England, United Kingdom","Country":"GBR","State":"England","County":"Kent","City":"Bromley","District":"Bromley","PostalCode":"BR1 1","AdditionalData":[{"value":"United Kingdom","key":"CountryName"},{"value":"England","key":"StateName"},{"value":"Kent","key":"CountyName"}]},"MapReference":{"ReferenceId":"25444441","SideOfStreet":"neither","StateId":"20248595","CountyId":"20336836","CityId":"20336917","DistrictId":"20336918"}}},{"Relevance":1.0,"Distance":2.9,"MatchLevel":"houseNumber","MatchQuality":{"Country":1.0,"State":1.0,"County":1.0,"City":1.0,"District":1.0,"Street":[1.0],"HouseNumber":1.0,"PostalCode":1.0},"MatchType":"interpolated","Location":{"LocationId":"NT_xzXsaSpUfL4MXquUfdAhjB_xgD","LocationType":"point","DisplayPosition":{"Latitude":51.40933,"Longitude":0.00888},"MapView":{"TopLeft":{"Latitude":51.4104542,"Longitude":0.0070778},"BottomRight":{"Latitude":51.4082058,"Longitude":0.0106822}},"Address":{"Label":"18 Blyth Road, Bromley, BR1 3RX, United Kingdom","Country":"GBR","State":"England","County":"Kent","City":"Bromley","District":"Bromley","Street":"Blyth Road","HouseNumber":"18","PostalCode":"BR1 3RX","AdditionalData":[{"value":"United Kingdom","key":"CountryName"},{"value":"England","key":"StateName"},{"value":"Kent","key":"CountyName"}]},"MapReference":{"ReferenceId":"865313210","Spot":0.78,"SideOfStreet":"left","StateId":"20248595","CountyId":"20336836","CityId":"20336917","DistrictId":"20336918","AddressId":"748794189","RoadLinkId":"238623340"}}},{"Relevance":1.0,"Distance":25.4,"MatchLevel":"houseNumber","MatchQuality":{"Country":1.0,"State":1.0,"County":1.0,"City":1.0,"District":1.0,"Street":[1.0],"HouseNumber":1.0,"PostalCode":1.0},"MatchType":"interpolated","Location":{"LocationId":"NT_6ZYBvj.RYA2C0qxCJ7lFyC_5A","LocationType":"point","DisplayPosition":{"Latitude":51.4092,"Longitude":0.00793},"MapView":{"TopLeft":{"Latitude":51.4103242,"Longitude":0.0061278},"BottomRight":{"Latitude":51.4080758,"Longitude":0.0097322}},"Address":{"Label":"11 Bracken Hill Lane, Bromley, BR1 4AJ, United Kingdom","Country":"GBR","State":"England","County":"Kent","City":"Bromley","District":"Bromley","Street":"Bracken Hill Lane","HouseNumber":"11","PostalCode":"BR1 4AJ","AdditionalData":[{"value":"United Kingdom","key":"CountryName"},{"value":"England","key":"StateName"},{"value":"Kent","key":"CountyName"}]},"MapReference":{"ReferenceId":"25424288","Spot":0.02,"SideOfStreet":"right","StateId":"20248595","CountyId":"20336836","CityId":"20336917","DistrictId":"20336918","AddressId":"748913023","RoadLinkId":"82517574"}}},{"Relevance":1.0,"Distance":29.0,"MatchLevel":"postalCode","MatchQuality":{"PostalCode":1.0},"MatchType":"interpolated","Location":{"LocationId":"NT_xzXsaSpUfL4MXquUfdAhjB_xgD","LocationType":"point","DisplayPosition":{"Latitude":51.40914,"Longitude":0.00887},"MapView":{"TopLeft":{"Latitude":51.4181332,"Longitude":-0.0055479},"BottomRight":{"Latitude":51.4001468,"Longitude":0.0232879}},"Address":{"Label":"BR1 3RY, Bromley, England, United Kingdom","Country":"GBR","State":"England","County":"Kent","City":"Bromley","PostalCode":"BR1 3RY","AdditionalData":[{"value":"United Kingdom","key":"CountryName"},{"value":"England","key":"StateName"},{"value":"Kent","key":"CountyName"}]},"MapReference":{"ReferenceId":"865313210","Spot":0.78,"SideOfStreet":"neither","StateId":"20248595","CountyId":"20336836","CityId":"20336917"}}},{"Relevance":1.0,"Distance":34.8,"MatchLevel":"houseNumber","MatchQuality":{"Country":1.0,"State":1.0,"County":1.0,"City":1.0,"District":1.0,"Street":[1.0],"HouseNumber":1.0,"PostalCode":1.0},"MatchType":"interpolated","Location":{"LocationId":"NT_6ZYBvj.RYA2C0qxCJ7lFyC_xkD","LocationType":"point","DisplayPosition":{"Latitude":51.40904,"Longitude":0.00797},"MapView":{"TopLeft":{"Latitude":51.4101642,"Longitude":0.0061678},"BottomRight":{"Latitude":51.4079158,"Longitude":0.0097722}},"Address":{"Label":"19 Bracken Hill Lane, Bromley, BR1 4AJ, United Kingdom","Country":"GBR","State":"England","County":"Kent","City":"Bromley","District":"Bromley","Street":"Bracken Hill Lane","HouseNumber":"19","PostalCode":"BR1 4AJ","AdditionalData":[{"value":"United Kingdom","key":"CountryName"},{"value":"England","key":"StateName"},{"value":"Kent","key":"CountyName"}]},"MapReference":{"ReferenceId":"778373165","Spot":0.68,"SideOfStreet":"right","StateId":"20248595","CountyId":"20336836","CityId":"20336917","DistrictId":"20336918","AddressId":"748823536","RoadLinkId":"171795060"}}},{"Relevance":1.0,"Distance":37.1,"MatchLevel":"houseNumber","MatchQuality":{"Country":1.0,"State":1.0,"County":1.0,"City":1.0,"District":1.0,"Street":[1.0],"HouseNumber":1.0,"PostalCode":1.0},"MatchType":"interpolated","Location":{"LocationId":"NT_lXbGqIatVm5SX6bpB3VArA_xUD","LocationType":"point","DisplayPosition":{"Latitude":51.40965,"Longitude":0.00816},"MapView":{"TopLeft":{"Latitude":51.4107742,"Longitude":0.0063577},"BottomRight":{"Latitude":51.4085258,"Longitude":0.0099623}},"Address":{"Label":"15 Karen Court, Bromley, BR1 3, United Kingdom","Country":"GBR","State":"England","County":"Kent","City":"Bromley","District":"Bromley","Street":"Karen Court","HouseNumber":"15","PostalCode":"BR1 3","AdditionalData":[{"value":"United Kingdom","key":"CountryName"},{"value":"England","key":"StateName"},{"value":"Kent","key":"CountyName"}]},"MapReference":{"ReferenceId":"25487648","Spot":1.0,"SideOfStreet":"left","StateId":"20248595","CountyId":"20336836","CityId":"20336917","DistrictId":"20336918","AddressId":"763554368","RoadLinkId":"82418299"}}},{"Relevance":1.0,"Distance":53.2,"MatchLevel":"postalCode","MatchQuality":{"PostalCode":1.0},"MatchType":"interpolated","Location":{"LocationId":"NT_lXbGqIatVm5SX6bpB3VArA_xUD","LocationType":"point","DisplayPosition":{"Latitude":51.4097,"Longitude":0.00816},"MapView":{"TopLeft":{"Latitude":51.4186932,"Longitude":-0.006258},"BottomRight":{"Latitude":51.4007068,"Longitude":0.022578}},"Address":{"Label":"BR1 3RZ, Bromley, England, United Kingdom","Country":"GBR","State":"England","County":"Kent","City":"Bromley","PostalCode":"BR1 3RZ","AdditionalData":[{"value":"United Kingdom","key":"CountryName"},{"value":"England","key":"StateName"},{"value":"Kent","key":"CountyName"}]},"MapReference":{"ReferenceId":"25487648","Spot":1.0,"SideOfStreet":"neither","StateId":"20248595","CountyId":"20336836","CityId":"20336917"}}},{"Relevance":1.0,"Distance":60.2,"MatchLevel":"houseNumber","MatchQuality":{"Country":1.0,"State":1.0,"County":1.0,"City":1.0,"District":1.0,"Street":[1.0],"HouseNumber":1.0,"PostalCode":1.0},"MatchType":"interpolated","Location":{"LocationId":"NT_xzXsaSpUfL4MXquUfdAhjB_xA","LocationType":"point","DisplayPosition":{"Latitude":51.4097,"Longitude":0.00905},"MapView":{"TopLeft":{"Latitude":51.4108242,"Longitude":0.0072477},"BottomRight":{"Latitude":51.4085758,"Longitude":0.0108523}},"Address":{"Label":"1 Blyth Road, Bromley, BR1 3RS, United Kingdom","Country":"GBR","State":"England","County":"Kent","City":"Bromley","District":"Bromley","Street":"Blyth Road","HouseNumber":"1","PostalCode":"BR1 3RS","AdditionalData":[{"value":"United Kingdom","key":"CountryName"},{"value":"England","key":"StateName"},{"value":"Kent","key":"CountyName"}]},"MapReference":{"ReferenceId":"25487647","Spot":0.13,"SideOfStreet":"right","StateId":"20248595","CountyId":"20336836","CityId":"20336917","DistrictId":"20336918","AddressId":"763498601","RoadLinkId":"83001359"}}},{"Relevance":1.0,"Distance":63.3,"MatchLevel":"houseNumber","MatchQuality":{"Country":1.0,"State":1.0,"County":1.0,"City":1.0,"District":1.0,"Street":[1.0],"HouseNumber":1.0,"PostalCode":1.0},"MatchType":"interpolated","Location":{"LocationId":"NT_l0tMFoVD6.5vkR5BMjG1bC_yA","LocationType":"point","DisplayPosition":{"Latitude":51.40918,"Longitude":0.00761},"MapView":{"TopLeft":{"Latitude":51.4103042,"Longitude":0.0058078},"BottomRight":{"Latitude":51.4080558,"Longitude":0.0094122}},"Address":{"Label":"2 Bracken Hill Close, Bromley, BR1 4AL, United Kingdom","Country":"GBR","State":"England","County":"Kent","City":"Bromley","District":"Bromley","Street":"Bracken Hill Close","HouseNumber":"2","PostalCode":"BR1 4AL","AdditionalData":[{"value":"United Kingdom","key":"CountryName"},{"value":"England","key":"StateName"},{"value":"Kent","key":"CountyName"}]},"MapReference":{"ReferenceId":"25424368","Spot":0.66,"SideOfStreet":"left","StateId":"20248595","CountyId":"20336836","CityId":"20336917","DistrictId":"20336918","AddressId":"763550703","RoadLinkId":"82568831"}}},{"Relevance":1.0,"Distance":66.0,"MatchLevel":"postalCode","MatchQuality":{"PostalCode":1.0},"MatchType":"interpolated","Location":{"LocationId":"NT_xzXsaSpUfL4MXquUfdAhjB_xA","LocationType":"point","DisplayPosition":{"Latitude":51.40976,"Longitude":0.00906},"MapView":{"TopLeft":{"Latitude":51.4187532,"Longitude":-0.0053581},"BottomRight":{"Latitude":51.4007668,"Longitude":0.0234781}},"Address":{"Label":"BR1 3RX, Bromley, England, United Kingdom","Country":"GBR","State":"England","County":"Kent","City":"Bromley","PostalCode":"BR1 3RX","AdditionalData":[{"value":"United Kingdom","key":"CountryName"},{"value":"England","key":"StateName"},{"value":"Kent","key":"CountyName"}]},"MapReference":{"ReferenceId":"25487647","Spot":0.13,"SideOfStreet":"neither","StateId":"20248595","CountyId":"20336836","CityId":"20336917"}}}]}]}}