{"Response":{"MetaInfo":{"Timestamp":"2020-03-28T11:57:48.725+0000","NextPageInformation":"2"},"View":[{"_type":"SearchResultsViewType","ViewId":0,"Result":[{"Relevance":1.0,"Distance":0.0,"Direction":0.0,"MatchLevel":"district","MatchQuality":{"Country":1.0,"State":1.0,"County":1.0,"City":1.0,"District":1.0,"PostalCode":1.0},"Location":{"LocationId":"NT_rUpwhtjWk9AKavcdMqp9XC","LocationType":"point","DisplayPosition":{"Latitude":51.4924228,"Longitude":-0.1398103},"MapView":{"TopLeft":{"Latitude":51.49791,"Longitude":-0.14671},"BottomRight":{"Latitude":51.49018,"Longitude":-0.13277}},"Address":{"Label":"Victoria, London, England, United Kingdom","Country":"GBR","State":"England","County":"London","City":"London","District":"Victoria","PostalCode":"SW1V 1","AdditionalData":[{"value":"United Kingdom","key":"CountryName"},{"value":"England","key":"StateName"},{"value":"London","key":"CountyName"}]},"MapReference":{"ReferenceId":"834202501","SideOfStreet":"neither","StateId":"20248595","CountyId":"20337453","CityId":"20337454"}}},{"Relevance":1.0,"Distance":4.3,"MatchLevel":"houseNumber","MatchQuality":{"Country":1.0,"State":1.0,"County":1.0,"City":1.0,"District":1.0,"Street":[1.0],"HouseNumber":1.0,"PostalCode":1.0},"MatchType":"interpolated","Location":{"LocationId":"NT_n8Sx1fKcr6NQvnROdmBihD_yUD","LocationType":"point","DisplayPosition":{"Latitude":51.49231,"Longitude":-0.13965},"MapView":{"TopLeft":{"Latitude":51.4934342,"Longitude":-0.1414555},"BottomRight":{"Latitude":51.4911858,"Longitude":-0.1378445}},"Address":{"Label":"25 Warwick Way, London, SW1V 1JH, United Kingdom","Country":"GBR","State":"England","County":"London","City":"London","District":"Victoria","Street":"Warwick Way","HouseNumber":"25","PostalCode":"SW1V 1JH","AdditionalData":[{"value":"United Kingdom","key":"CountryName"},{"value":"England","key":"StateName"},{"value":"London","key":"CountyName"}]},"MapReference":{"ReferenceId":"25309524","Spot":0.28,"SideOfStreet":"left","StateId":"20248595","CountyId":"20337453","CityId":"20337454","AddressId":"748406883","RoadLinkId":"82672644"}}},{"Relevance":1.0,"Distance":10.4,"MatchLevel":"houseNumber","MatchQuality":{"Country":1.0,"State":1.0,"County":1.0,"City":1.0,"District":1.0,"Street":[1.0],"HouseNumber":1.0,"PostalCode":1.0},"MatchType":"interpolated","Location":{"LocationId":"NT_y4eq6wrg5R.bGCfNbJ4L6A_4QD","LocationType":"point","DisplayPosition":{"Latitude":51.49237,"Longitude":-0.14007},"MapView":{"TopLeft":{"Latitude":51.4934942,"Longitude":-0.1418755},"BottomRight":{"Latitude":51.4912458,"Longitude":-0.1382645}},"Address":{"Label":"84 Wilton Road, London, SW1V 1, United Kingdom","Country":"GBR","State":"England","County":"London","City":"London","District":"Victoria","Street":"Wilton Road","HouseNumber":"84","PostalCode":"SW1V 1","AdditionalData":[{"value":"United Kingdom","key":"CountryName"},{"value":"England","key":"StateName"},{"value":"London","key":"CountyName"}]},"MapReference":{"ReferenceId":"25309525","Spot":0.34,"SideOfStreet":"right","StateId":"20248595","CountyId":"20337453","CityId":"20337454","AddressId":"747791259","RoadLinkId":"83015356"}}},{"Relevance":1.0,"Distance":22.9,"MatchLevel":"postalCode","MatchQuality":{"PostalCode":1.0},"MatchType":"interpolated","Location":{"LocationId":"NT_ocvQzcxNaTfwOjbdFdQgGA_5A","LocationType":"point","DisplayPosition":{"Latitude":51.49242,"Longitude":-0.13948},"MapView":{"TopLeft":{"Latitude":51.5014132,"Longitude":-0.1539242},"BottomRight":{"Latitude":51.4834268,"Longitude":-0.1250358}},"Address":{"Label":"SW1V 1JH, London, England, United Kingdom","Country":"GBR","State":"England","County":"London","City":"London","PostalCode":"SW1V 1JH","AdditionalData":[{"value":"United Kingdom","key":"CountryName"},{"value":"England","key":"StateName"},{"value":"London","key":"CountyName"}]},"MapReference":{"ReferenceId":"1159720495","Spot":0.09,"SideOfStreet":"neither","StateId":"20248595","CountyId":"20337453","CityId":"20337454"}}},{"Relevance":1.0,"Distance":24.5,"MatchLevel":"postalCode","MatchQuality":{"PostalCode":1.0},"MatchType":"interpolated","Location":{"LocationId":"NT_y4eq6wrg5R.bGCfNbJ4L6A_4QD","LocationType":"point","DisplayPosition":{"Latitude":51.49239,"Longitude":-0.14016},"MapView":{"TopLeft":{"Latitude":51.5013832,"Longitude":-0.1546042},"BottomRight":{"Latitude":51.4833968,"Longitude":-0.1257158}},"Address":{"Label":"SW1V 1QS, London, England, United Kingdom","Country":"GBR","State":"England","County":"London","City":"London","PostalCode":"SW1V 1QS","AdditionalData":[{"value":"United Kingdom","key":"CountryName"},{"value":"England","key":"StateName"},{"value":"London","key":"CountyName"}]},"MapReference":{"ReferenceId":"25309525","Spot":0.34,"SideOfStreet":"neither","StateId":"20248595","CountyId":"20337453","CityId":"20337454"}}},{"Relevance":1.0,"Distance":25.9,"MatchLevel":"houseNumber","MatchQuality":{"Country":1.0,"State":1.0,"County":1.0,"City":1.0,"District":1.0,"Street":[1.0],"HouseNumber":1.0,"PostalCode":1.0},"MatchType":"interpolated","Location":{"LocationId":"NT_rdw-g7J5lOFLeE-rIEQdFD_yA","LocationType":"point","DisplayPosition":{"Latitude":51.49217,"Longitude":-0.13992},"MapView":{"TopLeft":{"Latitude":51.4932942,"Longitude":-0.1417255},"BottomRight":{"Latitude":51.4910458,"Longitude":-0.1381145}},"Address":{"Label":"2 Denbigh Street, London, SW1V 2ER, United Kingdom","Country":"GBR","State":"England","County":"London","City":"London","District":"Pimlico","Street":"Denbigh Street","HouseNumber":"2","PostalCode":"SW1V 2ER","AdditionalData":[{"value":"United Kingdom","key":"CountryName"},{"value":"England","key":"StateName"},{"value":"London","key":"CountyName"}]},"MapReference":{"ReferenceId":"1152026865","Spot":0.87,"SideOfStreet":"right","StateId":"20248595","CountyId":"20337453","CityId":"20337454","AddressId":"748386324","RoadLinkId":"457357883"}}},{"Relevance":1.0,"Distance":31.3,"MatchLevel":"postalCode","MatchQuality":{"PostalCode":1.0},"MatchType":"interpolated","Location":{"LocationId":"NT_n8Sx1fKcr6NQvnROdmBihD_yUD","LocationType":"point","DisplayPosition":{"Latitude":51.49245,"Longitude":-0.13936},"MapView":{"TopLeft":{"Latitude":51.5014432,"Longitude":-0.1538042},"BottomRight":{"Latitude":51.4834568,"Longitude":-0.1249158}},"Address":{"Label":"SW1V 1QT, London, England, United Kingdom","Country":"GBR","State":"England","County":"London","City":"London","PostalCode":"SW1V 1QT","AdditionalData":[{"value":"United Kingdom","key":"CountryName"},{"value":"England","key":"StateName"},{"value":"London","key":"CountyName"}]},"MapReference":{"ReferenceId":"25309524","Spot":0.28,"SideOfStreet":"neither","StateId":"20248595","CountyId":"20337453","CityId":"20337454"}}},{"Relevance":1.0,"Distance":35.9,"MatchLevel":"houseNumber","MatchQuality":{"Country":1.0,"State":1.0,"County":1.0,"City":1.0,"District":1.0,"Street":[1.0],"HouseNumber":1.0,"PostalCode":1.0},"MatchType":"interpolated","Location":{"LocationId":"NT_ocvQzcxNaTfwOjbdFdQgGA_5A","LocationType":"point","DisplayPosition":{"Latitude":51.49278,"Longitude":-0.13995},"MapView":{"TopLeft":{"Latitude":51.4939042,"Longitude":-0.1417555},"BottomRight":{"Latitude":51.4916558,"Longitude":-0.1381445}},"Address":{"Label":"11 Longmoore Street, London, SW1V 1TA, United Kingdom","Country":"GBR","State":"England","County":"London","City":"London","District":"Victoria","Street":"Longmoore Street","HouseNumber":"11","PostalCode":"SW1V 1TA","AdditionalData":[{"value":"United Kingdom","key":"CountryName"},{"value":"England","key":"StateName"},{"value":"London","key":"CountyName"}]},"MapReference":{"ReferenceId":"1159720495","Spot":0.09,"SideOfStreet":"right","StateId":"20248595","CountyId":"20337453","CityId":"20337454","AddressId":"747712748","RoadLinkId":"466362184"}}},{"Relevance":1.0,"Distance":37.9,"MatchLevel":"houseNumber","MatchQuality":{"Country":1.0,"State":1.0,"County":1.0,"City":1.0,"District":1.0,"Street":[1.0],"HouseNumber":1.0,"PostalCode":1.0},"MatchType":"interpolated","Location":{"LocationId":"NT_n8Sx1fKcr6NQvnROdmBihD_zED","LocationType":"point","DisplayPosition":{"Latitude":51.49216,"Longitude":-0.14016},"MapView":{"TopLeft":{"Latitude":51.4932842,"Longitude":-0.1419655},"BottomRight":{"Latitude":51.4910358,"Longitude":-0.1383545}},"Address":{"Label":"31 Warwick Way, London, SW1V 1, United Kingdom","Country":"GBR","State":"England","County":"London","City":"London","District":"Victoria","Street":"Warwick Way","HouseNumber":"31","PostalCode":"SW1V 1","AdditionalData":[{"value":"United Kingdom","key":"CountryName"},{"value":"England","key":"StateName"},{"value":"London","key":"CountyName"}]},"MapReference":{"ReferenceId":"25309584","Spot":0.77,"SideOfStreet":"left","StateId":"20248595","CountyId":"20337453","CityId":"20337454","AddressId":"748584421","RoadLinkId":"82383073"}}},{"Relevance":1.0,"Distance":40.4,"MatchLevel":"street","MatchQuality":{"Country":1.0,"State":1.0,"County":1.0,"City":1.0,"District":1.0,"Street":[1.0],"PostalCode":1.0},"Location":{"LocationId":"NT_rw0ajhfgshfkD0.qcZoQmC_l_1159720494_R","LocationType":"point","DisplayPosition":{"Latitude":51.49277,"Longitude":-0.13998},"MapView":{"TopLeft":{"Latitude":51.49277,"Longitude":-0.14038},"BottomRight":{"Latitude":51.49261,"Longitude":-0.13998}},"Address":{"Label":"Longmoore Street, London, SW1V 1, United Kingdom","Country":"GBR","State":"England","County":"London","City":"London","District":"Victoria","Street":"Longmoore Street","PostalCode":"SW1V 1","AdditionalData":[{"value":"United Kingdom","key":"CountryName"},{"value":"England","key":"StateName"},{"value":"London","key":"CountyName"}]},"MapReference":{"ReferenceId":"1159720494","Spot":1.0,"SideOfStreet":"right","StateId":"20248595","CountyId":"20337453","CityId":"20337454"}}}]}]}}