{"Response":{"MetaInfo":{"Timestamp":"2020-03-28T09:52:53.312+0000","NextPageInformation":"2"},"View":[{"_type":"SearchResultsViewType","ViewId":0,"Result":[{"Relevance":1.0,"Distance":0.0,"Direction":0.0,"MatchLevel":"district","MatchQuality":{"Country":1.0,"State":1.0,"County":1.0,"City":1.0,"District":1.0,"PostalCode":1.0},"Location":{"LocationId":"NT_g5-FBj1SmEDpCiIbmgFF6C","LocationType":"point","DisplayPosition":{"Latitude":51.4163379,"Longitude":-2.4984379},"MapView":{"TopLeft":{"Latitude":51.42715,"Longitude":-2.52011},"BottomRight":{"Latitude":51.39687,"Longitude":-2.46996}},"Address":{"Label":"Keynsham, Bristol, England, United Kingdom","Country":"GBR","State":"England","County":"Avon","City":"Bristol","District":"Keynsham","PostalCode":"BS31 1","AdditionalData":[{"value":"United Kingdom","key":"CountryName"},{"value":"England","key":"StateName"},{"value":"Avon","key":"CountyName"}]},"MapReference":{"ReferenceId":"1197555300","SideOfStreet":"neither","StateId":"20248595","CountyId":"20352323","CityId":"20352420","DistrictId":"20352502"}}},{"Relevance":1.0,"Distance":17.7,"MatchLevel":"houseNumber","MatchQuality":{"Country":1.0,"State":1.0,"County":1.0,"City":1.0,"District":1.0,"Street":[1.0],"HouseNumber":1.0,"PostalCode":1.0},"MatchType":"interpolated","Location":{"LocationId":"NT_m5xtjbdkJ5SChHmZhAaNsD_l_26734282_R_zMD","LocationType":"point","DisplayPosition":{"Latitude":51.4164001,"Longitude":-2.4987301},"MapView":{"TopLeft":{"Latitude":51.4175243,"Longitude":-2.5005326},"BottomRight":{"Latitude":51.415276,"Longitude":-2.4969275}},"Address":{"Label":"33 High Street, Bristol, BS31 1DP, United Kingdom","Country":"GBR","State":"England","County":"Avon","City":"Bristol","District":"Keynsham","Street":"High Street","HouseNumber":"33","PostalCode":"BS31 1DP","AdditionalData":[{"value":"United Kingdom","key":"CountryName"},{"value":"England","key":"StateName"},{"value":"Avon","key":"CountyName"}]},"MapReference":{"ReferenceId":"26734282","Spot":0.1,"SideOfStreet":"right","StateId":"20248595","CountyId":"20352323","CityId":"20352420","DistrictId":"20352502"}}},{"Relevance":1.0,"Distance":23.7,"MatchLevel":"houseNumber","MatchQuality":{"Country":1.0,"State":1.0,"County":1.0,"City":1.0,"District":1.0,"Street":[1.0],"HouseNumber":1.0,"PostalCode":1.0},"MatchType":"interpolated","Location":{"LocationId":"NT_TweAln-LBSsX1i0v84i5NB_l_762215411_R_zUD","LocationType":"point","DisplayPosition":{"Latitude":51.4160543,"Longitude":-2.4986007},"MapView":{"TopLeft":{"Latitude":51.4171784,"Longitude":-2.5004032},"BottomRight":{"Latitude":51.4149301,"Longitude":-2.4967982}},"Address":{"Label":"35 High Street, Bristol, BS31 1DS, United Kingdom","Country":"GBR","State":"England","County":"Avon","City":"Bristol","District":"Keynsham","Street":"High Street","HouseNumber":"35","PostalCode":"BS31 1DS","AdditionalData":[{"value":"United Kingdom","key":"CountryName"},{"value":"England","key":"StateName"},{"value":"Avon","key":"CountyName"}]},"MapReference":{"ReferenceId":"762215411","Spot":0.84,"SideOfStreet":"right","StateId":"20248595","CountyId":"20352323","CityId":"20352420","DistrictId":"20352502"}}},{"Relevance":1.0,"Distance":44.4,"MatchLevel":"houseNumber","MatchQuality":{"Country":1.0,"State":1.0,"County":1.0,"City":1.0,"District":1.0,"Street":[1.0],"HouseNumber":1.0,"PostalCode":1.0},"MatchType":"interpolated","Location":{"LocationId":"NT_n3lqWK4PAzuuLXmGGLEqqD_l_26734299_L_yA","LocationType":"point","DisplayPosition":{"Latitude":51.4162082,"Longitude":-2.4990607},"MapView":{"TopLeft":{"Latitude":51.4173324,"Longitude":-2.5008632},"BottomRight":{"Latitude":51.4150841,"Longitude":-2.4972582}},"Address":{"Label":"2 Charlton Road, Bristol, BS31 2JA, United Kingdom","Country":"GBR","State":"England","County":"Avon","City":"Bristol","District":"Keynsham","Street":"Charlton Road","HouseNumber":"2","PostalCode":"BS31 2JA","AdditionalData":[{"value":"United Kingdom","key":"CountryName"},{"value":"England","key":"StateName"},{"value":"Avon","key":"CountyName"}]},"MapReference":{"ReferenceId":"26734299","Spot":0.59,"SideOfStreet":"left","StateId":"20248595","CountyId":"20352323","CityId":"20352420","DistrictId":"20352502"}}},{"Relevance":1.0,"Distance":49.1,"MatchLevel":"postalCode","MatchQuality":{"PostalCode":1.0},"MatchType":"interpolated","Location":{"LocationId":"NT_m5xtjbdkJ5SChHmZhAaNsD_l_26734282_R_zMD","LocationType":"point","DisplayPosition":{"Latitude":51.41671,"Longitude":-2.49882},"MapView":{"TopLeft":{"Latitude":51.4257032,"Longitude":-2.5132403},"BottomRight":{"Latitude":51.4077168,"Longitude":-2.4843997}},"Address":{"Label":"BS31 1DP, Bristol, England, United Kingdom","Country":"GBR","State":"England","County":"Avon","City":"Bristol","PostalCode":"BS31 1DP","AdditionalData":[{"value":"United Kingdom","key":"CountryName"},{"value":"England","key":"StateName"},{"value":"Avon","key":"CountyName"}]},"MapReference":{"ReferenceId":"26734282","Spot":0.1,"SideOfStreet":"neither","StateId":"20248595","CountyId":"20352323","CityId":"20352420"}}},{"Relevance":1.0,"Distance":50.0,"MatchLevel":"street","MatchQuality":{"Country":1.0,"State":1.0,"County":1.0,"City":1.0,"District":1.0,"Street":[1.0],"PostalCode":1.0},"Location":{"LocationId":"NT_BYcuJ2aumSq2T0oAYr0HMD_l_26734451_R","LocationType":"point","DisplayPosition":{"Latitude":51.41592,"Longitude":-2.49817},"MapView":{"TopLeft":{"Latitude":51.41592,"Longitude":-2.49817},"BottomRight":{"Latitude":51.4146,"Longitude":-2.49703}},"Address":{"Label":"Back Lane, Bristol, BS31 1, United Kingdom","Country":"GBR","State":"England","County":"Avon","City":"Bristol","District":"Keynsham","Street":"Back Lane","PostalCode":"BS31 1","AdditionalData":[{"value":"United Kingdom","key":"CountryName"},{"value":"England","key":"StateName"},{"value":"Avon","key":"CountyName"}]},"MapReference":{"ReferenceId":"26734451","Spot":1.0,"SideOfStreet":"right","StateId":"20248595","CountyId":"20352323","CityId":"20352420","DistrictId":"20352502"}}},{"Relevance":1.0,"Distance":71.0,"MatchLevel":"postalCode","MatchQuality":{"PostalCode":1.0},"MatchType":"interpolated","Location":{"LocationId":"NT_TweAln-LBSsX1i0v84i5NB_l_762215411_R_zUD","LocationType":"point","DisplayPosition":{"Latitude":51.4157,"Longitude":-2.4984},"MapView":{"TopLeft":{"Latitude":51.4246932,"Longitude":-2.5128199},"BottomRight":{"Latitude":51.4067068,"Longitude":-2.4839801}},"Address":{"Label":"BS31 1DS, Bristol, England, United Kingdom","Country":"GBR","State":"England","County":"Avon","City":"Bristol","PostalCode":"BS31 1DS","AdditionalData":[{"value":"United Kingdom","key":"CountryName"},{"value":"England","key":"StateName"},{"value":"Avon","key":"CountyName"}]},"MapReference":{"ReferenceId":"762215411","Spot":0.84,"SideOfStreet":"neither","StateId":"20248595","CountyId":"20352323","CityId":"20352420"}}},{"Relevance":1.0,"Distance":84.8,"MatchLevel":"street","MatchQuality":{"Country":1.0,"State":1.0,"County":1.0,"City":1.0,"District":1.0,"Street":[1.0],"PostalCode":1.0},"Location":{"LocationId":"NT_n3lqWK4PAzuuLXmGGLEqqD_l_26734302_R","LocationType":"point","DisplayPosition":{"Latitude":51.41612,"Longitude":-2.49961},"MapView":{"TopLeft":{"Latitude":51.41612,"Longitude":-2.49978},"BottomRight":{"Latitude":51.41607,"Longitude":-2.49961}},"Address":{"Label":"Charlton Road, Bristol, BS31 2, United Kingdom","Country":"GBR","State":"England","County":"Avon","City":"Bristol","District":"Keynsham","Street":"Charlton Road","PostalCode":"BS31 2","AdditionalData":[{"value":"United Kingdom","key":"CountryName"},{"value":"England","key":"StateName"},{"value":"Avon","key":"CountyName"}]},"MapReference":{"ReferenceId":"26734302","Spot":1.0,"SideOfStreet":"right","StateId":"20248595","CountyId":"20352323","CityId":"20352420","DistrictId":"20352502"}}},{"Relevance":1.0,"Distance":84.8,"MatchLevel":"street","MatchQuality":{"Country":1.0,"State":1.0,"County":1.0,"City":1.0,"District":1.0,"Street":[1.0],"PostalCode":1.0},"Location":{"LocationId":"NT_qoO6JDv3oB01xFjwiEFbbC_l_26734300_R","LocationType":"point","DisplayPosition":{"Latitude":51.41612,"Longitude":-2.49961},"MapView":{"TopLeft":{"Latitude":51.41644,"Longitude":-2.49998},"BottomRight":{"Latitude":51.41612,"Longitude":-2.49961}},"Address":{"Label":"Dane's Lane, Bristol, BS31 2, United Kingdom","Country":"GBR","State":"England","County":"Avon","City":"Bristol","District":"Keynsham","Street":"Dane's Lane","PostalCode":"BS31 2","AdditionalData":[{"value":"United Kingdom","key":"CountryName"},{"value":"England","key":"StateName"},{"value":"Avon","key":"CountyName"}]},"MapReference":{"ReferenceId":"26734300","Spot":0.0,"SideOfStreet":"right","StateId":"20248595","CountyId":"20352323","CityId":"20352420","DistrictId":"20352502"}}},{"Relevance":1.0,"Distance":94.7,"MatchLevel":"postalCode","MatchQuality":{"PostalCode":1.0},"MatchType":"interpolated","Location":{"LocationId":"NT_HqDpj5YNVkwcmkrTXc6-yA_l_26734545_L_xA","LocationType":"point","DisplayPosition":{"Latitude":51.41589,"Longitude":-2.4996},"MapView":{"TopLeft":{"Latitude":51.4248832,"Longitude":-2.51402},"BottomRight":{"Latitude":51.4068968,"Longitude":-2.48518}},"Address":{"Label":"BS31 2UF, Bristol, England, United Kingdom","Country":"GBR","State":"England","County":"Avon","City":"Bristol","PostalCode":"BS31 2UF","AdditionalData":[{"value":"United Kingdom","key":"CountryName"},{"value":"England","key":"StateName"},{"value":"Avon","key":"CountyName"}]},"MapReference":{"ReferenceId":"26734545","Spot":0.5,"SideOfStreet":"neither","StateId":"20248595","CountyId":"20352323","CityId":"20352420"}}}]}]}}