{"Response":{"MetaInfo":{"Timestamp":"2020-03-28T12:06:23.594+0000","NextPageInformation":"2"},"View":[{"_type":"SearchResultsViewType","ViewId":0,"Result":[{"Relevance":1.0,"Distance":0.0,"Direction":0.0,"MatchLevel":"district","MatchQuality":{"Country":1.0,"State":1.0,"County":1.0,"City":1.0,"District":1.0,"PostalCode":1.0},"Location":{"LocationId":"NT_bDakSyjIaptbkbb-GeoF9B","LocationType":"point","DisplayPosition":{"Latitude":51.5958529,"Longitude":18.256022},"MapView":{"TopLeft":{"Latitude":51.60357,"Longitude":18.24972},"BottomRight":{"Latitude":51.59273,"Longitude":18.26807}},"Address":{"Label":"Brzeziny, Woj. Wielkopolskie, Polska","Country":"POL","State":"Woj. Wielkopolskie","County":"Powiat Kaliski","City":"Brzeziny","District":"Brzeziny","PostalCode":"95-060","AdditionalData":[{"value":"Polska","key":"CountryName"},{"value":"Woj. Wielkopolskie","key":"StateName"},{"value":"Powiat Kaliski","key":"CountyName"}]},"MapReference":{"ReferenceId":"1090774355","SideOfStreet":"neither","CountryId":"20624059","StateId":"20629915","CountyId":"20630014","CityId":"20630017","DistrictId":"20699625"}}},{"Relevance":1.0,"Distance":6.2,"MatchLevel":"houseNumber","MatchQuality":{"Country":1.0,"State":1.0,"County":1.0,"City":1.0,"District":1.0,"Street":[1.0],"HouseNumber":1.0,"PostalCode":1.0},"MatchType":"interpolated","Location":{"LocationId":"NT_IuNn16NzeAeXsIaOZ9X.kD_yEE","LocationType":"point","DisplayPosition":{"Latitude":51.59594,"Longitude":18.25595},"MapView":{"TopLeft":{"Latitude":51.5970642,"Longitude":18.2541404},"BottomRight":{"Latitude":51.5948158,"Longitude":18.2577596}},"Address":{"Label":"ulica 21 Stycznia 2A, 95-060 Brzeziny, Polska","Country":"POL","State":"Woj. Wielkopolskie","County":"Powiat Kaliski","City":"Brzeziny","District":"Brzeziny","Street":"ulica 21 Stycznia","HouseNumber":"2A","PostalCode":"95-060","AdditionalData":[{"value":"Polska","key":"CountryName"},{"value":"Woj. Wielkopolskie","key":"StateName"},{"value":"Powiat Kaliski","key":"CountyName"}]},"MapReference":{"ReferenceId":"1090774357","Spot":0.35,"SideOfStreet":"right","CountryId":"20624059","StateId":"20629915","CountyId":"20630014","CityId":"20630017","DistrictId":"20699625","AddressId":"267539964","RoadLinkId":"405746085"}}},{"Relevance":1.0,"Distance":26.4,"MatchLevel":"houseNumber","MatchQuality":{"Country":1.0,"State":1.0,"County":1.0,"City":1.0,"District":1.0,"Street":[1.0],"HouseNumber":1.0,"PostalCode":1.0},"MatchType":"interpolated","Location":{"LocationId":"NT_IuNn16NzeAeXsIaOZ9X.kD_yA","LocationType":"point","DisplayPosition":{"Latitude":51.59575,"Longitude":18.25564},"MapView":{"TopLeft":{"Latitude":51.5968742,"Longitude":18.2538304},"BottomRight":{"Latitude":51.5946258,"Longitude":18.2574496}},"Address":{"Label":"ulica 21 Stycznia 2, 95-060 Brzeziny, Polska","Country":"POL","State":"Woj. Wielkopolskie","County":"Powiat Kaliski","City":"Brzeziny","District":"Brzeziny","Street":"ulica 21 Stycznia","HouseNumber":"2","PostalCode":"95-060","AdditionalData":[{"value":"Polska","key":"CountryName"},{"value":"Woj. Wielkopolskie","key":"StateName"},{"value":"Powiat Kaliski","key":"CountyName"}]},"MapReference":{"ReferenceId":"1090774356","Spot":0.7,"SideOfStreet":"right","CountryId":"20624059","StateId":"20629915","CountyId":"20630014","CityId":"20630017","DistrictId":"20699625","AddressId":"267539965","RoadLinkId":"405746084"}}},{"Relevance":1.0,"Distance":41.5,"MatchLevel":"street","MatchQuality":{"Country":1.0,"State":1.0,"County":1.0,"City":1.0,"District":1.0,"Street":[1.0],"PostalCode":1.0},"Location":{"LocationId":"NT_IuNn16NzeAeXsIaOZ9X.kD_l_766615684_R","LocationType":"point","DisplayPosition":{"Latitude":51.59617,"Longitude":18.25634},"MapView":{"TopLeft":{"Latitude":51.59652,"Longitude":18.25634},"BottomRight":{"Latitude":51.59617,"Longitude":18.25692}},"Address":{"Label":"ulica 21 Stycznia, 95-060 Brzeziny, Polska","Country":"POL","State":"Woj. Wielkopolskie","County":"Powiat Kaliski","City":"Brzeziny","District":"Brzeziny","Street":"ulica 21 Stycznia","PostalCode":"95-060","AdditionalData":[{"value":"Polska","key":"CountryName"},{"value":"Woj. Wielkopolskie","key":"StateName"},{"value":"Powiat Kaliski","key":"CountyName"}]},"MapReference":{"ReferenceId":"766615684","Spot":0.0,"SideOfStreet":"right","CountryId":"20624059","StateId":"20629915","CountyId":"20630014","CityId":"20630017","DistrictId":"20699625"}}},{"Relevance":1.0,"Distance":51.4,"MatchLevel":"street","MatchQuality":{"Country":1.0,"State":1.0,"County":1.0,"City":1.0,"District":1.0,"PostalCode":1.0},"Location":{"LocationId":"NT_LcVeFvz5tmpJmoLFc4kGsA_l_1231968147_R","LocationType":"point","DisplayPosition":{"Latitude":51.59553,"Longitude":18.25549},"MapView":{"TopLeft":{"Latitude":51.59558,"Longitude":18.25542},"BottomRight":{"Latitude":51.59547,"Longitude":18.25552}},"Address":{"Label":"95-060 Brzeziny, Polska","Country":"POL","State":"Woj. Wielkopolskie","County":"Powiat Kaliski","City":"Brzeziny","District":"Brzeziny","PostalCode":"95-060","AdditionalData":[{"value":"Polska","key":"CountryName"},{"value":"Woj. Wielkopolskie","key":"StateName"},{"value":"Powiat Kaliski","key":"CountyName"}]},"MapReference":{"ReferenceId":"1231968147","Spot":0.44,"SideOfStreet":"right","CountryId":"20624059","StateId":"20629915","CountyId":"20630014","CityId":"20630017","DistrictId":"20699625"}}},{"Relevance":1.0,"Distance":51.5,"MatchLevel":"street","MatchQuality":{"Country":1.0,"State":1.0,"County":1.0,"City":1.0,"District":1.0,"PostalCode":1.0},"Location":{"LocationId":"NT_LcVeFvz5tmpJmoLFc4kGsA_l_1231968148_L","LocationType":"point","DisplayPosition":{"Latitude":51.59558,"Longitude":18.25542},"MapView":{"TopLeft":{"Latitude":51.59559,"Longitude":18.25515},"BottomRight":{"Latitude":51.59553,"Longitude":18.25542}},"Address":{"Label":"95-060 Brzeziny, Polska","Country":"POL","State":"Woj. Wielkopolskie","County":"Powiat Kaliski","City":"Brzeziny","District":"Brzeziny","PostalCode":"95-060","AdditionalData":[{"value":"Polska","key":"CountryName"},{"value":"Woj. Wielkopolskie","key":"StateName"},{"value":"Powiat Kaliski","key":"CountyName"}]},"MapReference":{"ReferenceId":"1231968148","Spot":1.0,"SideOfStreet":"left","CountryId":"20624059","StateId":"20629915","CountyId":"20630014","CityId":"20630017","DistrictId":"20699625"}}},{"Relevance":1.0,"Distance":54.9,"MatchLevel":"street","MatchQuality":{"Country":1.0,"State":1.0,"County":1.0,"City":1.0,"District":1.0,"PostalCode":1.0},"Location":{"LocationId":"NT_LcVeFvz5tmpJmoLFc4kGsA_l_1231968143_R","LocationType":"point","DisplayPosition":{"Latitude":51.59547,"Longitude":18.25552},"MapView":{"TopLeft":{"Latitude":51.59547,"Longitude":18.25549},"BottomRight":{"Latitude":51.59541,"Longitude":18.25552}},"Address":{"Label":"95-060 Brzeziny, Polska","Country":"POL","State":"Woj. Wielkopolskie","County":"Powiat Kaliski","City":"Brzeziny","District":"Brzeziny","PostalCode":"95-060","AdditionalData":[{"value":"Polska","key":"CountryName"},{"value":"Woj. Wielkopolskie","key":"StateName"},{"value":"Powiat Kaliski","key":"CountyName"}]},"MapReference":{"ReferenceId":"1231968143","Spot":1.0,"SideOfStreet":"right","CountryId":"20624059","StateId":"20629915","CountyId":"20630014","CityId":"20630017","DistrictId":"20699625"}}},{"Relevance":1.0,"Distance":61.4,"MatchLevel":"street","MatchQuality":{"Country":1.0,"State":1.0,"County":1.0,"City":1.0,"District":1.0,"PostalCode":1.0},"Location":{"LocationId":"NT_LcVeFvz5tmpJmoLFc4kGsA_l_1231968144_L","LocationType":"point","DisplayPosition":{"Latitude":51.59541,"Longitude":18.25549},"MapView":{"TopLeft":{"Latitude":51.59541,"Longitude":18.25542},"BottomRight":{"Latitude":51.59536,"Longitude":18.25549}},"Address":{"Label":"95-060 Brzeziny, Polska","Country":"POL","State":"Woj. Wielkopolskie","County":"Powiat Kaliski","City":"Brzeziny","District":"Brzeziny","PostalCode":"95-060","AdditionalData":[{"value":"Polska","key":"CountryName"},{"value":"Woj. Wielkopolskie","key":"StateName"},{"value":"Powiat Kaliski","key":"CountyName"}]},"MapReference":{"ReferenceId":"1231968144","Spot":1.0,"SideOfStreet":"left","CountryId":"20624059","StateId":"20629915","CountyId":"20630014","CityId":"20630017","DistrictId":"20699625"}}},{"Relevance":1.0,"Distance":68.8,"MatchLevel":"street","MatchQuality":{"Country":1.0,"State":1.0,"County":1.0,"City":1.0,"District":1.0,"PostalCode":1.0},"Location":{"LocationId":"NT_LcVeFvz5tmpJmoLFc4kGsA_l_1231968145_R","LocationType":"point","DisplayPosition":{"Latitude":51.59536,"Longitude":18.25542},"MapView":{"TopLeft":{"Latitude":51.59541,"Longitude":18.25515},"BottomRight":{"Latitude":51.59535,"Longitude":18.25542}},"Address":{"Label":"95-060 Brzeziny, Polska","Country":"POL","State":"Woj. Wielkopolskie","County":"Powiat Kaliski","City":"Brzeziny","District":"Brzeziny","PostalCode":"95-060","AdditionalData":[{"value":"Polska","key":"CountryName"},{"value":"Woj. Wielkopolskie","key":"StateName"},{"value":"Powiat Kaliski","key":"CountyName"}]},"MapReference":{"ReferenceId":"1231968145","Spot":0.0,"SideOfStreet":"right","CountryId":"20624059","StateId":"20629915","CountyId":"20630014","CityId":"20630017","DistrictId":"20699625"}}},{"Relevance":1.0,"Distance":71.2,"MatchLevel":"street","MatchQuality":{"Country":1.0,"State":1.0,"County":1.0,"City":1.0,"District":1.0,"Street":[1.0],"PostalCode":1.0},"Location":{"LocationId":"NT_t8bLvNKVEEdjqQMLkAWp3C_l_769139989_R","LocationType":"point","DisplayPosition":{"Latitude":51.59529,"Longitude":18.25553},"MapView":{"TopLeft":{"Latitude":51.59536,"Longitude":18.25542},"BottomRight":{"Latitude":51.59529,"Longitude":18.25553}},"Address":{"Label":"ulica Długosza Królewskiego, 95-060 Brzeziny, Polska","Country":"POL","State":"Woj. Wielkopolskie","County":"Powiat Kaliski","City":"Brzeziny","District":"Brzeziny","Street":"ulica Długosza Królewskiego","PostalCode":"95-060","AdditionalData":[{"value":"Polska","key":"CountryName"},{"value":"Woj. Wielkopolskie","key":"StateName"},{"value":"Powiat Kaliski","key":"CountyName"}]},"MapReference":{"ReferenceId":"769139989","Spot":0.0,"SideOfStreet":"right","CountryId":"20624059","StateId":"20629915","CountyId":"20630014","CityId":"20630017","DistrictId":"20699625"}}}]}]}}