{"Response":{"MetaInfo":{"Timestamp":"2020-03-28T11:42:15.953+0000","NextPageInformation":"2"},"View":[{"_type":"SearchResultsViewType","ViewId":0,"Result":[{"Relevance":1.0,"Distance":0.0,"Direction":0.0,"MatchLevel":"district","MatchQuality":{"Country":1.0,"State":1.0,"County":1.0,"City":1.0,"District":1.0,"PostalCode":1.0},"Location":{"LocationId":"NT_Fa1Jq806U2D0LljS87IT4D","LocationType":"point","DisplayPosition":{"Latitude":51.5820778,"Longitude":7.15267},"MapView":{"TopLeft":{"Latitude":51.62654,"Longitude":7.10327},"BottomRight":{"Latitude":51.56385,"Longitude":7.17148}},"Address":{"Label":"Herten, Nordrhein-Westfalen, Deutschland","Country":"DEU","State":"Nordrhein-Westfalen","County":"Recklinghausen","City":"Herten","District":"Herten","PostalCode":"45699","AdditionalData":[{"value":"Deutschland","key":"CountryName"},{"value":"Nordrhein-Westfalen","key":"StateName"},{"value":"Recklinghausen","key":"CountyName"}]},"MapReference":{"ReferenceId":"891687592","SideOfStreet":"neither","CountryId":"20147700","StateId":"20157369","CountyId":"20159272","CityId":"20159323","DistrictId":"20159326"}}},{"Relevance":1.0,"Distance":5.4,"MatchLevel":"houseNumber","MatchQuality":{"Country":1.0,"State":1.0,"County":1.0,"City":1.0,"District":1.0,"Street":[1.0],"HouseNumber":1.0,"PostalCode":1.0},"MatchType":"interpolated","Location":{"LocationId":"NT_CcGguKUQIVUOCrUqVGxPzD_0cD","LocationType":"point","DisplayPosition":{"Latitude":51.58189,"Longitude":7.15266},"MapView":{"TopLeft":{"Latitude":51.5830142,"Longitude":7.1508509},"BottomRight":{"Latitude":51.5807658,"Longitude":7.1544691}},"Address":{"Label":"Herner Straße 47, 45699 Herten, Deutschland","Country":"DEU","State":"Nordrhein-Westfalen","County":"Recklinghausen","City":"Herten","District":"Herten","Street":"Herner Straße","HouseNumber":"47","PostalCode":"45699","AdditionalData":[{"value":"Deutschland","key":"CountryName"},{"value":"Nordrhein-Westfalen","key":"StateName"},{"value":"Recklinghausen","key":"CountyName"}]},"MapReference":{"ReferenceId":"51338568","Spot":0.5,"SideOfStreet":"right","CountryId":"20147700","StateId":"20157369","CountyId":"20159272","CityId":"20159323","DistrictId":"20159326","AddressId":"195938028","RoadLinkId":"35599634"}}},{"Relevance":1.0,"Distance":75.6,"MatchLevel":"houseNumber","MatchQuality":{"Country":1.0,"State":1.0,"County":1.0,"City":1.0,"District":1.0,"Street":[1.0],"HouseNumber":1.0,"PostalCode":1.0},"MatchType":"interpolated","Location":{"LocationId":"NT_vHQ08BZtxmcM4uNZxZ0wZD_zEE","LocationType":"point","DisplayPosition":{"Latitude":51.58144,"Longitude":7.152},"MapView":{"TopLeft":{"Latitude":51.5825642,"Longitude":7.1501909},"BottomRight":{"Latitude":51.5803158,"Longitude":7.1538091}},"Address":{"Label":"Branderheide 3A, 45699 Herten, Deutschland","Country":"DEU","State":"Nordrhein-Westfalen","County":"Recklinghausen","City":"Herten","District":"Herten","Street":"Branderheide","HouseNumber":"3A","PostalCode":"45699","AdditionalData":[{"value":"Deutschland","key":"CountryName"},{"value":"Nordrhein-Westfalen","key":"StateName"},{"value":"Recklinghausen","key":"CountyName"}]},"MapReference":{"ReferenceId":"51338345","Spot":0.69,"SideOfStreet":"right","CountryId":"20147700","StateId":"20157369","CountyId":"20159272","CityId":"20159323","DistrictId":"20159326","AddressId":"193718866","RoadLinkId":"35276348"}}},{"Relevance":1.0,"Distance":77.1,"MatchLevel":"houseNumber","MatchQuality":{"Country":1.0,"State":1.0,"County":1.0,"City":1.0,"District":1.0,"Street":[1.0],"HouseNumber":1.0,"PostalCode":1.0},"MatchType":"interpolated","Location":{"LocationId":"NT_KI63rwpK0l1vE0m1QGprvB_yADN","LocationType":"point","DisplayPosition":{"Latitude":51.58244,"Longitude":7.15382},"MapView":{"TopLeft":{"Latitude":51.5835642,"Longitude":7.1520109},"BottomRight":{"Latitude":51.5813158,"Longitude":7.1556291}},"Address":{"Label":"Jägerstraße 204, 45699 Herten, Deutschland","Country":"DEU","State":"Nordrhein-Westfalen","County":"Recklinghausen","City":"Herten","District":"Herten","Street":"Jägerstraße","HouseNumber":"204","PostalCode":"45699","AdditionalData":[{"value":"Deutschland","key":"CountryName"},{"value":"Nordrhein-Westfalen","key":"StateName"},{"value":"Recklinghausen","key":"CountyName"}]},"MapReference":{"ReferenceId":"1171639793","Spot":0.33,"SideOfStreet":"left","CountryId":"20147700","StateId":"20157369","CountyId":"20159272","CityId":"20159323","DistrictId":"20159326","AddressId":"196434246","RoadLinkId":"478709794"}}},{"Relevance":1.0,"Distance":91.0,"MatchLevel":"landmark","MatchQuality":{"Country":1.0,"State":1.0,"County":1.0,"City":1.0,"District":1.0,"Street":[1.0],"PostalCode":1.0,"Name":1.0},"Location":{"LocationId":"NT_ZeYIM0YUYVKycxn0ck9FwC_p_8wXBia3hxAaJ9TOiaEp49B","LocationType":"park","Name":"Volkspark Katzenbusch","DisplayPosition":{"Latitude":51.58122,"Longitude":7.15723},"MapView":{"TopLeft":{"Latitude":51.58587,"Longitude":7.15339},"BottomRight":{"Latitude":51.58117,"Longitude":7.16171}},"Address":{"Label":"Herner Straße, 45699 Herten, Deutschland","Country":"DEU","State":"Nordrhein-Westfalen","County":"Recklinghausen","City":"Herten","District":"Herten","Street":"Herner Straße","PostalCode":"45699","AdditionalData":[{"value":"Deutschland","key":"CountryName"},{"value":"Nordrhein-Westfalen","key":"StateName"},{"value":"Recklinghausen","key":"CountyName"}]},"MapReference":{"CountryId":"20147700","StateId":"20157369","CountyId":"20159272","CityId":"20159323","DistrictId":"20159326","PlaceId":"53229029"}}},{"Relevance":1.0,"Distance":98.0,"MatchLevel":"street","MatchQuality":{"Country":1.0,"State":1.0,"County":1.0,"City":1.0,"Street":[1.0],"PostalCode":1.0},"Location":{"LocationId":"NT_SvyMM7b41ZDgIAw3LSnRSA_l_51339249_L","LocationType":"point","DisplayPosition":{"Latitude":51.58185,"Longitude":7.15404},"MapView":{"TopLeft":{"Latitude":51.58302,"Longitude":7.15404},"BottomRight":{"Latitude":51.58185,"Longitude":7.1557}},"Address":{"Label":"Volkspark, 45699 Herten, Deutschland","Country":"DEU","State":"Nordrhein-Westfalen","County":"Recklinghausen","City":"Herten","Street":"Volkspark","PostalCode":"45699","AdditionalData":[{"value":"Deutschland","key":"CountryName"},{"value":"Nordrhein-Westfalen","key":"StateName"},{"value":"Recklinghausen","key":"CountyName"}]},"MapReference":{"ReferenceId":"51339249","Spot":0.0,"SideOfStreet":"left","CountryId":"20147700","StateId":"20157369","CountyId":"20159272","CityId":"20159323"}}},{"Relevance":1.0,"Distance":98.0,"MatchLevel":"street","MatchQuality":{"Country":1.0,"State":1.0,"County":1.0,"City":1.0,"District":1.0,"Street":[1.0],"PostalCode":1.0},"Location":{"LocationId":"NT_KI63rwpK0l1vE0m1QGprvB_l_1171639792_L","LocationType":"point","DisplayPosition":{"Latitude":51.58185,"Longitude":7.15404},"MapView":{"TopLeft":{"Latitude":51.58185,"Longitude":7.15404},"BottomRight":{"Latitude":51.58169,"Longitude":7.15407}},"Address":{"Label":"Jägerstraße, 45699 Herten, Deutschland","Country":"DEU","State":"Nordrhein-Westfalen","County":"Recklinghausen","City":"Herten","District":"Herten","Street":"Jägerstraße","PostalCode":"45699","AdditionalData":[{"value":"Deutschland","key":"CountryName"},{"value":"Nordrhein-Westfalen","key":"StateName"},{"value":"Recklinghausen","key":"CountyName"}]},"MapReference":{"ReferenceId":"1171639792","Spot":1.0,"SideOfStreet":"left","CountryId":"20147700","StateId":"20157369","CountyId":"20159272","CityId":"20159323","DistrictId":"20159326"}}},{"Relevance":1.0,"Distance":114.2,"MatchLevel":"houseNumber","MatchQuality":{"Country":1.0,"State":1.0,"County":1.0,"City":1.0,"District":1.0,"Street":[1.0],"HouseNumber":1.0,"PostalCode":1.0},"MatchType":"interpolated","Location":{"LocationId":"NT_CcGguKUQIVUOCrUqVGxPzD_zED","LocationType":"point","DisplayPosition":{"Latitude":51.58215,"Longitude":7.151},"MapView":{"TopLeft":{"Latitude":51.5832742,"Longitude":7.1491909},"BottomRight":{"Latitude":51.5810258,"Longitude":7.1528091}},"Address":{"Label":"Herner Straße 31, 45699 Herten, Deutschland","Country":"DEU","State":"Nordrhein-Westfalen","County":"Recklinghausen","City":"Herten","District":"Herten","Street":"Herner Straße","HouseNumber":"31","PostalCode":"45699","AdditionalData":[{"value":"Deutschland","key":"CountryName"},{"value":"Nordrhein-Westfalen","key":"StateName"},{"value":"Recklinghausen","key":"CountyName"}]},"MapReference":{"ReferenceId":"51338564","Spot":0.38,"SideOfStreet":"right","CountryId":"20147700","StateId":"20157369","CountyId":"20159272","CityId":"20159323","DistrictId":"20159326","AddressId":"195053600","RoadLinkId":"35591073"}}},{"Relevance":1.0,"Distance":115.0,"MatchLevel":"houseNumber","MatchQuality":{"Country":1.0,"State":1.0,"County":1.0,"City":1.0,"District":1.0,"Street":[1.0],"HouseNumber":1.0,"PostalCode":1.0},"MatchType":"interpolated","Location":{"LocationId":"NT_CcGguKUQIVUOCrUqVGxPzD_0gD","LocationType":"point","DisplayPosition":{"Latitude":51.58167,"Longitude":7.15416},"MapView":{"TopLeft":{"Latitude":51.5827942,"Longitude":7.1523509},"BottomRight":{"Latitude":51.5805458,"Longitude":7.1559691}},"Address":{"Label":"Herner Straße 48, 45699 Herten, Deutschland","Country":"DEU","State":"Nordrhein-Westfalen","County":"Recklinghausen","City":"Herten","District":"Herten","Street":"Herner Straße","HouseNumber":"48","PostalCode":"45699","AdditionalData":[{"value":"Deutschland","key":"CountryName"},{"value":"Nordrhein-Westfalen","key":"StateName"},{"value":"Recklinghausen","key":"CountyName"}]},"MapReference":{"ReferenceId":"51338569","Spot":0.95,"SideOfStreet":"left","CountryId":"20147700","StateId":"20157369","CountyId":"20159272","CityId":"20159323","DistrictId":"20159326","AddressId":"622022344","RoadLinkId":"35470691"}}},{"Relevance":1.0,"Distance":133.6,"MatchLevel":"houseNumber","MatchQuality":{"Country":1.0,"State":1.0,"County":1.0,"City":1.0,"District":1.0,"Street":[1.0],"HouseNumber":1.0,"PostalCode":1.0},"MatchType":"interpolated","Location":{"LocationId":"NT_0O.cLfdSe3SzqLFZHRoC9A_xA","LocationType":"point","DisplayPosition":{"Latitude":51.58169,"Longitude":7.15064},"MapView":{"TopLeft":{"Latitude":51.5828142,"Longitude":7.1488309},"BottomRight":{"Latitude":51.5805658,"Longitude":7.1524491}},"Address":{"Label":"Adalbertstraße 1, 45699 Herten, Deutschland","Country":"DEU","State":"Nordrhein-Westfalen","County":"Recklinghausen","City":"Herten","District":"Herten","Street":"Adalbertstraße","HouseNumber":"1","PostalCode":"45699","AdditionalData":[{"value":"Deutschland","key":"CountryName"},{"value":"Nordrhein-Westfalen","key":"StateName"},{"value":"Recklinghausen","key":"CountyName"}]},"MapReference":{"ReferenceId":"51338266","Spot":0.78,"SideOfStreet":"right","CountryId":"20147700","StateId":"20157369","CountyId":"20159272","CityId":"20159323","DistrictId":"20159326","AddressId":"194208987","RoadLinkId":"34947858"}}}]}]}}