{"Response":{"MetaInfo":{"Timestamp":"2020-03-28T10:08:04.102+0000","NextPageInformation":"2"},"View":[{"_type":"SearchResultsViewType","ViewId":0,"Result":[{"Relevance":1.0,"Distance":0.0,"Direction":0.0,"MatchLevel":"district","MatchQuality":{"Country":1.0,"State":1.0,"County":1.0,"City":1.0,"District":1.0,"PostalCode":1.0},"Location":{"LocationId":"NT_mlbYUmeOyaP4f-VBkybLAD","LocationType":"point","DisplayPosition":{"Latitude":51.5935771,"Longitude":-0.2544106},"MapView":{"TopLeft":{"Latitude":51.60674,"Longitude":-0.28777},"BottomRight":{"Latitude":51.56389,"Longitude":-0.23322}},"Address":{"Label":"NW9, London, England, United Kingdom","Country":"GBR","State":"England","County":"London","City":"London","District":"NW9","PostalCode":"NW9 6","AdditionalData":[{"value":"United Kingdom","key":"CountryName"},{"value":"England","key":"StateName"},{"value":"London","key":"CountyName"}]},"MapReference":{"ReferenceId":"1217846310","SideOfStreet":"neither","StateId":"20248595","CountyId":"20337453","CityId":"20337454","DistrictId":"20337491"}}},{"Relevance":1.0,"Distance":5.4,"MatchLevel":"postalCode","MatchQuality":{"PostalCode":1.0},"MatchType":"interpolated","Location":{"LocationId":"NT_Jk0SoK9f6VsjzE0n621waA_1ED","LocationType":"point","DisplayPosition":{"Latitude":51.59353,"Longitude":-0.25439},"MapView":{"TopLeft":{"Latitude":51.6025232,"Longitude":-0.2688663},"BottomRight":{"Latitude":51.5845368,"Longitude":-0.2399137}},"Address":{"Label":"NW9 5EP, London, England, United Kingdom","Country":"GBR","State":"England","County":"London","City":"London","PostalCode":"NW9 5EP","AdditionalData":[{"value":"United Kingdom","key":"CountryName"},{"value":"England","key":"StateName"},{"value":"London","key":"CountyName"}]},"MapReference":{"ReferenceId":"957889801","Spot":0.64,"SideOfStreet":"neither","StateId":"20248595","CountyId":"20337453","CityId":"20337454"}}},{"Relevance":1.0,"Distance":8.1,"MatchLevel":"houseNumber","MatchQuality":{"Country":1.0,"State":1.0,"County":1.0,"City":1.0,"District":1.0,"Street":[1.0],"HouseNumber":1.0,"PostalCode":1.0},"MatchType":"interpolated","Location":{"LocationId":"NT_Jk0SoK9f6VsjzE0n621waA_1ED","LocationType":"point","DisplayPosition":{"Latitude":51.59353,"Longitude":-0.25427},"MapView":{"TopLeft":{"Latitude":51.5946542,"Longitude":-0.2560795},"BottomRight":{"Latitude":51.5924058,"Longitude":-0.2524605}},"Address":{"Label":"51 Colindale Avenue, London, NW9 5, United Kingdom","Country":"GBR","State":"England","County":"London","City":"London","District":"Kingsbury","Street":"Colindale Avenue","HouseNumber":"51","PostalCode":"NW9 5","AdditionalData":[{"value":"United Kingdom","key":"CountryName"},{"value":"England","key":"StateName"},{"value":"London","key":"CountyName"}]},"MapReference":{"ReferenceId":"957889801","Spot":0.64,"SideOfStreet":"left","StateId":"20248595","CountyId":"20337453","CityId":"20337454","AddressId":"747890898","RoadLinkId":"300862039"}}},{"Relevance":1.0,"Distance":35.9,"MatchLevel":"landmark","MatchQuality":{"Country":1.0,"State":1.0,"Name":1.0},"Location":{"LocationId":"NT_GLXRLMiIJwg0MecDEdMB7C","LocationType":"river","Name":"Silk Stream","DisplayPosition":{"Latitude":51.59428,"Longitude":-0.25563},"MapView":{"TopLeft":{"Latitude":51.6085,"Longitude":-0.27648},"BottomRight":{"Latitude":51.58006,"Longitude":-0.24263}},"Address":{"Label":"United Kingdom","Country":"GBR","State":"England","AdditionalData":[{"value":"United Kingdom","key":"CountryName"},{"value":"England","key":"StateName"}]},"MapReference":{"StateId":"20248595","PlaceId":"1458511820"}}},{"Relevance":1.0,"Distance":40.8,"MatchLevel":"street","MatchQuality":{"Country":1.0,"State":1.0,"County":1.0,"City":1.0,"District":1.0,"Street":[1.0],"PostalCode":1.0},"Location":{"LocationId":"NT_Jk0SoK9f6VsjzE0n621waA_l_25341160_L","LocationType":"point","DisplayPosition":{"Latitude":51.59371,"Longitude":-0.25386},"MapView":{"TopLeft":{"Latitude":51.5938,"Longitude":-0.25386},"BottomRight":{"Latitude":51.59371,"Longitude":-0.25361}},"Address":{"Label":"Colindale Avenue, London, NW9 5, United Kingdom","Country":"GBR","State":"England","County":"London","City":"London","District":"Kingsbury","Street":"Colindale Avenue","PostalCode":"NW9 5","AdditionalData":[{"value":"United Kingdom","key":"CountryName"},{"value":"England","key":"StateName"},{"value":"London","key":"CountyName"}]},"MapReference":{"ReferenceId":"25341160","Spot":0.0,"SideOfStreet":"left","StateId":"20248595","CountyId":"20337453","CityId":"20337454"}}},{"Relevance":1.0,"Distance":52.2,"MatchLevel":"houseNumber","MatchQuality":{"Country":1.0,"State":1.0,"County":1.0,"City":1.0,"District":1.0,"Street":[1.0],"HouseNumber":1.0,"PostalCode":1.0},"MatchType":"interpolated","Location":{"LocationId":"NT_--Sa0Zv1DkhtL9tG8aOGzD_xITY","LocationType":"point","DisplayPosition":{"Latitude":51.59349,"Longitude":-0.25547},"MapView":{"TopLeft":{"Latitude":51.5946142,"Longitude":-0.2572795},"BottomRight":{"Latitude":51.5923658,"Longitude":-0.2536605}},"Address":{"Label":"12a Annesley Avenue, London, NW9 5, United Kingdom","Country":"GBR","State":"England","County":"London","City":"London","District":"Kingsbury","Street":"Annesley Avenue","HouseNumber":"12a","PostalCode":"NW9 5","AdditionalData":[{"value":"United Kingdom","key":"CountryName"},{"value":"England","key":"StateName"},{"value":"London","key":"CountyName"}]},"MapReference":{"ReferenceId":"25341253","Spot":0.49,"SideOfStreet":"right","StateId":"20248595","CountyId":"20337453","CityId":"20337454","AddressId":"747561066","RoadLinkId":"82375611"}}},{"Relevance":1.0,"Distance":63.7,"MatchLevel":"street","MatchQuality":{"Country":1.0,"State":1.0,"County":1.0,"City":1.0,"District":1.0,"Street":[1.0],"PostalCode":1.0},"Location":{"LocationId":"NT_--Sa0Zv1DkhtL9tG8aOGzD_l_778590367_R","LocationType":"point","DisplayPosition":{"Latitude":51.5930443,"Longitude":-0.2547496},"MapView":{"TopLeft":{"Latitude":51.59321,"Longitude":-0.25501},"BottomRight":{"Latitude":51.59286,"Longitude":-0.25446}},"Address":{"Label":"Annesley Avenue, London, NW9 5, United Kingdom","Country":"GBR","State":"England","County":"London","City":"London","District":"Kingsbury","Street":"Annesley Avenue","PostalCode":"NW9 5","AdditionalData":[{"value":"United Kingdom","key":"CountryName"},{"value":"England","key":"StateName"},{"value":"London","key":"CountyName"}]},"MapReference":{"ReferenceId":"778590367","Spot":0.53,"SideOfStreet":"right","StateId":"20248595","CountyId":"20337453","CityId":"20337454"}}},{"Relevance":1.0,"Distance":64.6,"MatchLevel":"postalCode","MatchQuality":{"PostalCode":1.0},"MatchType":"interpolated","Location":{"LocationId":"NT_Jk0SoK9f6VsjzE0n621waA_zED","LocationType":"point","DisplayPosition":{"Latitude":51.59347,"Longitude":-0.25533},"MapView":{"TopLeft":{"Latitude":51.6024632,"Longitude":-0.2698063},"BottomRight":{"Latitude":51.5844768,"Longitude":-0.2408537}},"Address":{"Label":"NW9 5EH, London, England, United Kingdom","Country":"GBR","State":"England","County":"London","City":"London","PostalCode":"NW9 5EH","AdditionalData":[{"value":"United Kingdom","key":"CountryName"},{"value":"England","key":"StateName"},{"value":"London","key":"CountyName"}]},"MapReference":{"ReferenceId":"758476428","Spot":0.6,"SideOfStreet":"neither","StateId":"20248595","CountyId":"20337453","CityId":"20337454"}}},{"Relevance":1.0,"Distance":77.5,"MatchLevel":"houseNumber","MatchQuality":{"Country":1.0,"State":1.0,"County":1.0,"City":1.0,"District":1.0,"Street":[1.0],"HouseNumber":1.0,"PostalCode":1.0},"MatchType":"interpolated","Location":{"LocationId":"NT_y54dEbBaqkIsDPDUbmhebB_3A","LocationType":"point","DisplayPosition":{"Latitude":51.59285,"Longitude":-0.25377},"MapView":{"TopLeft":{"Latitude":51.5939742,"Longitude":-0.2555795},"BottomRight":{"Latitude":51.5917258,"Longitude":-0.2519605}},"Address":{"Label":"7 Cecil Road, London, NW9 5EL, United Kingdom","Country":"GBR","State":"England","County":"London","City":"London","District":"Kingsbury","Street":"Cecil Road","HouseNumber":"7","PostalCode":"NW9 5EL","AdditionalData":[{"value":"United Kingdom","key":"CountryName"},{"value":"England","key":"StateName"},{"value":"London","key":"CountyName"}]},"MapReference":{"ReferenceId":"25399873","Spot":0.37,"SideOfStreet":"left","StateId":"20248595","CountyId":"20337453","CityId":"20337454","AddressId":"747981357","RoadLinkId":"82821080"}}},{"Relevance":1.0,"Distance":79.8,"MatchLevel":"landmark","MatchQuality":{"Country":1.0,"State":1.0,"County":1.0,"City":1.0,"District":1.0,"PostalCode":1.0,"Name":1.0},"Location":{"LocationId":"NT_X6HEXoPBKUaaxdJqJNJYsC","LocationType":"industrialComplex","Name":"The Technology Park","DisplayPosition":{"Latitude":51.59235,"Longitude":-0.25434},"MapView":{"TopLeft":{"Latitude":51.59286,"Longitude":-0.25519},"BottomRight":{"Latitude":51.59184,"Longitude":-0.25358}},"Address":{"Label":"London, NW9 6, United Kingdom","Country":"GBR","State":"England","County":"London","City":"London","District":"NW9","PostalCode":"NW9 6","AdditionalData":[{"value":"United Kingdom","key":"CountryName"},{"value":"England","key":"StateName"},{"value":"London","key":"CountyName"}]},"MapReference":{"StateId":"20248595","CountyId":"20337453","CityId":"20337454","DistrictId":"20337491","PlaceId":"1407648089"}}}]}]}}