{"Response":{"MetaInfo":{"Timestamp":"2020-03-28T10:35:28.754+0000","NextPageInformation":"2"},"View":[{"_type":"SearchResultsViewType","ViewId":0,"Result":[{"Relevance":1.0,"Distance":0.0,"Direction":0.0,"MatchLevel":"district","MatchQuality":{"Country":1.0,"State":1.0,"County":1.0,"City":1.0,"District":1.0,"PostalCode":1.0},"Location":{"LocationId":"NT_obEoxgs7o9jSpwg.y9PEXA","LocationType":"point","DisplayPosition":{"Latitude":51.5778625,"Longitude":-0.1526904},"MapView":{"TopLeft":{"Latitude":51.58685,"Longitude":-0.17118},"BottomRight":{"Latitude":51.56096,"Longitude":-0.12763}},"Address":{"Label":"N6, London, England, United Kingdom","Country":"GBR","State":"England","County":"London","City":"London","District":"N6","PostalCode":"N6 6","AdditionalData":[{"value":"United Kingdom","key":"CountryName"},{"value":"England","key":"StateName"},{"value":"London","key":"CountyName"}]},"MapReference":{"ReferenceId":"25345952","SideOfStreet":"neither","StateId":"20248595","CountyId":"20337453","CityId":"20337454","DistrictId":"20337510"}}},{"Relevance":1.0,"Distance":4.9,"MatchLevel":"houseNumber","MatchQuality":{"Country":1.0,"State":1.0,"County":1.0,"City":1.0,"District":1.0,"Street":[1.0],"HouseNumber":1.0,"PostalCode":1.0},"MatchType":"interpolated","Location":{"LocationId":"NT_P55KIJGI9o4ankZlvHXUvD_0QD","LocationType":"point","DisplayPosition":{"Latitude":51.57776,"Longitude":-0.15283},"MapView":{"TopLeft":{"Latitude":51.5788842,"Longitude":-0.1546389},"BottomRight":{"Latitude":51.5766358,"Longitude":-0.1510211}},"Address":{"Label":"44 North Hill, London, N6 4, United Kingdom","Country":"GBR","State":"England","County":"London","City":"London","District":"Highgate","Street":"North Hill","HouseNumber":"44","PostalCode":"N6 4","AdditionalData":[{"value":"United Kingdom","key":"CountryName"},{"value":"England","key":"StateName"},{"value":"London","key":"CountyName"}]},"MapReference":{"ReferenceId":"940631638","Spot":0.64,"SideOfStreet":"right","StateId":"20248595","CountyId":"20337453","CityId":"20337454","AddressId":"754410613","RoadLinkId":"290650181"}}},{"Relevance":1.0,"Distance":16.7,"MatchLevel":"houseNumber","MatchQuality":{"Country":1.0,"State":1.0,"County":1.0,"City":1.0,"District":1.0,"Street":[1.0],"HouseNumber":1.0,"PostalCode":1.0},"MatchType":"interpolated","Location":{"LocationId":"NT_v-U90ypWbSx9W9VO3XkUHD_2A","LocationType":"point","DisplayPosition":{"Latitude":51.57782,"Longitude":-0.15214},"MapView":{"TopLeft":{"Latitude":51.5789442,"Longitude":-0.1539489},"BottomRight":{"Latitude":51.5766958,"Longitude":-0.1503311}},"Address":{"Label":"6 Bramalea Close, London, N6 4BX, United Kingdom","Country":"GBR","State":"England","County":"London","City":"London","District":"Highgate","Street":"Bramalea Close","HouseNumber":"6","PostalCode":"N6 4BX","AdditionalData":[{"value":"United Kingdom","key":"CountryName"},{"value":"England","key":"StateName"},{"value":"London","key":"CountyName"}]},"MapReference":{"ReferenceId":"709255143","Spot":1.0,"SideOfStreet":"left","StateId":"20248595","CountyId":"20337453","CityId":"20337454","AddressId":"747668346","RoadLinkId":"114576898"}}},{"Relevance":1.0,"Distance":26.0,"MatchLevel":"houseNumber","MatchQuality":{"Country":1.0,"State":1.0,"County":1.0,"City":1.0,"District":1.0,"Street":[1.0],"HouseNumber":1.0,"PostalCode":1.0},"MatchType":"interpolated","Location":{"LocationId":"NT_P55KIJGI9o4ankZlvHXUvD_l_565979851_L_2MD","LocationType":"point","DisplayPosition":{"Latitude":51.5779494,"Longitude":-0.1530394},"MapView":{"TopLeft":{"Latitude":51.5790736,"Longitude":-0.1548484},"BottomRight":{"Latitude":51.5768253,"Longitude":-0.1512305}},"Address":{"Label":"63 North Hill, London, N6 4, United Kingdom","Country":"GBR","State":"England","County":"London","City":"London","District":"Highgate","Street":"North Hill","HouseNumber":"63","PostalCode":"N6 4","AdditionalData":[{"value":"United Kingdom","key":"CountryName"},{"value":"England","key":"StateName"},{"value":"London","key":"CountyName"}]},"MapReference":{"ReferenceId":"565979851","Spot":0.56,"SideOfStreet":"left","StateId":"20248595","CountyId":"20337453","CityId":"20337454"}}},{"Relevance":1.0,"Distance":39.7,"MatchLevel":"postalCode","MatchQuality":{"PostalCode":1.0},"MatchType":"interpolated","Location":{"LocationId":"NT_v-U90ypWbSx9W9VO3XkUHD_2A","LocationType":"point","DisplayPosition":{"Latitude":51.57757,"Longitude":-0.15302},"MapView":{"TopLeft":{"Latitude":51.5865632,"Longitude":-0.1674912},"BottomRight":{"Latitude":51.5685768,"Longitude":-0.1385488}},"Address":{"Label":"N6 4BX, London, England, United Kingdom","Country":"GBR","State":"England","County":"London","City":"London","PostalCode":"N6 4BX","AdditionalData":[{"value":"United Kingdom","key":"CountryName"},{"value":"England","key":"StateName"},{"value":"London","key":"CountyName"}]},"MapReference":{"ReferenceId":"709255143","Spot":1.0,"SideOfStreet":"neither","StateId":"20248595","CountyId":"20337453","CityId":"20337454"}}},{"Relevance":1.0,"Distance":39.9,"MatchLevel":"houseNumber","MatchQuality":{"Country":1.0,"State":1.0,"County":1.0,"City":1.0,"District":1.0,"Street":[1.0],"HouseNumber":1.0,"PostalCode":1.0},"MatchType":"interpolated","Location":{"LocationId":"NT_dSIMBVpJPGPRCD9gBuQZ3C_l_940631637_R_yQD","LocationType":"point","DisplayPosition":{"Latitude":51.577441,"Longitude":-0.1524663},"MapView":{"TopLeft":{"Latitude":51.5785652,"Longitude":-0.1542752},"BottomRight":{"Latitude":51.5763169,"Longitude":-0.1506574}},"Address":{"Label":"24 North Hill, London, N6 4, United Kingdom","Country":"GBR","State":"England","County":"London","City":"London","District":"Highgate","Street":"North Hill","HouseNumber":"24","PostalCode":"N6 4","AdditionalData":[{"value":"United Kingdom","key":"CountryName"},{"value":"England","key":"StateName"},{"value":"London","key":"CountyName"}]},"MapReference":{"ReferenceId":"940631637","Spot":0.51,"SideOfStreet":"right","StateId":"20248595","CountyId":"20337453","CityId":"20337454"}}},{"Relevance":1.0,"Distance":42.9,"MatchLevel":"street","MatchQuality":{"Country":1.0,"State":1.0,"County":1.0,"City":1.0,"District":1.0,"Street":[1.0],"PostalCode":1.0},"Location":{"LocationId":"NT_MdrHbSacWKoHvkDDEXb0XA_l_940631639_R","LocationType":"point","DisplayPosition":{"Latitude":51.57749,"Longitude":-0.15253},"MapView":{"TopLeft":{"Latitude":51.57765,"Longitude":-0.15321},"BottomRight":{"Latitude":51.57737,"Longitude":-0.15253}},"Address":{"Label":"Rowlands Close, London, N6 4, United Kingdom","Country":"GBR","State":"England","County":"London","City":"London","District":"Highgate","Street":"Rowlands Close","PostalCode":"N6 4","AdditionalData":[{"value":"United Kingdom","key":"CountryName"},{"value":"England","key":"StateName"},{"value":"London","key":"CountyName"}]},"MapReference":{"ReferenceId":"940631639","Spot":0.0,"SideOfStreet":"right","StateId":"20248595","CountyId":"20337453","CityId":"20337454"}}},{"Relevance":1.0,"Distance":50.7,"MatchLevel":"houseNumber","MatchQuality":{"Country":1.0,"State":1.0,"County":1.0,"City":1.0,"District":1.0,"Street":[1.0],"HouseNumber":1.0,"PostalCode":1.0},"MatchType":"interpolated","Location":{"LocationId":"NT_cdh3dTxl-WDKwVS7TbNv5A_1A","LocationType":"point","DisplayPosition":{"Latitude":51.57824,"Longitude":-0.15228},"MapView":{"TopLeft":{"Latitude":51.5793642,"Longitude":-0.1540889},"BottomRight":{"Latitude":51.5771158,"Longitude":-0.1504711}},"Address":{"Label":"5 Church Road, London, N6 4QH, United Kingdom","Country":"GBR","State":"England","County":"London","City":"London","District":"Highgate","Street":"Church Road","HouseNumber":"5","PostalCode":"N6 4QH","AdditionalData":[{"value":"United Kingdom","key":"CountryName"},{"value":"England","key":"StateName"},{"value":"London","key":"CountyName"}]},"MapReference":{"ReferenceId":"26013605","Spot":0.54,"SideOfStreet":"right","StateId":"20248595","CountyId":"20337453","CityId":"20337454","AddressId":"748356820","RoadLinkId":"82958282"}}},{"Relevance":1.0,"Distance":52.1,"MatchLevel":"houseNumber","MatchQuality":{"Country":1.0,"State":1.0,"County":1.0,"City":1.0,"District":1.0,"Street":[1.0],"PostalCode":1.0},"MatchType":"interpolated","Location":{"LocationId":"NT_P55KIJGI9o4ankZlvHXUvD","LocationType":"point","DisplayPosition":{"Latitude":51.5781,"Longitude":-0.15334},"MapView":{"TopLeft":{"Latitude":51.5792242,"Longitude":-0.1551489},"BottomRight":{"Latitude":51.5769758,"Longitude":-0.1515311}},"Address":{"Label":"North Hill, London, N6 4, United Kingdom","Country":"GBR","State":"England","County":"London","City":"London","District":"Highgate","Street":"North Hill","PostalCode":"N6 4","AdditionalData":[{"value":"United Kingdom","key":"CountryName"},{"value":"England","key":"StateName"},{"value":"London","key":"CountyName"}],"Building":"Wetherley Court"},"MapReference":{"ReferenceId":"566005574","Spot":0.26,"SideOfStreet":"left","StateId":"20248595","CountyId":"20337453","CityId":"20337454","AddressId":"763614011","RoadLinkId":"83033926"}}},{"Relevance":1.0,"Distance":53.1,"MatchLevel":"houseNumber","MatchQuality":{"Country":1.0,"State":1.0,"County":1.0,"City":1.0,"District":1.0,"Street":[1.0],"PostalCode":1.0},"MatchType":"interpolated","Location":{"LocationId":"NT_P55KIJGI9o4ankZlvHXUvD","LocationType":"point","DisplayPosition":{"Latitude":51.57818,"Longitude":-0.15328},"MapView":{"TopLeft":{"Latitude":51.5793042,"Longitude":-0.1550889},"BottomRight":{"Latitude":51.5770558,"Longitude":-0.1514711}},"Address":{"Label":"North Hill, London, N6 4, United Kingdom","Country":"GBR","State":"England","County":"London","City":"London","District":"Highgate","Street":"North Hill","PostalCode":"N6 4","AdditionalData":[{"value":"United Kingdom","key":"CountryName"},{"value":"England","key":"StateName"},{"value":"London","key":"CountyName"}],"Building":"Highcroft Flats"},"MapReference":{"ReferenceId":"1231167451","Spot":0.66,"SideOfStreet":"right","StateId":"20248595","CountyId":"20337453","CityId":"20337454","AddressId":"763602172","RoadLinkId":"550670338"}}}]}]}}