{"Response":{"MetaInfo":{"Timestamp":"2020-03-28T11:58:12.397+0000","NextPageInformation":"2"},"View":[{"_type":"SearchResultsViewType","ViewId":0,"Result":[{"Relevance":1.0,"Distance":0.0,"Direction":0.0,"MatchLevel":"district","MatchQuality":{"Country":1.0,"State":1.0,"County":1.0,"City":1.0,"District":1.0,"PostalCode":1.0},"Location":{"LocationId":"NT_5v5RLfwf5uD4JBJ5.XXZHA","LocationType":"point","DisplayPosition":{"Latitude":51.5268144,"Longitude":-0.124634},"MapView":{"TopLeft":{"Latitude":51.53165,"Longitude":-0.13012},"BottomRight":{"Latitude":51.52138,"Longitude":-0.10966}},"Address":{"Label":"St Pancras, London, England, United Kingdom","Country":"GBR","State":"England","County":"London","City":"London","District":"St Pancras","PostalCode":"WC1H 9","AdditionalData":[{"value":"United Kingdom","key":"CountryName"},{"value":"England","key":"StateName"},{"value":"London","key":"CountyName"}]},"MapReference":{"ReferenceId":"1155738777","SideOfStreet":"neither","StateId":"20248595","CountyId":"20337453","CityId":"20337454"}}},{"Relevance":1.0,"Distance":8.3,"MatchLevel":"houseNumber","MatchQuality":{"Country":1.0,"State":1.0,"County":1.0,"City":1.0,"District":1.0,"Street":[1.0],"HouseNumber":1.0,"PostalCode":1.0},"MatchType":"interpolated","Location":{"LocationId":"NT_DG0xyGQg8GwNdApojg-saC_yED","LocationType":"point","DisplayPosition":{"Latitude":51.52674,"Longitude":-0.12462},"MapView":{"TopLeft":{"Latitude":51.5278642,"Longitude":-0.1264269},"BottomRight":{"Latitude":51.5256158,"Longitude":-0.1228131}},"Address":{"Label":"21 Leigh Street, London, WC1H 9EW, United Kingdom","Country":"GBR","State":"England","County":"London","City":"London","District":"St Pancras","Street":"Leigh Street","HouseNumber":"21","PostalCode":"WC1H 9EW","AdditionalData":[{"value":"United Kingdom","key":"CountryName"},{"value":"England","key":"StateName"},{"value":"London","key":"CountyName"}]},"MapReference":{"ReferenceId":"25301768","Spot":0.19,"SideOfStreet":"left","StateId":"20248595","CountyId":"20337453","CityId":"20337454","AddressId":"748351261","RoadLinkId":"82286977"}}},{"Relevance":1.0,"Distance":10.4,"MatchLevel":"postalCode","MatchQuality":{"PostalCode":1.0},"MatchType":"interpolated","Location":{"LocationId":"NT_9WmFkBMy6BTgM9TUpjxr.B_2UD","LocationType":"point","DisplayPosition":{"Latitude":51.52684,"Longitude":-0.12449},"MapView":{"TopLeft":{"Latitude":51.5358332,"Longitude":-0.1389451},"BottomRight":{"Latitude":51.5178468,"Longitude":-0.1100349}},"Address":{"Label":"WC1H 9QZ, London, England, United Kingdom","Country":"GBR","State":"England","County":"London","City":"London","PostalCode":"WC1H 9QZ","AdditionalData":[{"value":"United Kingdom","key":"CountryName"},{"value":"England","key":"StateName"},{"value":"London","key":"CountyName"}]},"MapReference":{"ReferenceId":"25483796","Spot":0.38,"SideOfStreet":"neither","StateId":"20248595","CountyId":"20337453","CityId":"20337454"}}},{"Relevance":1.0,"Distance":11.5,"MatchLevel":"houseNumber","MatchQuality":{"Country":1.0,"State":1.0,"County":1.0,"City":1.0,"District":1.0,"Street":[1.0],"HouseNumber":1.0,"PostalCode":1.0},"MatchType":"interpolated","Location":{"LocationId":"NT_rWoj93FBvh9fEyf1lWujXA_l_1155720307_L_1kD","LocationType":"point","DisplayPosition":{"Latitude":51.5267734,"Longitude":-0.1247867},"MapView":{"TopLeft":{"Latitude":51.5278975,"Longitude":-0.1265936},"BottomRight":{"Latitude":51.5256492,"Longitude":-0.1229798}},"Address":{"Label":"59 Thanet Street, London, WC1H 9ER, United Kingdom","Country":"GBR","State":"England","County":"London","City":"London","District":"St Pancras","Street":"Thanet Street","HouseNumber":"59","PostalCode":"WC1H 9ER","AdditionalData":[{"value":"United Kingdom","key":"CountryName"},{"value":"England","key":"StateName"},{"value":"London","key":"CountyName"}]},"MapReference":{"ReferenceId":"1155720307","Spot":0.33,"SideOfStreet":"left","StateId":"20248595","CountyId":"20337453","CityId":"20337454"}}},{"Relevance":1.0,"Distance":17.8,"MatchLevel":"postalCode","MatchQuality":{"PostalCode":1.0},"MatchType":"interpolated","Location":{"LocationId":"NT_rWoj93FBvh9fEyf1lWujXA_l_1155720307_L_1kD","LocationType":"point","DisplayPosition":{"Latitude":51.52683,"Longitude":-0.12489},"MapView":{"TopLeft":{"Latitude":51.5358232,"Longitude":-0.1393451},"BottomRight":{"Latitude":51.5178368,"Longitude":-0.1104349}},"Address":{"Label":"WC1H 9ER, London, England, United Kingdom","Country":"GBR","State":"England","County":"London","City":"London","PostalCode":"WC1H 9ER","AdditionalData":[{"value":"United Kingdom","key":"CountryName"},{"value":"England","key":"StateName"},{"value":"London","key":"CountyName"}]},"MapReference":{"ReferenceId":"1155720307","Spot":0.33,"SideOfStreet":"neither","StateId":"20248595","CountyId":"20337453","CityId":"20337454"}}},{"Relevance":1.0,"Distance":20.0,"MatchLevel":"houseNumber","MatchQuality":{"Country":1.0,"State":1.0,"County":1.0,"City":1.0,"District":1.0,"Street":[1.0],"HouseNumber":1.0,"PostalCode":1.0},"MatchType":"interpolated","Location":{"LocationId":"NT_9WmFkBMy6BTgM9TUpjxr.B_2UD","LocationType":"point","DisplayPosition":{"Latitude":51.5268,"Longitude":-0.12411},"MapView":{"TopLeft":{"Latitude":51.5279242,"Longitude":-0.1259169},"BottomRight":{"Latitude":51.5256758,"Longitude":-0.1223031}},"Address":{"Label":"65 Judd Street, London, WC1H 9QZ, United Kingdom","Country":"GBR","State":"England","County":"London","City":"London","District":"St Pancras","Street":"Judd Street","HouseNumber":"65","PostalCode":"WC1H 9QZ","AdditionalData":[{"value":"United Kingdom","key":"CountryName"},{"value":"England","key":"StateName"},{"value":"London","key":"CountyName"}]},"MapReference":{"ReferenceId":"25483796","Spot":0.38,"SideOfStreet":"left","StateId":"20248595","CountyId":"20337453","CityId":"20337454","AddressId":"747752498","RoadLinkId":"82329382"}}},{"Relevance":1.0,"Distance":22.0,"MatchLevel":"houseNumber","MatchQuality":{"Country":1.0,"State":1.0,"County":1.0,"City":1.0,"District":1.0,"Street":[1.0],"HouseNumber":1.0,"PostalCode":1.0},"MatchType":"interpolated","Location":{"LocationId":"NT_DG0xyGQg8GwNdApojg-saC_l_1155720306_L_ygD","LocationType":"point","DisplayPosition":{"Latitude":51.5266355,"Longitude":-0.1248938},"MapView":{"TopLeft":{"Latitude":51.5277596,"Longitude":-0.1267006},"BottomRight":{"Latitude":51.5255113,"Longitude":-0.1230869}},"Address":{"Label":"28 Leigh Street, London, WC1H 9EP, United Kingdom","Country":"GBR","State":"England","County":"London","City":"London","District":"St Pancras","Street":"Leigh Street","HouseNumber":"28","PostalCode":"WC1H 9EP","AdditionalData":[{"value":"United Kingdom","key":"CountryName"},{"value":"England","key":"StateName"},{"value":"London","key":"CountyName"}]},"MapReference":{"ReferenceId":"1155720306","Spot":0.5,"SideOfStreet":"left","StateId":"20248595","CountyId":"20337453","CityId":"20337454"}}},{"Relevance":1.0,"Distance":23.0,"MatchLevel":"houseNumber","MatchQuality":{"Country":1.0,"State":1.0,"County":1.0,"City":1.0,"District":1.0,"Street":[1.0],"HouseNumber":1.0,"PostalCode":1.0},"MatchType":"interpolated","Location":{"LocationId":"NT_CIHgSatkMSFyBpLesM3TdA_l_1155720308_L_xIzN","LocationType":"point","DisplayPosition":{"Latitude":51.52692,"Longitude":-0.12492},"MapView":{"TopLeft":{"Latitude":51.5280442,"Longitude":-0.1267269},"BottomRight":{"Latitude":51.5257959,"Longitude":-0.1231132}},"Address":{"Label":"127 Thanet Street, London, WC1H 9, United Kingdom","Country":"GBR","State":"England","County":"London","City":"London","District":"St Pancras","Street":"Thanet Street","HouseNumber":"127","PostalCode":"WC1H 9","AdditionalData":[{"value":"United Kingdom","key":"CountryName"},{"value":"England","key":"StateName"},{"value":"London","key":"CountyName"}]},"MapReference":{"ReferenceId":"1155720308","Spot":0.0,"SideOfStreet":"left","StateId":"20248595","CountyId":"20337453","CityId":"20337454"}}},{"Relevance":1.0,"Distance":33.2,"MatchLevel":"street","MatchQuality":{"Country":1.0,"State":1.0,"County":1.0,"City":1.0,"District":1.0,"PostalCode":1.0},"Location":{"LocationId":"NT_8ZoBlk5KOhsj3aWrGMZ5pC_l_734795454_R","LocationType":"point","DisplayPosition":{"Latitude":51.52691,"Longitude":-0.12418},"MapView":{"TopLeft":{"Latitude":51.52702,"Longitude":-0.12418},"BottomRight":{"Latitude":51.52691,"Longitude":-0.12362}},"Address":{"Label":"London, WC1H 8, United Kingdom","Country":"GBR","State":"England","County":"London","City":"London","District":"St Pancras","PostalCode":"WC1H 8","AdditionalData":[{"value":"United Kingdom","key":"CountryName"},{"value":"England","key":"StateName"},{"value":"London","key":"CountyName"}]},"MapReference":{"ReferenceId":"734795454","Spot":0.0,"SideOfStreet":"right","StateId":"20248595","CountyId":"20337453","CityId":"20337454"}}},{"Relevance":1.0,"Distance":36.4,"MatchLevel":"street","MatchQuality":{"Country":1.0,"State":1.0,"County":1.0,"City":1.0,"District":1.0,"Street":[1.0],"PostalCode":1.0},"Location":{"LocationId":"NT_mDdByrX2MAgdQHR82RCvZD_l_724068873_L","LocationType":"point","DisplayPosition":{"Latitude":51.5270614,"Longitude":-0.1242882},"MapView":{"TopLeft":{"Latitude":51.52712,"Longitude":-0.12433},"BottomRight":{"Latitude":51.52691,"Longitude":-0.12418}},"Address":{"Label":"Judd Street, London, WC1H 9, United Kingdom","Country":"GBR","State":"England","County":"London","City":"London","District":"St Pancras","Street":"Judd Street","PostalCode":"WC1H 9","AdditionalData":[{"value":"United Kingdom","key":"CountryName"},{"value":"England","key":"StateName"},{"value":"London","key":"CountyName"}]},"MapReference":{"ReferenceId":"724068873","Spot":0.72,"SideOfStreet":"left","StateId":"20248595","CountyId":"20337453","CityId":"20337454"}}}]}]}}