{"Response":{"MetaInfo":{"Timestamp":"2020-03-28T11:43:46.667+0000","NextPageInformation":"2"},"View":[{"_type":"SearchResultsViewType","ViewId":0,"Result":[{"Relevance":1.0,"Distance":0.0,"Direction":0.0,"MatchLevel":"district","MatchQuality":{"Country":1.0,"State":1.0,"County":1.0,"City":1.0,"District":1.0,"PostalCode":1.0},"Location":{"LocationId":"NT_9Zv5LSGecZ9B8i5wL9icLD","LocationType":"point","DisplayPosition":{"Latitude":51.5590587,"Longitude":13.0043285},"MapView":{"TopLeft":{"Latitude":51.5734,"Longitude":12.95856},"BottomRight":{"Latitude":51.54137,"Longitude":13.02433}},"Address":{"Label":"Torgau, Sachsen, Deutschland","Country":"DEU","State":"Sachsen","County":"Nordsachsen","City":"Torgau","District":"Torgau","PostalCode":"04860","AdditionalData":[{"value":"Deutschland","key":"CountryName"},{"value":"Sachsen","key":"StateName"},{"value":"Nordsachsen","key":"CountyName"}]},"MapReference":{"ReferenceId":"840164433","SideOfStreet":"neither","CountryId":"20147700","StateId":"20191185","CountyId":"23399505","CityId":"20193796","DistrictId":"20193798"}}},{"Relevance":1.0,"Distance":13.7,"MatchLevel":"houseNumber","MatchQuality":{"Country":1.0,"State":1.0,"County":1.0,"City":1.0,"District":1.0,"Street":[1.0],"HouseNumber":1.0,"PostalCode":1.0},"MatchType":"interpolated","Location":{"LocationId":"NT_SLuqK2ethgiM-CAqmZNbMC_zA","LocationType":"point","DisplayPosition":{"Latitude":51.55891,"Longitude":13.00423},"MapView":{"TopLeft":{"Latitude":51.5600342,"Longitude":13.0024218},"BottomRight":{"Latitude":51.5577858,"Longitude":13.0060382}},"Address":{"Label":"Markt 3, 04860 Torgau, Deutschland","Country":"DEU","State":"Sachsen","County":"Nordsachsen","City":"Torgau","District":"Torgau","Street":"Markt","HouseNumber":"3","PostalCode":"04860","AdditionalData":[{"value":"Deutschland","key":"CountryName"},{"value":"Sachsen","key":"StateName"},{"value":"Nordsachsen","key":"CountyName"}]},"MapReference":{"ReferenceId":"536913030","Spot":0.38,"SideOfStreet":"left","CountryId":"20147700","StateId":"20191185","CountyId":"23399505","CityId":"20193796","DistrictId":"20193798","AddressId":"189819859","RoadLinkId":"39828383"}}},{"Relevance":1.0,"Distance":19.4,"MatchLevel":"houseNumber","MatchQuality":{"Country":1.0,"State":1.0,"County":1.0,"City":1.0,"District":1.0,"Street":[1.0],"HouseNumber":1.0,"PostalCode":1.0},"MatchType":"interpolated","Location":{"LocationId":"NT_13MHDowEo2CGgEYJm-TCAB_xA","LocationType":"point","DisplayPosition":{"Latitude":51.55909,"Longitude":13.00393},"MapView":{"TopLeft":{"Latitude":51.5602142,"Longitude":13.0021218},"BottomRight":{"Latitude":51.5579658,"Longitude":13.0057382}},"Address":{"Label":"Bäckerstraße 1, 04860 Torgau, Deutschland","Country":"DEU","State":"Sachsen","County":"Nordsachsen","City":"Torgau","District":"Torgau","Street":"Bäckerstraße","HouseNumber":"1","PostalCode":"04860","AdditionalData":[{"value":"Deutschland","key":"CountryName"},{"value":"Sachsen","key":"StateName"},{"value":"Nordsachsen","key":"CountyName"}]},"MapReference":{"ReferenceId":"540688104","Spot":0.19,"SideOfStreet":"right","CountryId":"20147700","StateId":"20191185","CountyId":"23399505","CityId":"20193796","DistrictId":"20193798","AddressId":"190067925","RoadLinkId":"39910358"}}},{"Relevance":1.0,"Distance":27.5,"MatchLevel":"houseNumber","MatchQuality":{"Country":1.0,"State":1.0,"County":1.0,"City":1.0,"District":1.0,"Street":[1.0],"HouseNumber":1.0,"PostalCode":1.0},"MatchType":"interpolated","Location":{"LocationId":"NT_dIu6GK.Qa0vZ0ulNh3pPmB_xA","LocationType":"point","DisplayPosition":{"Latitude":51.55897,"Longitude":13.00475},"MapView":{"TopLeft":{"Latitude":51.5600942,"Longitude":13.0029418},"BottomRight":{"Latitude":51.5578458,"Longitude":13.0065582}},"Address":{"Label":"Fleischmarkt 1, 04860 Torgau, Deutschland","Country":"DEU","State":"Sachsen","County":"Nordsachsen","City":"Torgau","District":"Torgau","Street":"Fleischmarkt","HouseNumber":"1","PostalCode":"04860","AdditionalData":[{"value":"Deutschland","key":"CountryName"},{"value":"Sachsen","key":"StateName"},{"value":"Nordsachsen","key":"CountyName"}]},"MapReference":{"ReferenceId":"536912995","Spot":0.15,"SideOfStreet":"left","CountryId":"20147700","StateId":"20191185","CountyId":"23399505","CityId":"20193796","DistrictId":"20193798","AddressId":"189682437","RoadLinkId":"39638106"}}},{"Relevance":1.0,"Distance":32.3,"MatchLevel":"houseNumber","MatchQuality":{"Country":1.0,"State":1.0,"County":1.0,"City":1.0,"District":1.0,"Street":[1.0],"HouseNumber":1.0,"PostalCode":1.0},"MatchType":"interpolated","Location":{"LocationId":"NT_SLuqK2ethgiM-CAqmZNbMC_yA","LocationType":"point","DisplayPosition":{"Latitude":51.55884,"Longitude":13.00402},"MapView":{"TopLeft":{"Latitude":51.5599642,"Longitude":13.0022118},"BottomRight":{"Latitude":51.5577158,"Longitude":13.0058282}},"Address":{"Label":"Markt 2, 04860 Torgau, Deutschland","Country":"DEU","State":"Sachsen","County":"Nordsachsen","City":"Torgau","District":"Torgau","Street":"Markt","HouseNumber":"2","PostalCode":"04860","AdditionalData":[{"value":"Deutschland","key":"CountryName"},{"value":"Sachsen","key":"StateName"},{"value":"Nordsachsen","key":"CountyName"}]},"MapReference":{"ReferenceId":"536912978","Spot":0.65,"SideOfStreet":"left","CountryId":"20147700","StateId":"20191185","CountyId":"23399505","CityId":"20193796","DistrictId":"20193798","AddressId":"190354206","RoadLinkId":"39699957"}}},{"Relevance":1.0,"Distance":32.9,"MatchLevel":"houseNumber","MatchQuality":{"Country":1.0,"State":1.0,"County":1.0,"City":1.0,"District":1.0,"Street":[1.0],"HouseNumber":1.0,"PostalCode":1.0},"MatchType":"interpolated","Location":{"LocationId":"NT_SLuqK2ethgiM-CAqmZNbMC_1A","LocationType":"point","DisplayPosition":{"Latitude":51.55883,"Longitude":13.00463},"MapView":{"TopLeft":{"Latitude":51.5599542,"Longitude":13.0028218},"BottomRight":{"Latitude":51.5577058,"Longitude":13.0064382}},"Address":{"Label":"Markt 5, 04860 Torgau, Deutschland","Country":"DEU","State":"Sachsen","County":"Nordsachsen","City":"Torgau","District":"Torgau","Street":"Markt","HouseNumber":"5","PostalCode":"04860","AdditionalData":[{"value":"Deutschland","key":"CountryName"},{"value":"Sachsen","key":"StateName"},{"value":"Nordsachsen","key":"CountyName"}]},"MapReference":{"ReferenceId":"536913071","Spot":0.84,"SideOfStreet":"right","CountryId":"20147700","StateId":"20191185","CountyId":"23399505","CityId":"20193796","DistrictId":"20193798","AddressId":"189820576","RoadLinkId":"39801614"}}},{"Relevance":1.0,"Distance":51.6,"MatchLevel":"houseNumber","MatchQuality":{"Country":1.0,"State":1.0,"County":1.0,"City":1.0,"District":1.0,"Street":[1.0],"HouseNumber":1.0,"PostalCode":1.0},"MatchType":"interpolated","Location":{"LocationId":"NT_guK9EkC7BdJI8yWQoepIzC_xA","LocationType":"point","DisplayPosition":{"Latitude":51.55871,"Longitude":13.00376},"MapView":{"TopLeft":{"Latitude":51.5598342,"Longitude":13.0019518},"BottomRight":{"Latitude":51.5575858,"Longitude":13.0055682}},"Address":{"Label":"Scheffelstraße 1, 04860 Torgau, Deutschland","Country":"DEU","State":"Sachsen","County":"Nordsachsen","City":"Torgau","District":"Torgau","Street":"Scheffelstraße","HouseNumber":"1","PostalCode":"04860","AdditionalData":[{"value":"Deutschland","key":"CountryName"},{"value":"Sachsen","key":"StateName"},{"value":"Nordsachsen","key":"CountyName"}]},"MapReference":{"ReferenceId":"536912958","Spot":0.81,"SideOfStreet":"left","CountryId":"20147700","StateId":"20191185","CountyId":"23399505","CityId":"20193796","DistrictId":"20193798","AddressId":"190265189","RoadLinkId":"39792539"}}},{"Relevance":1.0,"Distance":78.1,"MatchLevel":"houseNumber","MatchQuality":{"Country":1.0,"State":1.0,"County":1.0,"City":1.0,"District":1.0,"Street":[1.0],"HouseNumber":1.0,"PostalCode":1.0},"MatchType":"interpolated","Location":{"LocationId":"NT_SLuqK2ethgiM-CAqmZNbMC_xA","LocationType":"point","DisplayPosition":{"Latitude":51.55838,"Longitude":13.00404},"MapView":{"TopLeft":{"Latitude":51.5595042,"Longitude":13.0022319},"BottomRight":{"Latitude":51.5572558,"Longitude":13.0058481}},"Address":{"Label":"Markt 1, 04860 Torgau, Deutschland","Country":"DEU","State":"Sachsen","County":"Nordsachsen","City":"Torgau","District":"Torgau","Street":"Markt","HouseNumber":"1","PostalCode":"04860","AdditionalData":[{"value":"Deutschland","key":"CountryName"},{"value":"Sachsen","key":"StateName"},{"value":"Nordsachsen","key":"CountyName"}]},"MapReference":{"ReferenceId":"536912916","Spot":0.26,"SideOfStreet":"left","CountryId":"20147700","StateId":"20191185","CountyId":"23399505","CityId":"20193796","DistrictId":"20193798","AddressId":"189893542","RoadLinkId":"39847500"}}},{"Relevance":1.0,"Distance":91.0,"MatchLevel":"houseNumber","MatchQuality":{"Country":1.0,"State":1.0,"County":1.0,"City":1.0,"District":1.0,"Street":[1.0],"HouseNumber":1.0,"PostalCode":1.0},"MatchType":"interpolated","Location":{"LocationId":"NT_FiWaEvQT8iK1NgFqzIeNXA_xA","LocationType":"point","DisplayPosition":{"Latitude":51.55933,"Longitude":13.00565},"MapView":{"TopLeft":{"Latitude":51.5604542,"Longitude":13.0038418},"BottomRight":{"Latitude":51.5582058,"Longitude":13.0074582}},"Address":{"Label":"Pfarrstraße 1, 04860 Torgau, Deutschland","Country":"DEU","State":"Sachsen","County":"Nordsachsen","City":"Torgau","District":"Torgau","Street":"Pfarrstraße","HouseNumber":"1","PostalCode":"04860","AdditionalData":[{"value":"Deutschland","key":"CountryName"},{"value":"Sachsen","key":"StateName"},{"value":"Nordsachsen","key":"CountyName"}]},"MapReference":{"ReferenceId":"536913072","Spot":0.21,"SideOfStreet":"left","CountryId":"20147700","StateId":"20191185","CountyId":"23399505","CityId":"20193796","DistrictId":"20193798","AddressId":"190242635","RoadLinkId":"39718473"}}},{"Relevance":1.0,"Distance":95.8,"MatchLevel":"houseNumber","MatchQuality":{"Country":1.0,"State":1.0,"County":1.0,"City":1.0,"District":1.0,"Street":[1.0],"HouseNumber":1.0,"PostalCode":1.0},"MatchType":"interpolated","Location":{"LocationId":"NT_SLuqK2ethgiM-CAqmZNbMC_xMD","LocationType":"point","DisplayPosition":{"Latitude":51.5582,"Longitude":13.00444},"MapView":{"TopLeft":{"Latitude":51.5593242,"Longitude":13.0026319},"BottomRight":{"Latitude":51.5570758,"Longitude":13.0062481}},"Address":{"Label":"Markt 13, 04860 Torgau, Deutschland","Country":"DEU","State":"Sachsen","County":"Nordsachsen","City":"Torgau","District":"Torgau","Street":"Markt","HouseNumber":"13","PostalCode":"04860","AdditionalData":[{"value":"Deutschland","key":"CountryName"},{"value":"Sachsen","key":"StateName"},{"value":"Nordsachsen","key":"CountyName"}]},"MapReference":{"ReferenceId":"536912903","Spot":0.5,"SideOfStreet":"right","CountryId":"20147700","StateId":"20191185","CountyId":"23399505","CityId":"20193796","DistrictId":"20193798","AddressId":"190134312","RoadLinkId":"39915124"}}}]}]}}