{"Response":{"MetaInfo":{"Timestamp":"2020-03-28T11:01:55.723+0000","NextPageInformation":"2"},"View":[{"_type":"SearchResultsViewType","ViewId":0,"Result":[{"Relevance":1.0,"Distance":0.0,"Direction":0.0,"MatchLevel":"district","MatchQuality":{"Country":1.0,"State":1.0,"County":1.0,"City":1.0,"District":1.0,"PostalCode":1.0},"Location":{"LocationId":"NT_WSZyds8yqvMX7kGSEmx19D","LocationType":"point","DisplayPosition":{"Latitude":51.5469123,"Longitude":7.314345},"MapView":{"TopLeft":{"Latitude":51.60343,"Longitude":7.27599},"BottomRight":{"Latitude":51.53068,"Longitude":7.36288}},"Address":{"Label":"Castrop-Rauxel, Nordrhein-Westfalen, Deutschland","Country":"DEU","State":"Nordrhein-Westfalen","County":"Recklinghausen","City":"Castrop-Rauxel","District":"Castrop-Rauxel","PostalCode":"44575","AdditionalData":[{"value":"Deutschland","key":"CountryName"},{"value":"Nordrhein-Westfalen","key":"StateName"},{"value":"Recklinghausen","key":"CountyName"}]},"MapReference":{"ReferenceId":"51487065","SideOfStreet":"neither","CountryId":"20147700","StateId":"20157369","CountyId":"20159272","CityId":"20159273","DistrictId":"20159280"}}},{"Relevance":1.0,"Distance":8.1,"MatchLevel":"houseNumber","MatchQuality":{"Country":1.0,"State":1.0,"County":1.0,"City":1.0,"District":1.0,"Street":[1.0],"HouseNumber":1.0,"PostalCode":1.0},"MatchType":"interpolated","Location":{"LocationId":"NT_s7mEZpC7fhegQU-zqJgJBC_0kD","LocationType":"point","DisplayPosition":{"Latitude":51.54682,"Longitude":7.31423},"MapView":{"TopLeft":{"Latitude":51.5479442,"Longitude":7.3124223},"BottomRight":{"Latitude":51.5456958,"Longitude":7.3160377}},"Address":{"Label":"Wittener Straße 49, 44575 Castrop-Rauxel, Deutschland","Country":"DEU","State":"Nordrhein-Westfalen","County":"Recklinghausen","City":"Castrop-Rauxel","District":"Castrop-Rauxel","Street":"Wittener Straße","HouseNumber":"49","PostalCode":"44575","AdditionalData":[{"value":"Deutschland","key":"CountryName"},{"value":"Nordrhein-Westfalen","key":"StateName"},{"value":"Recklinghausen","key":"CountyName"}]},"MapReference":{"ReferenceId":"1205218686","Spot":0.65,"SideOfStreet":"right","CountryId":"20147700","StateId":"20157369","CountyId":"20159272","CityId":"20159273","DistrictId":"20159280","AddressId":"196015802","RoadLinkId":"518781196"}}},{"Relevance":1.0,"Distance":55.4,"MatchLevel":"houseNumber","MatchQuality":{"Country":1.0,"State":1.0,"County":1.0,"City":1.0,"District":1.0,"Street":[1.0],"HouseNumber":1.0,"PostalCode":1.0},"MatchType":"interpolated","Location":{"LocationId":"NT_s7mEZpC7fhegQU-zqJgJBC_0ED","LocationType":"point","DisplayPosition":{"Latitude":51.5473,"Longitude":7.31383},"MapView":{"TopLeft":{"Latitude":51.5484242,"Longitude":7.3120223},"BottomRight":{"Latitude":51.5461758,"Longitude":7.3156377}},"Address":{"Label":"Wittener Straße 41, 44575 Castrop-Rauxel, Deutschland","Country":"DEU","State":"Nordrhein-Westfalen","County":"Recklinghausen","City":"Castrop-Rauxel","District":"Castrop-Rauxel","Street":"Wittener Straße","HouseNumber":"41","PostalCode":"44575","AdditionalData":[{"value":"Deutschland","key":"CountryName"},{"value":"Nordrhein-Westfalen","key":"StateName"},{"value":"Recklinghausen","key":"CountyName"}]},"MapReference":{"ReferenceId":"1205218687","Spot":0.33,"SideOfStreet":"right","CountryId":"20147700","StateId":"20157369","CountyId":"20159272","CityId":"20159273","DistrictId":"20159280","AddressId":"196729349","RoadLinkId":"518781197"}}},{"Relevance":1.0,"Distance":63.3,"MatchLevel":"houseNumber","MatchQuality":{"Country":1.0,"State":1.0,"County":1.0,"City":1.0,"District":1.0,"Street":[1.0],"HouseNumber":1.0,"PostalCode":1.0},"MatchType":"interpolated","Location":{"LocationId":"NT_g3xQX0qI6l9rkn7VPpv.NA_xAD","LocationType":"point","DisplayPosition":{"Latitude":51.54637,"Longitude":7.31337},"MapView":{"TopLeft":{"Latitude":51.5474942,"Longitude":7.3115623},"BottomRight":{"Latitude":51.5452458,"Longitude":7.3151777}},"Address":{"Label":"An der Freiheit 10, 44575 Castrop-Rauxel, Deutschland","Country":"DEU","State":"Nordrhein-Westfalen","County":"Recklinghausen","City":"Castrop-Rauxel","District":"Castrop-Rauxel","Street":"An der Freiheit","HouseNumber":"10","PostalCode":"44575","AdditionalData":[{"value":"Deutschland","key":"CountryName"},{"value":"Nordrhein-Westfalen","key":"StateName"},{"value":"Recklinghausen","key":"CountyName"}]},"MapReference":{"ReferenceId":"1262189866","Spot":0.07,"SideOfStreet":"right","CountryId":"20147700","StateId":"20157369","CountyId":"20159272","CityId":"20159273","DistrictId":"20159280","AddressId":"768340788","RoadLinkId":"587869370"}}},{"Relevance":1.0,"Distance":76.7,"MatchLevel":"houseNumber","MatchQuality":{"Country":1.0,"State":1.0,"County":1.0,"City":1.0,"District":1.0,"Street":[1.0],"HouseNumber":1.0,"PostalCode":1.0},"MatchType":"interpolated","Location":{"LocationId":"NT_s7mEZpC7fhegQU-zqJgJBC_zcD","LocationType":"point","DisplayPosition":{"Latitude":51.54747,"Longitude":7.31368},"MapView":{"TopLeft":{"Latitude":51.5485942,"Longitude":7.3118723},"BottomRight":{"Latitude":51.5463458,"Longitude":7.3154877}},"Address":{"Label":"Wittener Straße 37, 44575 Castrop-Rauxel, Deutschland","Country":"DEU","State":"Nordrhein-Westfalen","County":"Recklinghausen","City":"Castrop-Rauxel","District":"Castrop-Rauxel","Street":"Wittener Straße","HouseNumber":"37","PostalCode":"44575","AdditionalData":[{"value":"Deutschland","key":"CountryName"},{"value":"Nordrhein-Westfalen","key":"StateName"},{"value":"Recklinghausen","key":"CountyName"}]},"MapReference":{"ReferenceId":"51427133","Spot":0.16,"SideOfStreet":"right","CountryId":"20147700","StateId":"20157369","CountyId":"20159272","CityId":"20159273","DistrictId":"20159280","AddressId":"194594319","RoadLinkId":"35444122"}}},{"Relevance":1.0,"Distance":79.1,"MatchLevel":"houseNumber","MatchQuality":{"Country":1.0,"State":1.0,"County":1.0,"City":1.0,"District":1.0,"Street":[1.0],"HouseNumber":1.0,"PostalCode":1.0},"MatchType":"interpolated","Location":{"LocationId":"NT_ODKhWPKir-erQtj07Mo.AC_1A","LocationType":"point","DisplayPosition":{"Latitude":51.54716,"Longitude":7.3131},"MapView":{"TopLeft":{"Latitude":51.5482842,"Longitude":7.3112923},"BottomRight":{"Latitude":51.5460358,"Longitude":7.3149077}},"Address":{"Label":"Viktoriastraße 5, 44575 Castrop-Rauxel, Deutschland","Country":"DEU","State":"Nordrhein-Westfalen","County":"Recklinghausen","City":"Castrop-Rauxel","District":"Castrop-Rauxel","Street":"Viktoriastraße","HouseNumber":"5","PostalCode":"44575","AdditionalData":[{"value":"Deutschland","key":"CountryName"},{"value":"Nordrhein-Westfalen","key":"StateName"},{"value":"Recklinghausen","key":"CountyName"}]},"MapReference":{"ReferenceId":"51427068","Spot":0.47,"SideOfStreet":"right","CountryId":"20147700","StateId":"20157369","CountyId":"20159272","CityId":"20159273","DistrictId":"20159280","AddressId":"192584918","RoadLinkId":"35778483"}}},{"Relevance":1.0,"Distance":81.3,"MatchLevel":"houseNumber","MatchQuality":{"Country":1.0,"State":1.0,"County":1.0,"City":1.0,"District":1.0,"Street":[1.0],"HouseNumber":1.0,"PostalCode":1.0},"MatchType":"interpolated","Location":{"LocationId":"NT_xQ9Ejv2lNiOOClrPHSXv0D_4A","LocationType":"point","DisplayPosition":{"Latitude":51.54778,"Longitude":7.31447},"MapView":{"TopLeft":{"Latitude":51.5489042,"Longitude":7.3126623},"BottomRight":{"Latitude":51.5466558,"Longitude":7.3162777}},"Address":{"Label":"Dortmunder Straße 8, 44575 Castrop-Rauxel, Deutschland","Country":"DEU","State":"Nordrhein-Westfalen","County":"Recklinghausen","City":"Castrop-Rauxel","District":"Castrop-Rauxel","Street":"Dortmunder Straße","HouseNumber":"8","PostalCode":"44575","AdditionalData":[{"value":"Deutschland","key":"CountryName"},{"value":"Nordrhein-Westfalen","key":"StateName"},{"value":"Recklinghausen","key":"CountyName"}]},"MapReference":{"ReferenceId":"51426430","Spot":0.51,"SideOfStreet":"left","CountryId":"20147700","StateId":"20157369","CountyId":"20159272","CityId":"20159273","DistrictId":"20159280","AddressId":"194095293","RoadLinkId":"35666858"}}},{"Relevance":1.0,"Distance":93.2,"MatchLevel":"street","MatchQuality":{"Country":1.0,"State":1.0,"County":1.0,"City":1.0,"District":1.0,"PostalCode":1.0},"Location":{"LocationId":"NT_u2XfQAGpUBhiyPmftMxqkA_l_587016434_L","LocationType":"point","DisplayPosition":{"Latitude":51.54648,"Longitude":7.3155},"MapView":{"TopLeft":{"Latitude":51.54648,"Longitude":7.3155},"BottomRight":{"Latitude":51.54598,"Longitude":7.31583}},"Address":{"Label":"44575 Castrop-Rauxel, Deutschland","Country":"DEU","State":"Nordrhein-Westfalen","County":"Recklinghausen","City":"Castrop-Rauxel","District":"Castrop-Rauxel","PostalCode":"44575","AdditionalData":[{"value":"Deutschland","key":"CountryName"},{"value":"Nordrhein-Westfalen","key":"StateName"},{"value":"Recklinghausen","key":"CountyName"}]},"MapReference":{"ReferenceId":"587016434","Spot":1.0,"SideOfStreet":"left","CountryId":"20147700","StateId":"20157369","CountyId":"20159272","CityId":"20159273","DistrictId":"20159280"}}},{"Relevance":1.0,"Distance":94.6,"MatchLevel":"houseNumber","MatchQuality":{"Country":1.0,"State":1.0,"County":1.0,"City":1.0,"District":1.0,"Street":[1.0],"HouseNumber":1.0,"PostalCode":1.0},"MatchType":"interpolated","Location":{"LocationId":"NT_g3xQX0qI6l9rkn7VPpv.NA_1A","LocationType":"point","DisplayPosition":{"Latitude":51.54622,"Longitude":7.31355},"MapView":{"TopLeft":{"Latitude":51.5473442,"Longitude":7.3117423},"BottomRight":{"Latitude":51.5450958,"Longitude":7.3153577}},"Address":{"Label":"An der Freiheit 5, 44575 Castrop-Rauxel, Deutschland","Country":"DEU","State":"Nordrhein-Westfalen","County":"Recklinghausen","City":"Castrop-Rauxel","District":"Castrop-Rauxel","Street":"An der Freiheit","HouseNumber":"5","PostalCode":"44575","AdditionalData":[{"value":"Deutschland","key":"CountryName"},{"value":"Nordrhein-Westfalen","key":"StateName"},{"value":"Recklinghausen","key":"CountyName"}]},"MapReference":{"ReferenceId":"1090305202","Spot":0.46,"SideOfStreet":"left","CountryId":"20147700","StateId":"20157369","CountyId":"20159272","CityId":"20159273","DistrictId":"20159280","AddressId":"768352693","RoadLinkId":"405289138"}}},{"Relevance":1.0,"Distance":105.6,"MatchLevel":"houseNumber","MatchQuality":{"Country":1.0,"State":1.0,"County":1.0,"City":1.0,"District":1.0,"Street":[1.0],"HouseNumber":1.0,"PostalCode":1.0},"MatchType":"interpolated","Location":{"LocationId":"NT_g3xQX0qI6l9rkn7VPpv.NA_zA","LocationType":"point","DisplayPosition":{"Latitude":51.54604,"Longitude":7.31374},"MapView":{"TopLeft":{"Latitude":51.5471642,"Longitude":7.3119323},"BottomRight":{"Latitude":51.5449158,"Longitude":7.3155477}},"Address":{"Label":"An der Freiheit 3, 44575 Castrop-Rauxel, Deutschland","Country":"DEU","State":"Nordrhein-Westfalen","County":"Recklinghausen","City":"Castrop-Rauxel","District":"Castrop-Rauxel","Street":"An der Freiheit","HouseNumber":"3","PostalCode":"44575","AdditionalData":[{"value":"Deutschland","key":"CountryName"},{"value":"Nordrhein-Westfalen","key":"StateName"},{"value":"Recklinghausen","key":"CountyName"}]},"MapReference":{"ReferenceId":"1090305201","Spot":0.81,"SideOfStreet":"left","CountryId":"20147700","StateId":"20157369","CountyId":"20159272","CityId":"20159273","DistrictId":"20159280","AddressId":"768344426","RoadLinkId":"405289137"}}}]}]}}