{"Response":{"MetaInfo":{"Timestamp":"2020-03-28T10:38:06.607+0000","NextPageInformation":"2"},"View":[{"_type":"SearchResultsViewType","ViewId":0,"Result":[{"Relevance":1.0,"Distance":0.0,"Direction":0.0,"MatchLevel":"district","MatchQuality":{"Country":1.0,"State":1.0,"County":1.0,"City":1.0,"District":1.0,"PostalCode":1.0},"Location":{"LocationId":"NT_1tJ5eFNdUOMKDXGu83CKCD","LocationType":"point","DisplayPosition":{"Latitude":51.5716857,"Longitude":-0.0087511},"MapView":{"TopLeft":{"Latitude":51.58099,"Longitude":-0.04676},"BottomRight":{"Latitude":51.55246,"Longitude":0.00358}},"Address":{"Label":"E10, London, England, United Kingdom","Country":"GBR","State":"England","County":"London","City":"London","District":"E10","PostalCode":"E10 5","AdditionalData":[{"value":"United Kingdom","key":"CountryName"},{"value":"England","key":"StateName"},{"value":"London","key":"CountyName"}]},"MapReference":{"ReferenceId":"25395115","SideOfStreet":"neither","StateId":"20248595","CountyId":"20337453","CityId":"20337454","DistrictId":"20337462"}}},{"Relevance":1.0,"Distance":25.0,"MatchLevel":"houseNumber","MatchQuality":{"Country":1.0,"State":1.0,"County":1.0,"City":1.0,"District":1.0,"Street":[1.0],"HouseNumber":1.0,"PostalCode":1.0},"MatchType":"interpolated","Location":{"LocationId":"NT_-FkhZzl4KMJEo8hIfbezxC_3ADM","LocationType":"point","DisplayPosition":{"Latitude":51.5717,"Longitude":-0.00839},"MapView":{"TopLeft":{"Latitude":51.5728242,"Longitude":-0.0101987},"BottomRight":{"Latitude":51.5705758,"Longitude":-0.0065813}},"Address":{"Label":"700 High Road Leyton, London, E10 6JP, United Kingdom","Country":"GBR","State":"England","County":"London","City":"London","District":"Leyton","Street":"High Road Leyton","HouseNumber":"700","PostalCode":"E10 6JP","AdditionalData":[{"value":"United Kingdom","key":"CountryName"},{"value":"England","key":"StateName"},{"value":"London","key":"CountyName"}]},"MapReference":{"ReferenceId":"25394387","Spot":0.7,"SideOfStreet":"right","StateId":"20248595","CountyId":"20337453","CityId":"20337454","AddressId":"748211383","RoadLinkId":"82747099"}}},{"Relevance":1.0,"Distance":32.8,"MatchLevel":"houseNumber","MatchQuality":{"Country":1.0,"State":1.0,"County":1.0,"City":1.0,"District":1.0,"Street":[1.0],"HouseNumber":1.0,"PostalCode":1.0},"MatchType":"interpolated","Location":{"LocationId":"NT_-FkhZzl4KMJEo8hIfbezxC_2kTO","LocationType":"point","DisplayPosition":{"Latitude":51.57195,"Longitude":-0.00837},"MapView":{"TopLeft":{"Latitude":51.5730742,"Longitude":-0.0101787},"BottomRight":{"Latitude":51.5708258,"Longitude":-0.0065613}},"Address":{"Label":"699 High Road Leyton, London, E10 6RA, United Kingdom","Country":"GBR","State":"England","County":"London","City":"London","District":"Leyton","Street":"High Road Leyton","HouseNumber":"699","PostalCode":"E10 6RA","AdditionalData":[{"value":"United Kingdom","key":"CountryName"},{"value":"England","key":"StateName"},{"value":"London","key":"CountyName"}]},"MapReference":{"ReferenceId":"25394360","Spot":0.34,"SideOfStreet":"left","StateId":"20248595","CountyId":"20337453","CityId":"20337454","AddressId":"763554480","RoadLinkId":"82506125"}}},{"Relevance":1.0,"Distance":34.6,"MatchLevel":"houseNumber","MatchQuality":{"Country":1.0,"State":1.0,"County":1.0,"City":1.0,"District":1.0,"Street":[1.0],"HouseNumber":1.0,"PostalCode":1.0},"MatchType":"interpolated","Location":{"LocationId":"NT_A-ro41QnrfgzD.h3hGiRrB_xETY","LocationType":"point","DisplayPosition":{"Latitude":51.57171,"Longitude":-0.00932},"MapView":{"TopLeft":{"Latitude":51.5728342,"Longitude":-0.0111287},"BottomRight":{"Latitude":51.5705858,"Longitude":-0.0075113}},"Address":{"Label":"11a Skeltons Lane, London, E10 5, United Kingdom","Country":"GBR","State":"England","County":"London","City":"London","District":"Leyton","Street":"Skeltons Lane","HouseNumber":"11a","PostalCode":"E10 5","AdditionalData":[{"value":"United Kingdom","key":"CountryName"},{"value":"England","key":"StateName"},{"value":"London","key":"CountyName"}]},"MapReference":{"ReferenceId":"837868148","Spot":0.35,"SideOfStreet":"right","StateId":"20248595","CountyId":"20337453","CityId":"20337454","AddressId":"747505614","RoadLinkId":"220664546"}}},{"Relevance":1.0,"Distance":38.7,"MatchLevel":"houseNumber","MatchQuality":{"Country":1.0,"State":1.0,"County":1.0,"City":1.0,"District":1.0,"Street":[1.0],"HouseNumber":1.0,"PostalCode":1.0},"MatchType":"interpolated","Location":{"LocationId":"NT_VAHSbMOdiDB921UseF05-C_l_940553922_L_xA","LocationType":"point","DisplayPosition":{"Latitude":51.5714517,"Longitude":-0.0081827},"MapView":{"TopLeft":{"Latitude":51.5725759,"Longitude":-0.0099913},"BottomRight":{"Latitude":51.5703276,"Longitude":-0.006374}},"Address":{"Label":"1 Abbotts Park Road, London, E10 6HT, United Kingdom","Country":"GBR","State":"England","County":"London","City":"London","District":"Leyton","Street":"Abbotts Park Road","HouseNumber":"1","PostalCode":"E10 6HT","AdditionalData":[{"value":"United Kingdom","key":"CountryName"},{"value":"England","key":"StateName"},{"value":"London","key":"CountyName"}]},"MapReference":{"ReferenceId":"940553922","Spot":0.52,"SideOfStreet":"left","StateId":"20248595","CountyId":"20337453","CityId":"20337454"}}},{"Relevance":1.0,"Distance":52.4,"MatchLevel":"postalCode","MatchQuality":{"PostalCode":1.0},"MatchType":"interpolated","Location":{"LocationId":"NT_-FkhZzl4KMJEo8hIfbezxC_2czN","LocationType":"point","DisplayPosition":{"Latitude":51.57129,"Longitude":-0.00834},"MapView":{"TopLeft":{"Latitude":51.5802832,"Longitude":-0.0228092},"BottomRight":{"Latitude":51.5622968,"Longitude":0.0061292}},"Address":{"Label":"E10 6JP, London, England, United Kingdom","Country":"GBR","State":"England","County":"London","City":"London","PostalCode":"E10 6JP","AdditionalData":[{"value":"United Kingdom","key":"CountryName"},{"value":"England","key":"StateName"},{"value":"London","key":"CountyName"}]},"MapReference":{"ReferenceId":"1218115755","Spot":0.66,"SideOfStreet":"neither","StateId":"20248595","CountyId":"20337453","CityId":"20337454"}}},{"Relevance":1.0,"Distance":54.5,"MatchLevel":"postalCode","MatchQuality":{"PostalCode":1.0},"MatchType":"interpolated","Location":{"LocationId":"NT_A-ro41QnrfgzD.h3hGiRrB_xETY","LocationType":"point","DisplayPosition":{"Latitude":51.57169,"Longitude":-0.00954},"MapView":{"TopLeft":{"Latitude":51.5806832,"Longitude":-0.0240094},"BottomRight":{"Latitude":51.5626968,"Longitude":0.0049294}},"Address":{"Label":"E10 5BX, London, England, United Kingdom","Country":"GBR","State":"England","County":"London","City":"London","PostalCode":"E10 5BX","AdditionalData":[{"value":"United Kingdom","key":"CountryName"},{"value":"England","key":"StateName"},{"value":"London","key":"CountyName"}]},"MapReference":{"ReferenceId":"837868148","Spot":0.35,"SideOfStreet":"neither","StateId":"20248595","CountyId":"20337453","CityId":"20337454"}}},{"Relevance":1.0,"Distance":54.9,"MatchLevel":"houseNumber","MatchQuality":{"Country":1.0,"State":1.0,"County":1.0,"City":1.0,"District":1.0,"Street":[1.0],"HouseNumber":1.0,"PostalCode":1.0},"MatchType":"interpolated","Location":{"LocationId":"NT_-FkhZzl4KMJEo8hIfbezxC_2czN","LocationType":"point","DisplayPosition":{"Latitude":51.5712,"Longitude":-0.00839},"MapView":{"TopLeft":{"Latitude":51.5723242,"Longitude":-0.0101987},"BottomRight":{"Latitude":51.5700758,"Longitude":-0.0065813}},"Address":{"Label":"677 High Road Leyton, London, E10 6RA, United Kingdom","Country":"GBR","State":"England","County":"London","City":"London","District":"Leyton","Street":"High Road Leyton","HouseNumber":"677","PostalCode":"E10 6RA","AdditionalData":[{"value":"United Kingdom","key":"CountryName"},{"value":"England","key":"StateName"},{"value":"London","key":"CountyName"}]},"MapReference":{"ReferenceId":"1218115755","Spot":0.66,"SideOfStreet":"left","StateId":"20248595","CountyId":"20337453","CityId":"20337454","AddressId":"747910775","RoadLinkId":"534690509"}}},{"Relevance":1.0,"Distance":57.2,"MatchLevel":"landmark","MatchQuality":{"Country":1.0,"State":1.0,"County":1.0,"City":1.0,"District":1.0,"PostalCode":1.0,"Name":1.0},"Location":{"LocationId":"NT_b47Kmo2wZP27DATNRXzpuA","LocationType":"park","Name":"Abbotts Park","DisplayPosition":{"Latitude":51.57118,"Longitude":-0.00671},"MapView":{"TopLeft":{"Latitude":51.57195,"Longitude":-0.00798},"BottomRight":{"Latitude":51.5704,"Longitude":-0.00546}},"Address":{"Label":"London, E10 5, United Kingdom","Country":"GBR","State":"England","County":"London","City":"London","District":"E10","PostalCode":"E10 5","AdditionalData":[{"value":"United Kingdom","key":"CountryName"},{"value":"England","key":"StateName"},{"value":"London","key":"CountyName"}]},"MapReference":{"StateId":"20248595","CountyId":"20337453","CityId":"20337454","DistrictId":"20337462","PlaceId":"1451670413"}}},{"Relevance":1.0,"Distance":63.0,"MatchLevel":"houseNumber","MatchQuality":{"Country":1.0,"State":1.0,"County":1.0,"City":1.0,"District":1.0,"Street":[1.0],"HouseNumber":1.0,"PostalCode":1.0},"MatchType":"interpolated","Location":{"LocationId":"NT_VAHSbMOdiDB921UseF05-C_zEG","LocationType":"point","DisplayPosition":{"Latitude":51.57155,"Longitude":-0.00776},"MapView":{"TopLeft":{"Latitude":51.5726742,"Longitude":-0.0095687},"BottomRight":{"Latitude":51.5704258,"Longitude":-0.0059513}},"Address":{"Label":"3a Abbotts Park Road, London, E10 6, United Kingdom","Country":"GBR","State":"England","County":"London","City":"London","District":"Leyton","Street":"Abbotts Park Road","HouseNumber":"3a","PostalCode":"E10 6","AdditionalData":[{"value":"United Kingdom","key":"CountryName"},{"value":"England","key":"StateName"},{"value":"London","key":"CountyName"}]},"MapReference":{"ReferenceId":"940553923","Spot":0.11,"SideOfStreet":"left","StateId":"20248595","CountyId":"20337453","CityId":"20337454","AddressId":"747533453","RoadLinkId":"290575123"}}}]}]}}