{"Response":{"MetaInfo":{"Timestamp":"2020-03-28T10:56:05.152+0000","NextPageInformation":"2"},"View":[{"_type":"SearchResultsViewType","ViewId":0,"Result":[{"Relevance":1.0,"Distance":-7.0,"MatchLevel":"landmark","MatchQuality":{"Country":1.0,"State":1.0,"County":1.0,"City":1.0,"District":1.0,"PostalCode":1.0,"Name":1.0},"Location":{"LocationId":"NT_-0vRKoHzdcPO.L71U0SXhC","LocationType":"hospital","Name":"Ev. Krankenhaus Duisburg-Nord","DisplayPosition":{"Latitude":51.51521,"Longitude":6.76554},"MapView":{"TopLeft":{"Latitude":51.51659,"Longitude":6.76158},"BottomRight":{"Latitude":51.51382,"Longitude":6.76862}},"Address":{"Label":"47169 Duisburg, Deutschland","Country":"DEU","State":"Nordrhein-Westfalen","County":"Duisburg","City":"Duisburg","District":"Röttgersbach","PostalCode":"47169","AdditionalData":[{"value":"Deutschland","key":"CountryName"},{"value":"Nordrhein-Westfalen","key":"StateName"},{"value":"Duisburg","key":"CountyName"}]},"MapReference":{"CountryId":"20147700","StateId":"20157369","CountyId":"20157384","CityId":"20157385","DistrictId":"20248790","PlaceId":"53316117"}}},{"Relevance":1.0,"Distance":0.0,"Direction":0.0,"MatchLevel":"district","MatchQuality":{"Country":1.0,"State":1.0,"County":1.0,"City":1.0,"District":1.0,"PostalCode":1.0},"Location":{"LocationId":"NT_c7bPMSAmJ7Ii-m-Ano.KKC","LocationType":"point","DisplayPosition":{"Latitude":51.5142918,"Longitude":6.7638662},"MapView":{"TopLeft":{"Latitude":51.52544,"Longitude":6.75962},"BottomRight":{"Latitude":51.50247,"Longitude":6.80204}},"Address":{"Label":"Röttgersbach, Duisburg, Nordrhein-Westfalen, Deutschland","Country":"DEU","State":"Nordrhein-Westfalen","County":"Duisburg","City":"Duisburg","District":"Röttgersbach","PostalCode":"47169","AdditionalData":[{"value":"Deutschland","key":"CountryName"},{"value":"Nordrhein-Westfalen","key":"StateName"},{"value":"Duisburg","key":"CountyName"}]},"MapReference":{"ReferenceId":"1260699631","SideOfStreet":"neither","CountryId":"20147700","StateId":"20157369","CountyId":"20157384","CityId":"20157385","DistrictId":"20248790"}}},{"Relevance":1.0,"Distance":2.8,"MatchLevel":"street","MatchQuality":{"Country":1.0,"State":1.0,"County":1.0,"City":1.0,"District":1.0,"PostalCode":1.0},"Location":{"LocationId":"NT_v1Xzu.ibJVTYiMGZsM2t4A_l_1260780831_L","LocationType":"point","DisplayPosition":{"Latitude":51.5142665,"Longitude":6.7638606},"MapView":{"TopLeft":{"Latitude":51.51436,"Longitude":6.76344},"BottomRight":{"Latitude":51.51402,"Longitude":6.76467}},"Address":{"Label":"47169 Duisburg, Deutschland","Country":"DEU","State":"Nordrhein-Westfalen","County":"Duisburg","City":"Duisburg","District":"Röttgersbach","PostalCode":"47169","AdditionalData":[{"value":"Deutschland","key":"CountryName"},{"value":"Nordrhein-Westfalen","key":"StateName"},{"value":"Duisburg","key":"CountyName"}]},"MapReference":{"ReferenceId":"1260780831","Spot":0.66,"SideOfStreet":"neither","CountryId":"20147700","StateId":"20157369","CountyId":"20157384","CityId":"20157385","DistrictId":"20248790"}}},{"Relevance":1.0,"Distance":7.1,"MatchLevel":"landmark","MatchQuality":{"Country":1.0,"State":1.0,"County":1.0,"City":1.0,"District":1.0,"Street":[1.0],"PostalCode":1.0,"Name":1.0},"Location":{"LocationId":"NT_rdBDG1o-aJqS2paGOa8tFD_p_GD8hId45QX.YhNX8K2gLxB","LocationType":"park","Name":"Jubiläumshain","DisplayPosition":{"Latitude":51.50831,"Longitude":6.76761},"MapView":{"TopLeft":{"Latitude":51.51603,"Longitude":6.75962},"BottomRight":{"Latitude":51.50819,"Longitude":6.77236}},"Address":{"Label":"Bayernstraße, 47169 Duisburg, Deutschland","Country":"DEU","State":"Nordrhein-Westfalen","County":"Duisburg","City":"Duisburg","District":"Marxloh","Street":"Bayernstraße","PostalCode":"47169","AdditionalData":[{"value":"Deutschland","key":"CountryName"},{"value":"Nordrhein-Westfalen","key":"StateName"},{"value":"Duisburg","key":"CountyName"}]},"MapReference":{"CountryId":"20147700","StateId":"20157369","CountyId":"20157384","CityId":"20157385","DistrictId":"20157389","PlaceId":"53219447"}}},{"Relevance":1.0,"Distance":18.7,"MatchLevel":"street","MatchQuality":{"Country":1.0,"State":1.0,"County":1.0,"City":1.0,"District":1.0,"PostalCode":1.0},"Location":{"LocationId":"NT_q0ZBHSNl-4O5mjws6S3d2B_l_1260421546_L","LocationType":"point","DisplayPosition":{"Latitude":51.5144292,"Longitude":6.7640232},"MapView":{"TopLeft":{"Latitude":51.51457,"Longitude":6.7639},"BottomRight":{"Latitude":51.51427,"Longitude":6.76418}},"Address":{"Label":"47169 Duisburg, Deutschland","Country":"DEU","State":"Nordrhein-Westfalen","County":"Duisburg","City":"Duisburg","District":"Marxloh","PostalCode":"47169","AdditionalData":[{"value":"Deutschland","key":"CountryName"},{"value":"Nordrhein-Westfalen","key":"StateName"},{"value":"Duisburg","key":"CountyName"}]},"MapReference":{"ReferenceId":"1260421546","Spot":0.54,"SideOfStreet":"left","CountryId":"20147700","StateId":"20157369","CountyId":"20157384","CityId":"20157385","DistrictId":"20157389"}}},{"Relevance":1.0,"Distance":21.8,"MatchLevel":"street","MatchQuality":{"Country":1.0,"State":1.0,"County":1.0,"City":1.0,"District":1.0,"PostalCode":1.0},"Location":{"LocationId":"NT_v1Xzu.ibJVTYiMGZsM2t4A_l_1170685961_L","LocationType":"point","DisplayPosition":{"Latitude":51.51427,"Longitude":6.76418},"MapView":{"TopLeft":{"Latitude":51.51427,"Longitude":6.76418},"BottomRight":{"Latitude":51.51398,"Longitude":6.76622}},"Address":{"Label":"47169 Duisburg, Deutschland","Country":"DEU","State":"Nordrhein-Westfalen","County":"Duisburg","City":"Duisburg","District":"Röttgersbach","PostalCode":"47169","AdditionalData":[{"value":"Deutschland","key":"CountryName"},{"value":"Nordrhein-Westfalen","key":"StateName"},{"value":"Duisburg","key":"CountyName"}]},"MapReference":{"ReferenceId":"1170685961","Spot":1.0,"SideOfStreet":"left","CountryId":"20147700","StateId":"20157369","CountyId":"20157384","CityId":"20157385","DistrictId":"20248790"}}},{"Relevance":1.0,"Distance":30.5,"MatchLevel":"street","MatchQuality":{"Country":1.0,"State":1.0,"County":1.0,"City":1.0,"District":1.0,"PostalCode":1.0},"Location":{"LocationId":"NT_v1Xzu.ibJVTYiMGZsM2t4A_l_1260780829_R","LocationType":"point","DisplayPosition":{"Latitude":51.51436,"Longitude":6.76344},"MapView":{"TopLeft":{"Latitude":51.51489,"Longitude":6.76163},"BottomRight":{"Latitude":51.51436,"Longitude":6.76344}},"Address":{"Label":"47169 Duisburg, Deutschland","Country":"DEU","State":"Nordrhein-Westfalen","County":"Duisburg","City":"Duisburg","District":"Röttgersbach","PostalCode":"47169","AdditionalData":[{"value":"Deutschland","key":"CountryName"},{"value":"Nordrhein-Westfalen","key":"StateName"},{"value":"Duisburg","key":"CountyName"}]},"MapReference":{"ReferenceId":"1260780829","Spot":0.0,"SideOfStreet":"right","CountryId":"20147700","StateId":"20157369","CountyId":"20157384","CityId":"20157385","DistrictId":"20248790"}}},{"Relevance":1.0,"Distance":31.0,"MatchLevel":"street","MatchQuality":{"Country":1.0,"State":1.0,"County":1.0,"City":1.0,"District":1.0,"PostalCode":1.0},"Location":{"LocationId":"NT_v1Xzu.ibJVTYiMGZsM2t4A_l_1170691770_L","LocationType":"point","DisplayPosition":{"Latitude":51.51457,"Longitude":6.7639},"MapView":{"TopLeft":{"Latitude":51.51505,"Longitude":6.7634},"BottomRight":{"Latitude":51.51457,"Longitude":6.7639}},"Address":{"Label":"47169 Duisburg, Deutschland","Country":"DEU","State":"Nordrhein-Westfalen","County":"Duisburg","City":"Duisburg","District":"Röttgersbach","PostalCode":"47169","AdditionalData":[{"value":"Deutschland","key":"CountryName"},{"value":"Nordrhein-Westfalen","key":"StateName"},{"value":"Duisburg","key":"CountyName"}]},"MapReference":{"ReferenceId":"1170691770","Spot":0.0,"SideOfStreet":"left","CountryId":"20147700","StateId":"20157369","CountyId":"20157384","CityId":"20157385","DistrictId":"20248790"}}},{"Relevance":1.0,"Distance":63.3,"MatchLevel":"street","MatchQuality":{"Country":1.0,"State":1.0,"County":1.0,"City":1.0,"District":1.0,"PostalCode":1.0},"Location":{"LocationId":"NT_v1Xzu.ibJVTYiMGZsM2t4A_l_1260780834_L","LocationType":"point","DisplayPosition":{"Latitude":51.51402,"Longitude":6.76467},"MapView":{"TopLeft":{"Latitude":51.51402,"Longitude":6.76467},"BottomRight":{"Latitude":51.51394,"Longitude":6.76495}},"Address":{"Label":"47169 Duisburg, Deutschland","Country":"DEU","State":"Nordrhein-Westfalen","County":"Duisburg","City":"Duisburg","District":"Röttgersbach","PostalCode":"47169","AdditionalData":[{"value":"Deutschland","key":"CountryName"},{"value":"Nordrhein-Westfalen","key":"StateName"},{"value":"Duisburg","key":"CountyName"}]},"MapReference":{"ReferenceId":"1260780834","Spot":1.0,"SideOfStreet":"left","CountryId":"20147700","StateId":"20157369","CountyId":"20157384","CityId":"20157385","DistrictId":"20248790"}}},{"Relevance":1.0,"Distance":65.7,"MatchLevel":"landmark","MatchQuality":{"Country":1.0,"State":1.0,"County":1.0,"City":1.0,"District":1.0,"Street":[1.0],"HouseNumber":1.0,"PostalCode":1.0,"Name":1.0},"Location":{"LocationId":"NT_gUL6pnQPcdn0ZaWWdyJhzB_p_wOLzY0oMD4KCabLLd13N7D","LocationType":"park","Name":"MTV Union Hamborn 02","DisplayPosition":{"Latitude":51.51137,"Longitude":6.7645},"MapView":{"TopLeft":{"Latitude":51.5124942,"Longitude":6.7626937},"BottomRight":{"Latitude":51.5102458,"Longitude":6.7663063}},"Address":{"Label":"Warbruckstraße 181, 47169 Duisburg, Deutschland","Country":"DEU","State":"Nordrhein-Westfalen","County":"Duisburg","City":"Duisburg","District":"Marxloh","Street":"Warbruckstraße","HouseNumber":"181","PostalCode":"47169","AdditionalData":[{"value":"Deutschland","key":"CountryName"},{"value":"Nordrhein-Westfalen","key":"StateName"},{"value":"Duisburg","key":"CountyName"}]},"MapReference":{"CountryId":"20147700","StateId":"20157369","CountyId":"20157384","CityId":"20157385","DistrictId":"20157389","PlaceId":"1137588906"}}}]}]}}