{"Response":{"MetaInfo":{"Timestamp":"2020-03-28T09:52:40.572+0000","NextPageInformation":"2"},"View":[{"_type":"SearchResultsViewType","ViewId":0,"Result":[{"Relevance":1.0,"Distance":0.0,"Direction":0.0,"MatchLevel":"district","MatchQuality":{"Country":1.0,"State":1.0,"County":1.0,"City":1.0,"District":1.0,"PostalCode":1.0},"Location":{"LocationId":"NT_s85v0fiJjhGKcE8z86yoeD","LocationType":"point","DisplayPosition":{"Latitude":51.517719,"Longitude":-0.0710942},"MapView":{"TopLeft":{"Latitude":51.52722,"Longitude":-0.07967},"BottomRight":{"Latitude":51.50279,"Longitude":-0.03573}},"Address":{"Label":"E1, London, England, United Kingdom","Country":"GBR","State":"England","County":"London","City":"London","District":"E1","PostalCode":"E1 4","AdditionalData":[{"value":"United Kingdom","key":"CountryName"},{"value":"England","key":"StateName"},{"value":"London","key":"CountyName"}]},"MapReference":{"ReferenceId":"1217977989","SideOfStreet":"neither","StateId":"20248595","CountyId":"20337453","CityId":"20337454","DistrictId":"20337461"}}},{"Relevance":1.0,"Distance":10.8,"MatchLevel":"houseNumber","MatchQuality":{"Country":1.0,"State":1.0,"County":1.0,"City":1.0,"District":1.0,"Street":[1.0],"HouseNumber":1.0,"PostalCode":1.0},"MatchType":"interpolated","Location":{"LocationId":"NT_AeNBJqjUSkiujWgjKpi8eA_xMD","LocationType":"point","DisplayPosition":{"Latitude":51.51785,"Longitude":-0.07102},"MapView":{"TopLeft":{"Latitude":51.5189742,"Longitude":-0.0728265},"BottomRight":{"Latitude":51.5167258,"Longitude":-0.0692135}},"Address":{"Label":"13 Brick Lane, London, E1 6PU, United Kingdom","Country":"GBR","State":"England","County":"London","City":"London","District":"Tower Hamlets","Street":"Brick Lane","HouseNumber":"13","PostalCode":"E1 6PU","AdditionalData":[{"value":"United Kingdom","key":"CountryName"},{"value":"England","key":"StateName"},{"value":"London","key":"CountyName"}]},"MapReference":{"ReferenceId":"727621550","Spot":0.51,"SideOfStreet":"left","StateId":"20248595","CountyId":"20337453","CityId":"20337454","AddressId":"763456099","RoadLinkId":"130461387"}}},{"Relevance":1.0,"Distance":12.5,"MatchLevel":"street","MatchQuality":{"Country":1.0,"State":1.0,"County":1.0,"City":1.0,"District":1.0,"Street":[1.0],"PostalCode":1.0},"Location":{"LocationId":"NT_PPJqxZcwqgqFAcIjFvSfdB_l_727621551_L","LocationType":"point","DisplayPosition":{"Latitude":51.5176067,"Longitude":-0.0710771},"MapView":{"TopLeft":{"Latitude":51.51764,"Longitude":-0.07158},"BottomRight":{"Latitude":51.51753,"Longitude":-0.07088}},"Address":{"Label":"Thrawl Street, London, E1 6, United Kingdom","Country":"GBR","State":"England","County":"London","City":"London","District":"Tower Hamlets","Street":"Thrawl Street","PostalCode":"E1 6","AdditionalData":[{"value":"United Kingdom","key":"CountryName"},{"value":"England","key":"StateName"},{"value":"London","key":"CountyName"}]},"MapReference":{"ReferenceId":"727621551","Spot":0.72,"SideOfStreet":"left","StateId":"20248595","CountyId":"20337453","CityId":"20337454"}}},{"Relevance":1.0,"Distance":16.1,"MatchLevel":"houseNumber","MatchQuality":{"Country":1.0,"State":1.0,"County":1.0,"City":1.0,"District":1.0,"Street":[1.0],"HouseNumber":1.0,"PostalCode":1.0},"MatchType":"interpolated","Location":{"LocationId":"NT_TbimBkc5upVzPpBre75XTD_l_727621549_L_xED","LocationType":"point","DisplayPosition":{"Latitude":51.51765,"Longitude":-0.07089},"MapView":{"TopLeft":{"Latitude":51.5187742,"Longitude":-0.0726965},"BottomRight":{"Latitude":51.5165259,"Longitude":-0.0690835}},"Address":{"Label":"11 Brick Lane, London, E1 6, United Kingdom","Country":"GBR","State":"England","County":"London","City":"London","District":"Tower Hamlets","Street":"Brick Lane","HouseNumber":"11","PostalCode":"E1 6","AdditionalData":[{"value":"United Kingdom","key":"CountryName"},{"value":"England","key":"StateName"},{"value":"London","key":"CountyName"}]},"MapReference":{"ReferenceId":"727621549","Spot":0.5,"SideOfStreet":"left","StateId":"20248595","CountyId":"20337453","CityId":"20337454"}}},{"Relevance":1.0,"Distance":17.2,"MatchLevel":"houseNumber","MatchQuality":{"Country":1.0,"State":1.0,"County":1.0,"City":1.0,"District":1.0,"Street":[1.0],"HouseNumber":1.0,"PostalCode":1.0},"MatchType":"interpolated","Location":{"LocationId":"NT_wBVJpDqFg4XFAFCf25b8XB_l_1163348593_R_yA","LocationType":"point","DisplayPosition":{"Latitude":51.51764,"Longitude":-0.07088},"MapView":{"TopLeft":{"Latitude":51.5187642,"Longitude":-0.0726865},"BottomRight":{"Latitude":51.5165159,"Longitude":-0.0690734}},"Address":{"Label":"2 Hopetown Street, London, E1 5, United Kingdom","Country":"GBR","State":"England","County":"London","City":"London","District":"Tower Hamlets","Street":"Hopetown Street","HouseNumber":"2","PostalCode":"E1 5","AdditionalData":[{"value":"United Kingdom","key":"CountryName"},{"value":"England","key":"StateName"},{"value":"London","key":"CountyName"}]},"MapReference":{"ReferenceId":"1163348593","Spot":0.0,"SideOfStreet":"right","StateId":"20248595","CountyId":"20337453","CityId":"20337454"}}},{"Relevance":1.0,"Distance":23.3,"MatchLevel":"houseNumber","MatchQuality":{"Country":1.0,"State":1.0,"County":1.0,"City":1.0,"District":1.0,"Street":[1.0],"HouseNumber":1.0,"PostalCode":1.0},"MatchType":"interpolated","Location":{"LocationId":"NT_PPJqxZcwqgqFAcIjFvSfdB_zUD","LocationType":"point","DisplayPosition":{"Latitude":51.51785,"Longitude":-0.07162},"MapView":{"TopLeft":{"Latitude":51.5189742,"Longitude":-0.0734265},"BottomRight":{"Latitude":51.5167258,"Longitude":-0.0698135}},"Address":{"Label":"35 Thrawl Street, London, E1 6, United Kingdom","Country":"GBR","State":"England","County":"London","City":"London","District":"Tower Hamlets","Street":"Thrawl Street","HouseNumber":"35","PostalCode":"E1 6","AdditionalData":[{"value":"United Kingdom","key":"CountryName"},{"value":"England","key":"StateName"},{"value":"London","key":"CountyName"}]},"MapReference":{"ReferenceId":"25398450","Spot":0.74,"SideOfStreet":"right","StateId":"20248595","CountyId":"20337453","CityId":"20337454","AddressId":"747968277","RoadLinkId":"82263014"}}},{"Relevance":1.0,"Distance":32.4,"MatchLevel":"postalCode","MatchQuality":{"PostalCode":1.0},"MatchType":"interpolated","Location":{"LocationId":"NT_AeNBJqjUSkiujWgjKpi8eA_xMD","LocationType":"point","DisplayPosition":{"Latitude":51.51801,"Longitude":-0.07107},"MapView":{"TopLeft":{"Latitude":51.5270032,"Longitude":-0.0855223},"BottomRight":{"Latitude":51.5090168,"Longitude":-0.0566177}},"Address":{"Label":"E1 6RF, London, England, United Kingdom","Country":"GBR","State":"England","County":"London","City":"London","PostalCode":"E1 6RF","AdditionalData":[{"value":"United Kingdom","key":"CountryName"},{"value":"England","key":"StateName"},{"value":"London","key":"CountyName"}]},"MapReference":{"ReferenceId":"727621550","Spot":0.51,"SideOfStreet":"neither","StateId":"20248595","CountyId":"20337453","CityId":"20337454"}}},{"Relevance":1.0,"Distance":33.7,"MatchLevel":"street","MatchQuality":{"Country":1.0,"State":1.0,"County":1.0,"City":1.0,"District":1.0,"PostalCode":1.0},"Location":{"LocationId":"NT_o1dMyMmHFUEkosnEYsjzuB_l_736528606_R","LocationType":"point","DisplayPosition":{"Latitude":51.51802,"Longitude":-0.07115},"MapView":{"TopLeft":{"Latitude":51.51802,"Longitude":-0.07139},"BottomRight":{"Latitude":51.51797,"Longitude":-0.07115}},"Address":{"Label":"London, E1 6, United Kingdom","Country":"GBR","State":"England","County":"London","City":"London","District":"Tower Hamlets","PostalCode":"E1 6","AdditionalData":[{"value":"United Kingdom","key":"CountryName"},{"value":"England","key":"StateName"},{"value":"London","key":"CountyName"}]},"MapReference":{"ReferenceId":"736528606","Spot":1.0,"SideOfStreet":"right","StateId":"20248595","CountyId":"20337453","CityId":"20337454"}}},{"Relevance":1.0,"Distance":34.6,"MatchLevel":"street","MatchQuality":{"Country":1.0,"State":1.0,"County":1.0,"City":1.0,"District":1.0,"PostalCode":1.0},"Location":{"LocationId":"NT_o1dMyMmHFUEkosnEYsjzuB_l_727625515_R","LocationType":"point","DisplayPosition":{"Latitude":51.51797,"Longitude":-0.07139},"MapView":{"TopLeft":{"Latitude":51.51797,"Longitude":-0.0716},"BottomRight":{"Latitude":51.51793,"Longitude":-0.07139}},"Address":{"Label":"London, E1 6, United Kingdom","Country":"GBR","State":"England","County":"London","City":"London","District":"Tower Hamlets","PostalCode":"E1 6","AdditionalData":[{"value":"United Kingdom","key":"CountryName"},{"value":"England","key":"StateName"},{"value":"London","key":"CountyName"}]},"MapReference":{"ReferenceId":"727625515","Spot":1.0,"SideOfStreet":"right","StateId":"20248595","CountyId":"20337453","CityId":"20337454"}}},{"Relevance":1.0,"Distance":34.9,"MatchLevel":"houseNumber","MatchQuality":{"Country":1.0,"State":1.0,"County":1.0,"City":1.0,"District":1.0,"Street":[1.0],"HouseNumber":1.0,"PostalCode":1.0},"MatchType":"interpolated","Location":{"LocationId":"NT_wBVJpDqFg4XFAFCf25b8XB_yA","LocationType":"point","DisplayPosition":{"Latitude":51.51773,"Longitude":-0.07059},"MapView":{"TopLeft":{"Latitude":51.5188542,"Longitude":-0.0723965},"BottomRight":{"Latitude":51.5166058,"Longitude":-0.0687835}},"Address":{"Label":"2 Hopetown Street, London, E1 5LE, United Kingdom","Country":"GBR","State":"England","County":"London","City":"London","District":"Tower Hamlets","Street":"Hopetown Street","HouseNumber":"2","PostalCode":"E1 5LE","AdditionalData":[{"value":"United Kingdom","key":"CountryName"},{"value":"England","key":"StateName"},{"value":"London","key":"CountyName"}]},"MapReference":{"ReferenceId":"1163348594","Spot":0.07,"SideOfStreet":"right","StateId":"20248595","CountyId":"20337453","CityId":"20337454","AddressId":"763634507","RoadLinkId":"469800604"}}}]}]}}