{"Response":{"MetaInfo":{"Timestamp":"2020-03-28T10:10:57.427+0000","NextPageInformation":"2"},"View":[{"_type":"SearchResultsViewType","ViewId":0,"Result":[{"Relevance":1.0,"Distance":0.0,"Direction":0.0,"MatchLevel":"district","MatchQuality":{"Country":1.0,"State":1.0,"County":1.0,"City":1.0,"District":1.0,"PostalCode":1.0},"Location":{"LocationId":"NT_vaca6v-uQ1pUd3w-K6yJvD","LocationType":"point","DisplayPosition":{"Latitude":51.542128,"Longitude":0.0061841},"MapView":{"TopLeft":{"Latitude":51.55678,"Longitude":-0.02317},"BottomRight":{"Latitude":51.52418,"Longitude":0.02228}},"Address":{"Label":"E15, London, England, United Kingdom","Country":"GBR","State":"England","County":"London","City":"London","District":"E15","PostalCode":"E15 4","AdditionalData":[{"value":"United Kingdom","key":"CountryName"},{"value":"England","key":"StateName"},{"value":"London","key":"CountyName"}]},"MapReference":{"ReferenceId":"1235827950","SideOfStreet":"neither","StateId":"20248595","CountyId":"20337453","CityId":"20337454","DistrictId":"20337467"}}},{"Relevance":1.0,"Distance":3.3,"MatchLevel":"houseNumber","MatchQuality":{"Country":1.0,"State":1.0,"County":1.0,"City":1.0,"District":1.0,"Street":[1.0],"HouseNumber":1.0,"PostalCode":1.0},"MatchType":"interpolated","Location":{"LocationId":"NT_gjHCPghTi19WfJWVWiVVHC_0ID","LocationType":"point","DisplayPosition":{"Latitude":51.54226,"Longitude":0.00613},"MapView":{"TopLeft":{"Latitude":51.5433842,"Longitude":0.0043225},"BottomRight":{"Latitude":51.5411358,"Longitude":0.0079375}},"Address":{"Label":"42 Romford Road, London, E15 4BZ, United Kingdom","Country":"GBR","State":"England","County":"London","City":"London","District":"Stratford","Street":"Romford Road","HouseNumber":"42","PostalCode":"E15 4BZ","AdditionalData":[{"value":"United Kingdom","key":"CountryName"},{"value":"England","key":"StateName"},{"value":"London","key":"CountyName"}]},"MapReference":{"ReferenceId":"25359464","Spot":0.24,"SideOfStreet":"right","StateId":"20248595","CountyId":"20337453","CityId":"20337454","AddressId":"748597558","RoadLinkId":"82964584"}}},{"Relevance":1.0,"Distance":20.4,"MatchLevel":"houseNumber","MatchQuality":{"Country":1.0,"State":1.0,"County":1.0,"City":1.0,"District":1.0,"Street":[1.0],"HouseNumber":1.0,"PostalCode":1.0},"MatchType":"interpolated","Location":{"LocationId":"NT_gjHCPghTi19WfJWVWiVVHC_0AD","LocationType":"point","DisplayPosition":{"Latitude":51.54224,"Longitude":0.00586},"MapView":{"TopLeft":{"Latitude":51.5433642,"Longitude":0.0040525},"BottomRight":{"Latitude":51.5411158,"Longitude":0.0076675}},"Address":{"Label":"40 Romford Road, London, E15 4BZ, United Kingdom","Country":"GBR","State":"England","County":"London","City":"London","District":"Stratford","Street":"Romford Road","HouseNumber":"40","PostalCode":"E15 4BZ","AdditionalData":[{"value":"United Kingdom","key":"CountryName"},{"value":"England","key":"StateName"},{"value":"London","key":"CountyName"}]},"MapReference":{"ReferenceId":"25359470","Spot":0.41,"SideOfStreet":"right","StateId":"20248595","CountyId":"20337453","CityId":"20337454","AddressId":"747893924","RoadLinkId":"82718772"}}},{"Relevance":1.0,"Distance":23.7,"MatchLevel":"houseNumber","MatchQuality":{"Country":1.0,"State":1.0,"County":1.0,"City":1.0,"District":1.0,"Street":[1.0],"HouseNumber":1.0,"PostalCode":1.0},"MatchType":"interpolated","Location":{"LocationId":"NT_AZSsdZOGFqkE7E6RKASMwC_xA","LocationType":"point","DisplayPosition":{"Latitude":51.5419,"Longitude":0.00613},"MapView":{"TopLeft":{"Latitude":51.5430242,"Longitude":0.0043225},"BottomRight":{"Latitude":51.5407758,"Longitude":0.0079375}},"Address":{"Label":"1 Tennyson Road, London, E15 4DJ, United Kingdom","Country":"GBR","State":"England","County":"London","City":"London","District":"Stratford","Street":"Tennyson Road","HouseNumber":"1","PostalCode":"E15 4DJ","AdditionalData":[{"value":"United Kingdom","key":"CountryName"},{"value":"England","key":"StateName"},{"value":"London","key":"CountyName"}]},"MapReference":{"ReferenceId":"25359745","Spot":0.82,"SideOfStreet":"right","StateId":"20248595","CountyId":"20337453","CityId":"20337454","AddressId":"748343730","RoadLinkId":"82281473"}}},{"Relevance":1.0,"Distance":28.8,"MatchLevel":"postalCode","MatchQuality":{"PostalCode":1.0},"MatchType":"interpolated","Location":{"LocationId":"NT_VhWSemRvR9klt86sLyGD2A_yA","LocationType":"point","DisplayPosition":{"Latitude":51.54212,"Longitude":0.0066},"MapView":{"TopLeft":{"Latitude":51.5511132,"Longitude":-0.00786},"BottomRight":{"Latitude":51.5331268,"Longitude":0.02106}},"Address":{"Label":"E15 4BZ, London, England, United Kingdom","Country":"GBR","State":"England","County":"London","City":"London","PostalCode":"E15 4BZ","AdditionalData":[{"value":"United Kingdom","key":"CountryName"},{"value":"England","key":"StateName"},{"value":"London","key":"CountyName"}]},"MapReference":{"ReferenceId":"25359760","Spot":0.83,"SideOfStreet":"neither","StateId":"20248595","CountyId":"20337453","CityId":"20337454"}}},{"Relevance":1.0,"Distance":37.8,"MatchLevel":"houseNumber","MatchQuality":{"Country":1.0,"State":1.0,"County":1.0,"City":1.0,"District":1.0,"Street":[1.0],"HouseNumber":1.0,"PostalCode":1.0},"MatchType":"interpolated","Location":{"LocationId":"NT_VhWSemRvR9klt86sLyGD2A_yA","LocationType":"point","DisplayPosition":{"Latitude":51.54192,"Longitude":0.00673},"MapView":{"TopLeft":{"Latitude":51.5430442,"Longitude":0.0049225},"BottomRight":{"Latitude":51.5407958,"Longitude":0.0085375}},"Address":{"Label":"2 Vernon Road, London, E15 4, United Kingdom","Country":"GBR","State":"England","County":"London","City":"London","District":"Stratford","Street":"Vernon Road","HouseNumber":"2","PostalCode":"E15 4","AdditionalData":[{"value":"United Kingdom","key":"CountryName"},{"value":"England","key":"StateName"},{"value":"London","key":"CountyName"}]},"MapReference":{"ReferenceId":"25359760","Spot":0.83,"SideOfStreet":"left","StateId":"20248595","CountyId":"20337453","CityId":"20337454","AddressId":"748218732","RoadLinkId":"83011640"}}},{"Relevance":1.0,"Distance":38.6,"MatchLevel":"houseNumber","MatchQuality":{"Country":1.0,"State":1.0,"County":1.0,"City":1.0,"District":1.0,"Street":[1.0],"HouseNumber":1.0,"PostalCode":1.0},"MatchType":"interpolated","Location":{"LocationId":"NT_gjHCPghTi19WfJWVWiVVHC_zQD","LocationType":"point","DisplayPosition":{"Latitude":51.54221,"Longitude":0.00559},"MapView":{"TopLeft":{"Latitude":51.5433342,"Longitude":0.0037825},"BottomRight":{"Latitude":51.5410858,"Longitude":0.0073975}},"Address":{"Label":"34 Romford Road, London, E15 4, United Kingdom","Country":"GBR","State":"England","County":"London","City":"London","District":"Stratford","Street":"Romford Road","HouseNumber":"34","PostalCode":"E15 4","AdditionalData":[{"value":"United Kingdom","key":"CountryName"},{"value":"England","key":"StateName"},{"value":"London","key":"CountyName"}]},"MapReference":{"ReferenceId":"25359483","Spot":0.59,"SideOfStreet":"right","StateId":"20248595","CountyId":"20337453","CityId":"20337454","AddressId":"763522703","RoadLinkId":"83010907"}}},{"Relevance":1.0,"Distance":42.8,"MatchLevel":"houseNumber","MatchQuality":{"Country":1.0,"State":1.0,"County":1.0,"City":1.0,"District":1.0,"Street":[1.0],"HouseNumber":1.0,"PostalCode":1.0},"MatchType":"interpolated","Location":{"LocationId":"NT_siAnOPkUYhfwXu9YgbGqzB_yED","LocationType":"point","DisplayPosition":{"Latitude":51.54245,"Longitude":0.00573},"MapView":{"TopLeft":{"Latitude":51.5435742,"Longitude":0.0039225},"BottomRight":{"Latitude":51.5413258,"Longitude":0.0075375}},"Address":{"Label":"21 Litchfield Avenue, London, E15 4LW, United Kingdom","Country":"GBR","State":"England","County":"London","City":"London","District":"Stratford","Street":"Litchfield Avenue","HouseNumber":"21","PostalCode":"E15 4LW","AdditionalData":[{"value":"United Kingdom","key":"CountryName"},{"value":"England","key":"StateName"},{"value":"London","key":"CountyName"}]},"MapReference":{"ReferenceId":"25359471","Spot":0.67,"SideOfStreet":"right","StateId":"20248595","CountyId":"20337453","CityId":"20337454","AddressId":"747898656","RoadLinkId":"82316760"}}},{"Relevance":1.0,"Distance":43.2,"MatchLevel":"postalCode","MatchQuality":{"PostalCode":1.0},"MatchType":"interpolated","Location":{"LocationId":"NT_siAnOPkUYhfwXu9YgbGqzB_yED","LocationType":"point","DisplayPosition":{"Latitude":51.54243,"Longitude":0.00579},"MapView":{"TopLeft":{"Latitude":51.5514232,"Longitude":-0.0086701},"BottomRight":{"Latitude":51.5334368,"Longitude":0.0202501}},"Address":{"Label":"E15 4LW, London, England, United Kingdom","Country":"GBR","State":"England","County":"London","City":"London","PostalCode":"E15 4LW","AdditionalData":[{"value":"United Kingdom","key":"CountryName"},{"value":"England","key":"StateName"},{"value":"London","key":"CountyName"}]},"MapReference":{"ReferenceId":"25359471","Spot":0.67,"SideOfStreet":"neither","StateId":"20248595","CountyId":"20337453","CityId":"20337454"}}},{"Relevance":1.0,"Distance":44.1,"MatchLevel":"houseNumber","MatchQuality":{"Country":1.0,"State":1.0,"County":1.0,"City":1.0,"District":1.0,"Street":[1.0],"HouseNumber":1.0,"PostalCode":1.0},"MatchType":"interpolated","Location":{"LocationId":"NT_gjHCPghTi19WfJWVWiVVHC_1ATY","LocationType":"point","DisplayPosition":{"Latitude":51.54231,"Longitude":0.00675},"MapView":{"TopLeft":{"Latitude":51.5434342,"Longitude":0.0049425},"BottomRight":{"Latitude":51.5411858,"Longitude":0.0085575}},"Address":{"Label":"50a Romford Road, London, E15 4, United Kingdom","Country":"GBR","State":"England","County":"London","City":"London","District":"Stratford","Street":"Romford Road","HouseNumber":"50a","PostalCode":"E15 4","AdditionalData":[{"value":"United Kingdom","key":"CountryName"},{"value":"England","key":"StateName"},{"value":"London","key":"CountyName"}]},"MapReference":{"ReferenceId":"25359450","Spot":0.55,"SideOfStreet":"right","StateId":"20248595","CountyId":"20337453","CityId":"20337454","AddressId":"747475879","RoadLinkId":"82906230"}}}]}]}}