{"Response":{"MetaInfo":{"Timestamp":"2020-03-28T11:20:19.236+0000","NextPageInformation":"2"},"View":[{"_type":"SearchResultsViewType","ViewId":0,"Result":[{"Relevance":1.0,"Distance":0.0,"Direction":0.0,"MatchLevel":"district","MatchQuality":{"Country":1.0,"State":1.0,"County":1.0,"City":1.0,"District":1.0,"PostalCode":1.0},"Location":{"LocationId":"NT_gl02OgMUUCVRvFEZDslREB","LocationType":"point","DisplayPosition":{"Latitude":51.5219579,"Longitude":-0.198952},"MapView":{"TopLeft":{"Latitude":51.53511,"Longitude":-0.20608},"BottomRight":{"Latitude":51.52098,"Longitude":-0.1767}},"Address":{"Label":"Maida Vale, London, England, United Kingdom","Country":"GBR","State":"England","County":"London","City":"London","District":"Maida Vale","PostalCode":"W9 2","AdditionalData":[{"value":"United Kingdom","key":"CountryName"},{"value":"England","key":"StateName"},{"value":"London","key":"CountyName"}]},"MapReference":{"ReferenceId":"25302296","SideOfStreet":"neither","StateId":"20248595","CountyId":"20337453","CityId":"20337454"}}},{"Relevance":1.0,"Distance":7.9,"MatchLevel":"landmark","MatchQuality":{"Country":1.0,"State":1.0,"Name":1.0},"Location":{"LocationId":"NT_4t3asiI3QNfmEwNRa3SYCA","LocationType":"canalWaterChannel","Name":"Grand Union Canal","DisplayPosition":{"Latitude":51.52392,"Longitude":-0.37749},"MapView":{"TopLeft":{"Latitude":51.54802,"Longitude":-0.40678},"BottomRight":{"Latitude":51.49982,"Longitude":-0.1835}},"Address":{"Label":"United Kingdom","Country":"GBR","State":"England","AdditionalData":[{"value":"United Kingdom","key":"CountryName"},{"value":"England","key":"StateName"}]},"MapReference":{"StateId":"20248595","PlaceId":"1458637496"}}},{"Relevance":1.0,"Distance":23.2,"MatchLevel":"street","MatchQuality":{"Country":1.0,"State":1.0,"County":1.0,"City":1.0,"District":1.0,"PostalCode":1.0},"Location":{"LocationId":"NT_3EoOG8VkEqjyhYRx67APLD_l_925799863_R","LocationType":"point","DisplayPosition":{"Latitude":51.5217525,"Longitude":-0.1990091},"MapView":{"TopLeft":{"Latitude":51.52188,"Longitude":-0.19945},"BottomRight":{"Latitude":51.52175,"Longitude":-0.199}},"Address":{"Label":"London, W9 2, United Kingdom","Country":"GBR","State":"England","County":"London","City":"London","District":"Maida Vale","PostalCode":"W9 2","AdditionalData":[{"value":"United Kingdom","key":"CountryName"},{"value":"England","key":"StateName"},{"value":"London","key":"CountyName"}]},"MapReference":{"ReferenceId":"925799863","Spot":0.02,"SideOfStreet":"right","StateId":"20248595","CountyId":"20337453","CityId":"20337454"}}},{"Relevance":1.0,"Distance":23.4,"MatchLevel":"street","MatchQuality":{"Country":1.0,"State":1.0,"County":1.0,"City":1.0,"District":1.0,"PostalCode":1.0},"Location":{"LocationId":"NT_3EoOG8VkEqjyhYRx67APLD_l_956446887_R","LocationType":"point","DisplayPosition":{"Latitude":51.5217488,"Longitude":-0.1989943},"MapView":{"TopLeft":{"Latitude":51.52175,"Longitude":-0.199},"BottomRight":{"Latitude":51.52136,"Longitude":-0.19704}},"Address":{"Label":"London, W9 2, United Kingdom","Country":"GBR","State":"England","County":"London","City":"London","District":"Maida Vale","PostalCode":"W9 2","AdditionalData":[{"value":"United Kingdom","key":"CountryName"},{"value":"England","key":"StateName"},{"value":"London","key":"CountyName"}]},"MapReference":{"ReferenceId":"956446887","Spot":1.0,"SideOfStreet":"right","StateId":"20248595","CountyId":"20337453","CityId":"20337454"}}},{"Relevance":1.0,"Distance":35.5,"MatchLevel":"street","MatchQuality":{"Country":1.0,"State":1.0,"County":1.0,"City":1.0,"District":1.0,"PostalCode":1.0},"Location":{"LocationId":"NT_3EoOG8VkEqjyhYRx67APLD_l_925799864_R","LocationType":"point","DisplayPosition":{"Latitude":51.52188,"Longitude":-0.19945},"MapView":{"TopLeft":{"Latitude":51.52255,"Longitude":-0.20132},"BottomRight":{"Latitude":51.52188,"Longitude":-0.19945}},"Address":{"Label":"London, W9 2, United Kingdom","Country":"GBR","State":"England","County":"London","City":"London","District":"Maida Vale","PostalCode":"W9 2","AdditionalData":[{"value":"United Kingdom","key":"CountryName"},{"value":"England","key":"StateName"},{"value":"London","key":"CountyName"}]},"MapReference":{"ReferenceId":"925799864","Spot":0.0,"SideOfStreet":"right","StateId":"20248595","CountyId":"20337453","CityId":"20337454"}}},{"Relevance":1.0,"Distance":36.5,"MatchLevel":"landmark","MatchQuality":{"Country":1.0,"State":1.0,"County":1.0,"City":1.0,"PostalCode":1.0,"Name":1.0},"Location":{"LocationId":"NT_aiOazZCW6uUNkukQZAOPNC","LocationType":"industrialComplex","Name":"Westway Industrial Estate","DisplayPosition":{"Latitude":51.52138,"Longitude":-0.19925},"MapView":{"TopLeft":{"Latitude":51.52272,"Longitude":-0.20151},"BottomRight":{"Latitude":51.52004,"Longitude":-0.19495}},"Address":{"Label":"London, SW1A 2, United Kingdom","Country":"GBR","State":"England","County":"London","City":"London","PostalCode":"SW1A 2","AdditionalData":[{"value":"United Kingdom","key":"CountryName"},{"value":"England","key":"StateName"},{"value":"London","key":"CountyName"}]},"MapReference":{"StateId":"20248595","CountyId":"20337453","CityId":"20337454","PlaceId":"1407025365"}}},{"Relevance":1.0,"Distance":36.5,"MatchLevel":"street","MatchQuality":{"Country":1.0,"State":1.0,"County":1.0,"City":1.0,"District":1.0,"Street":[1.0],"PostalCode":1.0},"Location":{"LocationId":"NT_QFeDLfS4rj.AJX.jaQxT5C_l_773370115_R","LocationType":"point","DisplayPosition":{"Latitude":51.5216304,"Longitude":-0.1989929},"MapView":{"TopLeft":{"Latitude":51.52166,"Longitude":-0.1993},"BottomRight":{"Latitude":51.5213,"Longitude":-0.1974}},"Address":{"Label":"Westway, London, W9 3, United Kingdom","Country":"GBR","State":"England","County":"London","City":"London","District":"Maida Vale","Street":"Westway","PostalCode":"W9 3","AdditionalData":[{"value":"United Kingdom","key":"CountryName"},{"value":"England","key":"StateName"},{"value":"London","key":"CountyName"}]},"MapReference":{"ReferenceId":"773370115","Spot":0.84,"SideOfStreet":"right","StateId":"20248595","CountyId":"20337453","CityId":"20337454"}}},{"Relevance":1.0,"Distance":37.4,"MatchLevel":"street","MatchQuality":{"Country":1.0,"State":1.0,"County":1.0,"City":1.0,"District":1.0,"Street":[1.0],"PostalCode":1.0},"Location":{"LocationId":"NT_0lxzPlLbgjgN46u4xHYaaA_l_1160968493_L","LocationType":"point","DisplayPosition":{"Latitude":51.52227,"Longitude":-0.19875},"MapView":{"TopLeft":{"Latitude":51.52227,"Longitude":-0.19875},"BottomRight":{"Latitude":51.52225,"Longitude":-0.19865}},"Address":{"Label":"Elmfield Way, London, W9 2, United Kingdom","Country":"GBR","State":"England","County":"London","City":"London","District":"Maida Vale","Street":"Elmfield Way","PostalCode":"W9 2","AdditionalData":[{"value":"United Kingdom","key":"CountryName"},{"value":"England","key":"StateName"},{"value":"London","key":"CountyName"}]},"MapReference":{"ReferenceId":"1160968493","Spot":1.0,"SideOfStreet":"left","StateId":"20248595","CountyId":"20337453","CityId":"20337454"}}},{"Relevance":1.0,"Distance":37.4,"MatchLevel":"street","MatchQuality":{"Country":1.0,"State":1.0,"County":1.0,"City":1.0,"District":1.0,"Street":[1.0],"PostalCode":1.0},"Location":{"LocationId":"NT_0lxzPlLbgjgN46u4xHYaaA_l_773390379_L","LocationType":"point","DisplayPosition":{"Latitude":51.52227,"Longitude":-0.19875},"MapView":{"TopLeft":{"Latitude":51.52288,"Longitude":-0.19883},"BottomRight":{"Latitude":51.52227,"Longitude":-0.19875}},"Address":{"Label":"Elmfield Way, London, W9 2, United Kingdom","Country":"GBR","State":"England","County":"London","City":"London","District":"Maida Vale","Street":"Elmfield Way","PostalCode":"W9 2","AdditionalData":[{"value":"United Kingdom","key":"CountryName"},{"value":"England","key":"StateName"},{"value":"London","key":"CountyName"}]},"MapReference":{"ReferenceId":"773390379","Spot":0.0,"SideOfStreet":"left","StateId":"20248595","CountyId":"20337453","CityId":"20337454"}}},{"Relevance":1.0,"Distance":38.6,"MatchLevel":"street","MatchQuality":{"Country":1.0,"State":1.0,"County":1.0,"City":1.0,"District":1.0,"Street":[1.0],"PostalCode":1.0},"Location":{"LocationId":"NT_0lxzPlLbgjgN46u4xHYaaA_l_1160968494_R","LocationType":"point","DisplayPosition":{"Latitude":51.52225,"Longitude":-0.19865},"MapView":{"TopLeft":{"Latitude":51.52229,"Longitude":-0.19865},"BottomRight":{"Latitude":51.52225,"Longitude":-0.19838}},"Address":{"Label":"Elmfield Way, London, W9 2, United Kingdom","Country":"GBR","State":"England","County":"London","City":"London","District":"Maida Vale","Street":"Elmfield Way","PostalCode":"W9 2","AdditionalData":[{"value":"United Kingdom","key":"CountryName"},{"value":"England","key":"StateName"},{"value":"London","key":"CountyName"}]},"MapReference":{"ReferenceId":"1160968494","Spot":0.0,"SideOfStreet":"right","StateId":"20248595","CountyId":"20337453","CityId":"20337454"}}}]}]}}