{"Response":{"MetaInfo":{"Timestamp":"2020-03-28T11:30:54.506+0000","NextPageInformation":"2"},"View":[{"_type":"SearchResultsViewType","ViewId":0,"Result":[{"Relevance":1.0,"Distance":0.0,"Direction":0.0,"MatchLevel":"district","MatchQuality":{"Country":1.0,"State":1.0,"County":1.0,"City":1.0,"District":1.0,"PostalCode":1.0},"Location":{"LocationId":"NT_ObAbfMI..bS4UpxAhoN5zD","LocationType":"point","DisplayPosition":{"Latitude":51.557595,"Longitude":23.5531399},"MapView":{"TopLeft":{"Latitude":51.56887,"Longitude":23.52817},"BottomRight":{"Latitude":51.53134,"Longitude":23.57806}},"Address":{"Label":"Włodawa, Woj. Lubelskie, Polska","Country":"POL","State":"Woj. Lubelskie","County":"Powiat Włodawski","City":"Włodawa","District":"Włodawa","PostalCode":"22-200","AdditionalData":[{"value":"Polska","key":"CountryName"},{"value":"Woj. Lubelskie","key":"StateName"},{"value":"Powiat Włodawski","key":"CountyName"}]},"MapReference":{"ReferenceId":"1116406283","SideOfStreet":"neither","CountryId":"20624059","StateId":"20626116","CountyId":"20626526","CityId":"20684939","DistrictId":"20684940"}}},{"Relevance":1.0,"Distance":9.7,"MatchLevel":"street","MatchQuality":{"Country":1.0,"State":1.0,"County":1.0,"City":1.0,"District":1.0,"Street":[1.0],"PostalCode":1.0},"Location":{"LocationId":"NT_.TGKaQ4unygG7zM07znTQA_l_596124859_R","LocationType":"point","DisplayPosition":{"Latitude":51.5576823,"Longitude":23.5531333},"MapView":{"TopLeft":{"Latitude":51.55774,"Longitude":23.55297},"BottomRight":{"Latitude":51.55767,"Longitude":23.5539}},"Address":{"Label":"aleja Józefa Piłsudskiego, 22-200 Włodawa, Polska","Country":"POL","State":"Woj. Lubelskie","County":"Powiat Włodawski","City":"Włodawa","District":"Włodawa","Street":"aleja Józefa Piłsudskiego","PostalCode":"22-200","AdditionalData":[{"value":"Polska","key":"CountryName"},{"value":"Woj. Lubelskie","key":"StateName"},{"value":"Powiat Włodawski","key":"CountyName"}]},"MapReference":{"ReferenceId":"596124859","Spot":0.18,"SideOfStreet":"right","CountryId":"20624059","StateId":"20626116","CountyId":"20626526","CityId":"20684939","DistrictId":"20684940"}}},{"Relevance":1.0,"Distance":10.8,"MatchLevel":"houseNumber","MatchQuality":{"Country":1.0,"State":1.0,"County":1.0,"City":1.0,"District":1.0,"Street":[1.0],"HouseNumber":1.0,"PostalCode":1.0},"MatchType":"interpolated","Location":{"LocationId":"NT_.TGKaQ4unygG7zM07znTQA_l_1116393131_L_xETN","LocationType":"point","DisplayPosition":{"Latitude":51.5576077,"Longitude":23.5529844},"MapView":{"TopLeft":{"Latitude":51.5587318,"Longitude":23.5511763},"BottomRight":{"Latitude":51.5564835,"Longitude":23.5547925}},"Address":{"Label":"aleja Józefa Piłsudskiego 115, 22-200 Włodawa, Polska","Country":"POL","State":"Woj. Lubelskie","County":"Powiat Włodawski","City":"Włodawa","District":"Włodawa","Street":"aleja Józefa Piłsudskiego","HouseNumber":"115","PostalCode":"22-200","AdditionalData":[{"value":"Polska","key":"CountryName"},{"value":"Woj. Lubelskie","key":"StateName"},{"value":"Powiat Włodawski","key":"CountyName"}]},"MapReference":{"ReferenceId":"1116393131","Spot":0.52,"SideOfStreet":"left","CountryId":"20624059","StateId":"20626116","CountyId":"20626526","CityId":"20684939","DistrictId":"20684940"}}},{"Relevance":1.0,"Distance":15.6,"MatchLevel":"houseNumber","MatchQuality":{"Country":1.0,"State":1.0,"County":1.0,"City":1.0,"District":1.0,"Street":[1.0],"HouseNumber":1.0,"PostalCode":1.0},"MatchType":"interpolated","Location":{"LocationId":"NT_.TGKaQ4unygG7zM07znTQA_xEzM","LocationType":"point","DisplayPosition":{"Latitude":51.55748,"Longitude":23.55301},"MapView":{"TopLeft":{"Latitude":51.5586042,"Longitude":23.5512019},"BottomRight":{"Latitude":51.5563558,"Longitude":23.5548181}},"Address":{"Label":"aleja Józefa Piłsudskiego 113, 22-200 Włodawa, Polska","Country":"POL","State":"Woj. Lubelskie","County":"Powiat Włodawski","City":"Włodawa","District":"Włodawa","Street":"aleja Józefa Piłsudskiego","HouseNumber":"113","PostalCode":"22-200","AdditionalData":[{"value":"Polska","key":"CountryName"},{"value":"Woj. Lubelskie","key":"StateName"},{"value":"Powiat Włodawski","key":"CountyName"}]},"MapReference":{"ReferenceId":"1116393130","Spot":0.58,"SideOfStreet":"left","CountryId":"20624059","StateId":"20626116","CountyId":"20626526","CityId":"20684939","DistrictId":"20684940","AddressId":"222118416","RoadLinkId":"426667482"}}},{"Relevance":1.0,"Distance":34.4,"MatchLevel":"houseNumber","MatchQuality":{"Country":1.0,"State":1.0,"County":1.0,"City":1.0,"District":1.0,"Street":[1.0],"HouseNumber":1.0,"PostalCode":1.0},"MatchType":"interpolated","Location":{"LocationId":"NT_.TGKaQ4unygG7zM07znTQA_2QD","LocationType":"point","DisplayPosition":{"Latitude":51.55729,"Longitude":23.55306},"MapView":{"TopLeft":{"Latitude":51.5584142,"Longitude":23.5512519},"BottomRight":{"Latitude":51.5561658,"Longitude":23.5548681}},"Address":{"Label":"aleja Józefa Piłsudskiego 64, 22-200 Włodawa, Polska","Country":"POL","State":"Woj. Lubelskie","County":"Powiat Włodawski","City":"Włodawa","District":"Włodawa","Street":"aleja Józefa Piłsudskiego","HouseNumber":"64","PostalCode":"22-200","AdditionalData":[{"value":"Polska","key":"CountryName"},{"value":"Woj. Lubelskie","key":"StateName"},{"value":"Powiat Włodawski","key":"CountyName"}]},"MapReference":{"ReferenceId":"596124925","Spot":0.85,"SideOfStreet":"right","CountryId":"20624059","StateId":"20626116","CountyId":"20626526","CityId":"20684939","DistrictId":"20684940","AddressId":"222116748","RoadLinkId":"95890421"}}},{"Relevance":1.0,"Distance":47.1,"MatchLevel":"houseNumber","MatchQuality":{"Country":1.0,"State":1.0,"County":1.0,"City":1.0,"District":1.0,"Street":[1.0],"HouseNumber":1.0,"PostalCode":1.0},"MatchType":"interpolated","Location":{"LocationId":"NT_DON3YhqMrfW0L3aETgHxGC_yA","LocationType":"point","DisplayPosition":{"Latitude":51.55735,"Longitude":23.55253},"MapView":{"TopLeft":{"Latitude":51.5584742,"Longitude":23.5507219},"BottomRight":{"Latitude":51.5562258,"Longitude":23.5543381}},"Address":{"Label":"ulica Cicha 2, 22-200 Włodawa, Polska","Country":"POL","State":"Woj. Lubelskie","County":"Powiat Włodawski","City":"Włodawa","District":"Włodawa","Street":"ulica Cicha","HouseNumber":"2","PostalCode":"22-200","AdditionalData":[{"value":"Polska","key":"CountryName"},{"value":"Woj. Lubelskie","key":"StateName"},{"value":"Powiat Włodawski","key":"CountyName"}]},"MapReference":{"ReferenceId":"596124884","Spot":0.5,"SideOfStreet":"left","CountryId":"20624059","StateId":"20626116","CountyId":"20626526","CityId":"20684939","DistrictId":"20684940","AddressId":"211089536","RoadLinkId":"95956103"}}},{"Relevance":1.0,"Distance":55.0,"MatchLevel":"landmark","MatchQuality":{"Country":1.0,"State":1.0,"County":1.0,"City":1.0,"District":1.0,"PostalCode":1.0,"Name":1.0},"Location":{"LocationId":"NT_a.etNHm9D2V-rn.3pL4JvB_p_5.u3pFe28dsJWNzcT.0tXD","LocationType":"hospital","Name":"Samodzielny Publiczny ZOZ","DisplayPosition":{"Latitude":51.55687,"Longitude":23.55512},"MapView":{"TopLeft":{"Latitude":51.55794,"Longitude":23.5532},"BottomRight":{"Latitude":51.5562,"Longitude":23.55629}},"Address":{"Label":"22-200 Włodawa, Polska","Country":"POL","State":"Woj. Lubelskie","County":"Powiat Włodawski","City":"Włodawa","District":"Włodawa","PostalCode":"22-200","AdditionalData":[{"value":"Polska","key":"CountryName"},{"value":"Woj. Lubelskie","key":"StateName"},{"value":"Powiat Włodawski","key":"CountyName"}]},"MapReference":{"CountryId":"20624059","StateId":"20626116","CountyId":"20626526","CityId":"20684939","DistrictId":"20684940","PlaceId":"1017886633"}}},{"Relevance":1.0,"Distance":55.0,"MatchLevel":"street","MatchQuality":{"Country":1.0,"State":1.0,"County":1.0,"City":1.0,"District":1.0,"PostalCode":1.0},"Location":{"LocationId":"NT_K9777MRd.qCNZz.oUhpZDB_l_596124918_L","LocationType":"point","DisplayPosition":{"Latitude":51.55774,"Longitude":23.5539},"MapView":{"TopLeft":{"Latitude":51.55774,"Longitude":23.5539},"BottomRight":{"Latitude":51.55678,"Longitude":23.55411}},"Address":{"Label":"22-200 Włodawa, Polska","Country":"POL","State":"Woj. Lubelskie","County":"Powiat Włodawski","City":"Włodawa","District":"Włodawa","PostalCode":"22-200","AdditionalData":[{"value":"Polska","key":"CountryName"},{"value":"Woj. Lubelskie","key":"StateName"},{"value":"Powiat Włodawski","key":"CountyName"}]},"MapReference":{"ReferenceId":"596124918","Spot":1.0,"SideOfStreet":"left","CountryId":"20624059","StateId":"20626116","CountyId":"20626526","CityId":"20684939","DistrictId":"20684940"}}},{"Relevance":1.0,"Distance":61.9,"MatchLevel":"houseNumber","MatchQuality":{"Country":1.0,"State":1.0,"County":1.0,"City":1.0,"District":1.0,"Street":[1.0],"HouseNumber":1.0,"PostalCode":1.0},"MatchType":"interpolated","Location":{"LocationId":"NT_113flCIPyPvCOYvf6gD2sC_0A","LocationType":"point","DisplayPosition":{"Latitude":51.55775,"Longitude":23.554},"MapView":{"TopLeft":{"Latitude":51.5588742,"Longitude":23.5521919},"BottomRight":{"Latitude":51.5566258,"Longitude":23.5558081}},"Address":{"Label":"ulica Alfreda Sokołowskiego 4, 22-200 Włodawa, Polska","Country":"POL","State":"Woj. Lubelskie","County":"Powiat Włodawski","City":"Włodawa","District":"Włodawa","Street":"ulica Alfreda Sokołowskiego","HouseNumber":"4","PostalCode":"22-200","AdditionalData":[{"value":"Polska","key":"CountryName"},{"value":"Woj. Lubelskie","key":"StateName"},{"value":"Powiat Włodawski","key":"CountyName"}]},"MapReference":{"ReferenceId":"596124852","Spot":0.05,"SideOfStreet":"right","CountryId":"20624059","StateId":"20626116","CountyId":"20626526","CityId":"20684939","DistrictId":"20684940","AddressId":"743012713","RoadLinkId":"173606574"}}},{"Relevance":1.0,"Distance":68.9,"MatchLevel":"houseNumber","MatchQuality":{"Country":1.0,"State":1.0,"County":1.0,"City":1.0,"District":1.0,"Street":[1.0],"HouseNumber":1.0,"PostalCode":1.0},"MatchType":"interpolated","Location":{"LocationId":"NT_Xl39kebRvJz0UPFsaJTIsA_0ATQ","LocationType":"point","DisplayPosition":{"Latitude":51.55775,"Longitude":23.55152},"MapView":{"TopLeft":{"Latitude":51.5588742,"Longitude":23.5497119},"BottomRight":{"Latitude":51.5566258,"Longitude":23.5533281}},"Address":{"Label":"ulica Długa 40A, 22-200 Włodawa, Polska","Country":"POL","State":"Woj. Lubelskie","County":"Powiat Włodawski","City":"Włodawa","District":"Włodawa","Street":"ulica Długa","HouseNumber":"40A","PostalCode":"22-200","AdditionalData":[{"value":"Polska","key":"CountryName"},{"value":"Woj. Lubelskie","key":"StateName"},{"value":"Powiat Włodawski","key":"CountyName"}]},"MapReference":{"ReferenceId":"596124871","Spot":0.2,"SideOfStreet":"right","CountryId":"20624059","StateId":"20626116","CountyId":"20626526","CityId":"20684939","DistrictId":"20684940","AddressId":"731677557","RoadLinkId":"95605112"}}}]}]}}