{"Response":{"MetaInfo":{"Timestamp":"2020-03-28T12:05:29.157+0000","NextPageInformation":"2"},"View":[{"_type":"SearchResultsViewType","ViewId":0,"Result":[{"Relevance":1.0,"Distance":0.0,"Direction":0.0,"MatchLevel":"district","MatchQuality":{"Country":1.0,"State":1.0,"County":1.0,"City":1.0,"District":1.0,"PostalCode":1.0},"Location":{"LocationId":"NT_sBKu.9rxxU1A4MrYL-gA8D","LocationType":"point","DisplayPosition":{"Latitude":51.5100901,"Longitude":16.2631466},"MapView":{"TopLeft":{"Latitude":51.51405,"Longitude":16.25237},"BottomRight":{"Latitude":51.4971,"Longitude":16.27725}},"Address":{"Label":"Rudna, Woj. Dolnośląskie, Polska","Country":"POL","State":"Woj. Dolnośląskie","County":"Powiat Lubiński","City":"Rudna","District":"Rudna","PostalCode":"59-305","AdditionalData":[{"value":"Polska","key":"CountryName"},{"value":"Woj. Dolnośląskie","key":"StateName"},{"value":"Powiat Lubiński","key":"CountyName"}]},"MapReference":{"ReferenceId":"594146075","SideOfStreet":"neither","CountryId":"20624059","StateId":"20625002","CountyId":"20625165","CityId":"20625170","DistrictId":"20680496"}}},{"Relevance":1.0,"Distance":7.9,"MatchLevel":"houseNumber","MatchQuality":{"Country":1.0,"State":1.0,"County":1.0,"City":1.0,"District":1.0,"Street":[1.0],"HouseNumber":1.0,"PostalCode":1.0},"MatchType":"interpolated","Location":{"LocationId":"NT_hgkjOn7ZIHQmZD2YBm29KB_xcD","LocationType":"point","DisplayPosition":{"Latitude":51.51007,"Longitude":16.26344},"MapView":{"TopLeft":{"Latitude":51.5111942,"Longitude":16.2616338},"BottomRight":{"Latitude":51.5089458,"Longitude":16.2652462}},"Address":{"Label":"plac Zwycięstwa 17, 59-305 Rudna, Polska","Country":"POL","State":"Woj. Dolnośląskie","County":"Powiat Lubiński","City":"Rudna","District":"Rudna","Street":"plac Zwycięstwa","HouseNumber":"17","PostalCode":"59-305","AdditionalData":[{"value":"Polska","key":"CountryName"},{"value":"Woj. Dolnośląskie","key":"StateName"},{"value":"Powiat Lubiński","key":"CountyName"}]},"MapReference":{"ReferenceId":"744366909","Spot":0.28,"SideOfStreet":"left","CountryId":"20624059","StateId":"20625002","CountyId":"20625165","CityId":"20625170","DistrictId":"20680496","AddressId":"731711605","RoadLinkId":"142348884"}}},{"Relevance":1.0,"Distance":25.6,"MatchLevel":"street","MatchQuality":{"Country":1.0,"State":1.0,"County":1.0,"City":1.0,"District":1.0,"Street":[1.0],"PostalCode":1.0},"Location":{"LocationId":"NT_1ud9HGZLKYwpSnMmnb66yC_l_594146075_L","LocationType":"point","DisplayPosition":{"Latitude":51.5098599,"Longitude":16.2631705},"MapView":{"TopLeft":{"Latitude":51.50989,"Longitude":16.26269},"BottomRight":{"Latitude":51.50981,"Longitude":16.26346}},"Address":{"Label":"ulica Polkowicka, 59-305 Rudna, Polska","Country":"POL","State":"Woj. Dolnośląskie","County":"Powiat Lubiński","City":"Rudna","District":"Rudna","Street":"ulica Polkowicka","PostalCode":"59-305","AdditionalData":[{"value":"Polska","key":"CountryName"},{"value":"Woj. Dolnośląskie","key":"StateName"},{"value":"Powiat Lubiński","key":"CountyName"}]},"MapReference":{"ReferenceId":"594146075","Spot":0.62,"SideOfStreet":"left","CountryId":"20624059","StateId":"20625002","CountyId":"20625165","CityId":"20625170","DistrictId":"20680496"}}},{"Relevance":1.0,"Distance":26.8,"MatchLevel":"houseNumber","MatchQuality":{"Country":1.0,"State":1.0,"County":1.0,"City":1.0,"District":1.0,"Street":[1.0],"HouseNumber":1.0,"PostalCode":1.0},"MatchType":"interpolated","Location":{"LocationId":"NT_gA3col5Z-Bu.4M1jKhx.8A_3A","LocationType":"point","DisplayPosition":{"Latitude":51.51007,"Longitude":16.26271},"MapView":{"TopLeft":{"Latitude":51.5111942,"Longitude":16.2609038},"BottomRight":{"Latitude":51.5089458,"Longitude":16.2645162}},"Address":{"Label":"ulica Wesoła 7, 59-305 Rudna, Polska","Country":"POL","State":"Woj. Dolnośląskie","County":"Powiat Lubiński","City":"Rudna","District":"Rudna","Street":"ulica Wesoła","HouseNumber":"7","PostalCode":"59-305","AdditionalData":[{"value":"Polska","key":"CountryName"},{"value":"Woj. Dolnośląskie","key":"StateName"},{"value":"Powiat Lubiński","key":"CountyName"}]},"MapReference":{"ReferenceId":"594146068","Spot":0.22,"SideOfStreet":"right","CountryId":"20624059","StateId":"20625002","CountyId":"20625165","CityId":"20625170","DistrictId":"20680496","AddressId":"596998825","RoadLinkId":"96029893"}}},{"Relevance":1.0,"Distance":31.8,"MatchLevel":"houseNumber","MatchQuality":{"Country":1.0,"State":1.0,"County":1.0,"City":1.0,"District":1.0,"Street":[1.0],"HouseNumber":1.0,"PostalCode":1.0},"MatchType":"interpolated","Location":{"LocationId":"NT_u-06kqgwXowJ9X5Na4ic.A_yA","LocationType":"point","DisplayPosition":{"Latitude":51.50983,"Longitude":16.26347},"MapView":{"TopLeft":{"Latitude":51.5109542,"Longitude":16.2616638},"BottomRight":{"Latitude":51.5087058,"Longitude":16.2652762}},"Address":{"Label":"ulica Cicha 2, 59-305 Rudna, Polska","Country":"POL","State":"Woj. Dolnośląskie","County":"Powiat Lubiński","City":"Rudna","District":"Rudna","Street":"ulica Cicha","HouseNumber":"2","PostalCode":"59-305","AdditionalData":[{"value":"Polska","key":"CountryName"},{"value":"Woj. Dolnośląskie","key":"StateName"},{"value":"Powiat Lubiński","key":"CountyName"}]},"MapReference":{"ReferenceId":"1104410335","Spot":0.89,"SideOfStreet":"left","CountryId":"20624059","StateId":"20625002","CountyId":"20625165","CityId":"20625170","DistrictId":"20680496","AddressId":"732024018","RoadLinkId":"416228579"}}},{"Relevance":1.0,"Distance":34.1,"MatchLevel":"houseNumber","MatchQuality":{"Country":1.0,"State":1.0,"County":1.0,"City":1.0,"District":1.0,"Street":[1.0],"HouseNumber":1.0,"PostalCode":1.0},"MatchType":"interpolated","Location":{"LocationId":"NT_hgkjOn7ZIHQmZD2YBm29KB_5EE","LocationType":"point","DisplayPosition":{"Latitude":51.50989,"Longitude":16.26352},"MapView":{"TopLeft":{"Latitude":51.5110142,"Longitude":16.2617138},"BottomRight":{"Latitude":51.5087658,"Longitude":16.2653262}},"Address":{"Label":"plac Zwycięstwa 9A, 59-305 Rudna, Polska","Country":"POL","State":"Woj. Dolnośląskie","County":"Powiat Lubiński","City":"Rudna","District":"Rudna","Street":"plac Zwycięstwa","HouseNumber":"9A","PostalCode":"59-305","AdditionalData":[{"value":"Polska","key":"CountryName"},{"value":"Woj. Dolnośląskie","key":"StateName"},{"value":"Powiat Lubiński","key":"CountyName"}]},"MapReference":{"ReferenceId":"594146077","Spot":0.09,"SideOfStreet":"right","CountryId":"20624059","StateId":"20625002","CountyId":"20625165","CityId":"20625170","DistrictId":"20680496","AddressId":"731606974","RoadLinkId":"114808026"}}},{"Relevance":1.0,"Distance":41.3,"MatchLevel":"houseNumber","MatchQuality":{"Country":1.0,"State":1.0,"County":1.0,"City":1.0,"District":1.0,"Street":[1.0],"HouseNumber":1.0,"PostalCode":1.0},"MatchType":"interpolated","Location":{"LocationId":"NT_hgkjOn7ZIHQmZD2YBm29KB_xUD","LocationType":"point","DisplayPosition":{"Latitude":51.51019,"Longitude":16.26408},"MapView":{"TopLeft":{"Latitude":51.5113142,"Longitude":16.2622738},"BottomRight":{"Latitude":51.5090658,"Longitude":16.2658862}},"Address":{"Label":"plac Zwycięstwa 15, 59-305 Rudna, Polska","Country":"POL","State":"Woj. Dolnośląskie","County":"Powiat Lubiński","City":"Rudna","District":"Rudna","Street":"plac Zwycięstwa","HouseNumber":"15","PostalCode":"59-305","AdditionalData":[{"value":"Polska","key":"CountryName"},{"value":"Woj. Dolnośląskie","key":"StateName"},{"value":"Powiat Lubiński","key":"CountyName"}]},"MapReference":{"ReferenceId":"744366918","Spot":0.39,"SideOfStreet":"left","CountryId":"20624059","StateId":"20625002","CountyId":"20625165","CityId":"20625170","DistrictId":"20680496","AddressId":"596854818","RoadLinkId":"142348892"}}},{"Relevance":1.0,"Distance":51.2,"MatchLevel":"houseNumber","MatchQuality":{"Country":1.0,"State":1.0,"County":1.0,"City":1.0,"District":1.0,"Street":[1.0],"HouseNumber":1.0,"PostalCode":1.0},"MatchType":"interpolated","Location":{"LocationId":"NT_ft.F1HdXZg9NY8XBU3U7BC_xA","LocationType":"point","DisplayPosition":{"Latitude":51.51056,"Longitude":16.26336},"MapView":{"TopLeft":{"Latitude":51.5116842,"Longitude":16.2615538},"BottomRight":{"Latitude":51.5094358,"Longitude":16.2651662}},"Address":{"Label":"ulica św. Katarzyny 1, 59-305 Rudna, Polska","Country":"POL","State":"Woj. Dolnośląskie","County":"Powiat Lubiński","City":"Rudna","District":"Rudna","Street":"ulica św. Katarzyny","HouseNumber":"1","PostalCode":"59-305","AdditionalData":[{"value":"Polska","key":"CountryName"},{"value":"Woj. Dolnośląskie","key":"StateName"},{"value":"Powiat Lubiński","key":"CountyName"}]},"MapReference":{"ReferenceId":"709458933","Spot":0.04,"SideOfStreet":"left","CountryId":"20624059","StateId":"20625002","CountyId":"20625165","CityId":"20625170","DistrictId":"20680496","AddressId":"597065525","RoadLinkId":"114808041"}}},{"Relevance":1.0,"Distance":52.4,"MatchLevel":"houseNumber","MatchQuality":{"Country":1.0,"State":1.0,"County":1.0,"City":1.0,"District":1.0,"Street":[1.0],"HouseNumber":1.0,"PostalCode":1.0},"MatchType":"interpolated","Location":{"LocationId":"NT_1ud9HGZLKYwpSnMmnb66yC_zEE","LocationType":"point","DisplayPosition":{"Latitude":51.5098,"Longitude":16.26255},"MapView":{"TopLeft":{"Latitude":51.5109242,"Longitude":16.2607438},"BottomRight":{"Latitude":51.5086758,"Longitude":16.2643562}},"Address":{"Label":"ulica Polkowicka 3A, 59-305 Rudna, Polska","Country":"POL","State":"Woj. Dolnośląskie","County":"Powiat Lubiński","City":"Rudna","District":"Rudna","Street":"ulica Polkowicka","HouseNumber":"3A","PostalCode":"59-305","AdditionalData":[{"value":"Polska","key":"CountryName"},{"value":"Woj. Dolnośląskie","key":"StateName"},{"value":"Powiat Lubiński","key":"CountyName"}]},"MapReference":{"ReferenceId":"709458911","Spot":0.66,"SideOfStreet":"right","CountryId":"20624059","StateId":"20625002","CountyId":"20625165","CityId":"20625170","DistrictId":"20680496","AddressId":"597050448","RoadLinkId":"114808019"}}},{"Relevance":1.0,"Distance":53.5,"MatchLevel":"houseNumber","MatchQuality":{"Country":1.0,"State":1.0,"County":1.0,"City":1.0,"District":1.0,"Street":[1.0],"HouseNumber":1.0,"PostalCode":1.0},"MatchType":"interpolated","Location":{"LocationId":"NT_hgkjOn7ZIHQmZD2YBm29KB_xATQ","LocationType":"point","DisplayPosition":{"Latitude":51.51054,"Longitude":16.26342},"MapView":{"TopLeft":{"Latitude":51.5116642,"Longitude":16.2616138},"BottomRight":{"Latitude":51.5094158,"Longitude":16.2652262}},"Address":{"Label":"plac Zwycięstwa 10A, 59-305 Rudna, Polska","Country":"POL","State":"Woj. Dolnośląskie","County":"Powiat Lubiński","City":"Rudna","District":"Rudna","Street":"plac Zwycięstwa","HouseNumber":"10A","PostalCode":"59-305","AdditionalData":[{"value":"Polska","key":"CountryName"},{"value":"Woj. Dolnośląskie","key":"StateName"},{"value":"Powiat Lubiński","key":"CountyName"}]},"MapReference":{"ReferenceId":"709458934","Spot":0.09,"SideOfStreet":"left","CountryId":"20624059","StateId":"20625002","CountyId":"20625165","CityId":"20625170","DistrictId":"20680496","AddressId":"731689979","RoadLinkId":"114808062"}}}]}]}}