{"Response":{"MetaInfo":{"Timestamp":"2020-03-28T11:18:05.411+0000","NextPageInformation":"2"},"View":[{"_type":"SearchResultsViewType","ViewId":0,"Result":[{"Relevance":1.0,"Distance":-28.8,"MatchLevel":"landmark","MatchQuality":{"Country":1.0,"State":1.0,"County":1.0,"City":1.0,"District":1.0,"PostalCode":1.0,"Name":1.0},"Location":{"LocationId":"NT_U8yvBk55-CgLDhrMW5G.uD_p_IF.moYH9Ws-zltLbGsnWyB","LocationType":"hospital","Name":"Northwick Park Hospital","DisplayPosition":{"Latitude":51.57537,"Longitude":-0.32259},"MapView":{"TopLeft":{"Latitude":51.57723,"Longitude":-0.32537},"BottomRight":{"Latitude":51.57372,"Longitude":-0.31499}},"Address":{"Label":"Harrow, HA1 3, United Kingdom","Country":"GBR","State":"England","County":"Middlesex","City":"Harrow","District":"Harrow","PostalCode":"HA1 3","AdditionalData":[{"value":"United Kingdom","key":"CountryName"},{"value":"England","key":"StateName"},{"value":"Middlesex","key":"CountyName"}]},"MapReference":{"StateId":"20248595","CountyId":"20337579","CityId":"20337598","DistrictId":"20337599","PlaceId":"18024601"}}},{"Relevance":1.0,"Distance":0.0,"Direction":0.0,"MatchLevel":"district","MatchQuality":{"Country":1.0,"State":1.0,"County":1.0,"City":1.0,"District":1.0,"PostalCode":1.0},"Location":{"LocationId":"NT_pPyO1k0GDd3LORhi3JM5xA","LocationType":"point","DisplayPosition":{"Latitude":51.5763945,"Longitude":-0.3216656},"MapView":{"TopLeft":{"Latitude":51.60839,"Longitude":-0.38027},"BottomRight":{"Latitude":51.55523,"Longitude":-0.28112}},"Address":{"Label":"Harrow, England, United Kingdom","Country":"GBR","State":"England","County":"Middlesex","City":"Harrow","District":"Harrow","PostalCode":"HA1 3","AdditionalData":[{"value":"United Kingdom","key":"CountryName"},{"value":"England","key":"StateName"},{"value":"Middlesex","key":"CountyName"}]},"MapReference":{"ReferenceId":"1226305369","SideOfStreet":"neither","StateId":"20248595","CountyId":"20337579","CityId":"20337598","DistrictId":"20337599"}}},{"Relevance":1.0,"Distance":14.4,"MatchLevel":"street","MatchQuality":{"Country":1.0,"State":1.0,"County":1.0,"City":1.0,"District":1.0,"PostalCode":1.0},"Location":{"LocationId":"NT_3RZOEVH8fS.YSiFeylwRuA_l_924236692_L","LocationType":"point","DisplayPosition":{"Latitude":51.5765238,"Longitude":-0.3216672},"MapView":{"TopLeft":{"Latitude":51.57656,"Longitude":-0.32439},"BottomRight":{"Latitude":51.57648,"Longitude":-0.31847}},"Address":{"Label":"Harrow, HA1 3, United Kingdom","Country":"GBR","State":"England","County":"Middlesex","City":"Harrow","District":"Harrow","PostalCode":"HA1 3","AdditionalData":[{"value":"United Kingdom","key":"CountryName"},{"value":"England","key":"StateName"},{"value":"Middlesex","key":"CountyName"}]},"MapReference":{"ReferenceId":"924236692","Spot":0.54,"SideOfStreet":"left","StateId":"20248595","CountyId":"20337579","CityId":"20337598","DistrictId":"20337599"}}},{"Relevance":1.0,"Distance":28.9,"MatchLevel":"landmark","MatchQuality":{"Country":1.0,"State":1.0,"County":1.0,"City":1.0,"PostalCode":1.0,"Name":1.0},"Location":{"LocationId":"NT_NuMyfvQPWhhMVz2OeJW3ND","LocationType":"universityCollege","Name":"Univ. of Westminster Harrow Campus","DisplayPosition":{"Latitude":51.5774,"Longitude":-0.32217},"MapView":{"TopLeft":{"Latitude":51.57857,"Longitude":-0.32601},"BottomRight":{"Latitude":51.57622,"Longitude":-0.31818}},"Address":{"Label":"Harrow, HA1 3, United Kingdom","Country":"GBR","State":"England","County":"Middlesex","City":"Harrow","PostalCode":"HA1 3","AdditionalData":[{"value":"United Kingdom","key":"CountryName"},{"value":"England","key":"StateName"},{"value":"Middlesex","key":"CountyName"}]},"MapReference":{"StateId":"20248595","CountyId":"20337579","CityId":"20337598","PlaceId":"546509786"}}},{"Relevance":1.0,"Distance":56.9,"MatchLevel":"street","MatchQuality":{"Country":1.0,"State":1.0,"County":1.0,"City":1.0,"District":1.0,"PostalCode":1.0},"Location":{"LocationId":"NT_3RZOEVH8fS.YSiFeylwRuA_l_586307432_R","LocationType":"point","DisplayPosition":{"Latitude":51.5767988,"Longitude":-0.322171},"MapView":{"TopLeft":{"Latitude":51.5768,"Longitude":-0.32365},"BottomRight":{"Latitude":51.57667,"Longitude":-0.32217}},"Address":{"Label":"Harrow, HA1 3, United Kingdom","Country":"GBR","State":"England","County":"Middlesex","City":"Harrow","District":"Harrow","PostalCode":"HA1 3","AdditionalData":[{"value":"United Kingdom","key":"CountryName"},{"value":"England","key":"StateName"},{"value":"Middlesex","key":"CountyName"}]},"MapReference":{"ReferenceId":"586307432","Spot":1.0,"SideOfStreet":"right","StateId":"20248595","CountyId":"20337579","CityId":"20337598","DistrictId":"20337599"}}},{"Relevance":1.0,"Distance":57.0,"MatchLevel":"street","MatchQuality":{"Country":1.0,"State":1.0,"County":1.0,"City":1.0,"District":1.0,"PostalCode":1.0},"Location":{"LocationId":"NT_3RZOEVH8fS.YSiFeylwRuA_l_586307433_R","LocationType":"point","DisplayPosition":{"Latitude":51.5768,"Longitude":-0.32217},"MapView":{"TopLeft":{"Latitude":51.57734,"Longitude":-0.32217},"BottomRight":{"Latitude":51.5768,"Longitude":-0.32214}},"Address":{"Label":"Harrow, HA1 3, United Kingdom","Country":"GBR","State":"England","County":"Middlesex","City":"Harrow","District":"Harrow","PostalCode":"HA1 3","AdditionalData":[{"value":"United Kingdom","key":"CountryName"},{"value":"England","key":"StateName"},{"value":"Middlesex","key":"CountyName"}]},"MapReference":{"ReferenceId":"586307433","Spot":0.0,"SideOfStreet":"right","StateId":"20248595","CountyId":"20337579","CityId":"20337598","DistrictId":"20337599"}}},{"Relevance":1.0,"Distance":110.1,"MatchLevel":"street","MatchQuality":{"Country":1.0,"State":1.0,"County":1.0,"City":1.0,"District":1.0,"PostalCode":1.0},"Location":{"LocationId":"NT_Z.DvU6eD4uN3VECA0BDtHB_l_924236685_R","LocationType":"point","DisplayPosition":{"Latitude":51.57734,"Longitude":-0.32214},"MapView":{"TopLeft":{"Latitude":51.5775,"Longitude":-0.32214},"BottomRight":{"Latitude":51.57734,"Longitude":-0.32213}},"Address":{"Label":"Harrow, HA3 0, United Kingdom","Country":"GBR","State":"England","County":"Middlesex","City":"Harrow","District":"Harrow","PostalCode":"HA3 0","AdditionalData":[{"value":"United Kingdom","key":"CountryName"},{"value":"England","key":"StateName"},{"value":"Middlesex","key":"CountyName"}]},"MapReference":{"ReferenceId":"924236685","Spot":0.0,"SideOfStreet":"right","StateId":"20248595","CountyId":"20337579","CityId":"20337598","DistrictId":"20337599"}}},{"Relevance":1.0,"Distance":122.9,"MatchLevel":"street","MatchQuality":{"Country":1.0,"State":1.0,"County":1.0,"City":1.0,"District":1.0,"PostalCode":1.0},"Location":{"LocationId":"NT_Z.DvU6eD4uN3VECA0BDtHB_l_924236699_R","LocationType":"point","DisplayPosition":{"Latitude":51.5775,"Longitude":-0.3216656},"MapView":{"TopLeft":{"Latitude":51.57775,"Longitude":-0.32213},"BottomRight":{"Latitude":51.57749,"Longitude":-0.31914}},"Address":{"Label":"Harrow, HA3 0, United Kingdom","Country":"GBR","State":"England","County":"Middlesex","City":"Harrow","District":"Harrow","PostalCode":"HA3 0","AdditionalData":[{"value":"United Kingdom","key":"CountryName"},{"value":"England","key":"StateName"},{"value":"Middlesex","key":"CountyName"}]},"MapReference":{"ReferenceId":"924236699","Spot":0.15,"SideOfStreet":"right","StateId":"20248595","CountyId":"20337579","CityId":"20337598","DistrictId":"20337599"}}},{"Relevance":1.0,"Distance":127.0,"MatchLevel":"street","MatchQuality":{"Country":1.0,"State":1.0,"County":1.0,"City":1.0,"District":1.0,"PostalCode":1.0},"Location":{"LocationId":"NT_Z.DvU6eD4uN3VECA0BDtHB_l_924236686_R","LocationType":"point","DisplayPosition":{"Latitude":51.5775,"Longitude":-0.32213},"MapView":{"TopLeft":{"Latitude":51.57827,"Longitude":-0.32213},"BottomRight":{"Latitude":51.5775,"Longitude":-0.32208}},"Address":{"Label":"Harrow, HA3 0, United Kingdom","Country":"GBR","State":"England","County":"Middlesex","City":"Harrow","District":"Harrow","PostalCode":"HA3 0","AdditionalData":[{"value":"United Kingdom","key":"CountryName"},{"value":"England","key":"StateName"},{"value":"Middlesex","key":"CountyName"}]},"MapReference":{"ReferenceId":"924236686","Spot":0.0,"SideOfStreet":"right","StateId":"20248595","CountyId":"20337579","CityId":"20337598","DistrictId":"20337599"}}},{"Relevance":1.0,"Distance":128.3,"MatchLevel":"postalCode","MatchQuality":{"PostalCode":1.0},"Location":{"LocationId":"NT_3RZOEVH8fS.YSiFeylwRuA_l_586294580_R","LocationType":"point","DisplayPosition":{"Latitude":51.57537,"Longitude":-0.32252},"MapView":{"TopLeft":{"Latitude":51.5843632,"Longitude":-0.3369905},"BottomRight":{"Latitude":51.5663768,"Longitude":-0.3080495}},"Address":{"Label":"HA1 3UJ, Harrow, England, United Kingdom","Country":"GBR","State":"England","County":"Middlesex","City":"Harrow","PostalCode":"HA1 3UJ","AdditionalData":[{"value":"United Kingdom","key":"CountryName"},{"value":"England","key":"StateName"},{"value":"Middlesex","key":"CountyName"}]},"MapReference":{"ReferenceId":"586294580","Spot":0.0,"SideOfStreet":"neither","StateId":"20248595","CountyId":"20337579","CityId":"20337598"}}}]}]}}