{"Response":{"MetaInfo":{"Timestamp":"2020-03-28T09:51:10.688+0000","NextPageInformation":"2"},"View":[{"_type":"SearchResultsViewType","ViewId":0,"Result":[{"Relevance":1.0,"Distance":0.0,"Direction":0.0,"MatchLevel":"district","MatchQuality":{"Country":1.0,"State":1.0,"County":1.0,"City":1.0,"District":1.0,"PostalCode":1.0},"Location":{"LocationId":"NT_pjuZAKQ3CpZ8JUBa.eW6DB","LocationType":"point","DisplayPosition":{"Latitude":51.5719612,"Longitude":0.4585425},"MapView":{"TopLeft":{"Latitude":51.5934,"Longitude":0.39168},"BottomRight":{"Latitude":51.55296,"Longitude":0.53982}},"Address":{"Label":"Basildon, England, United Kingdom","Country":"GBR","State":"England","County":"Essex","City":"Basildon","District":"Basildon","PostalCode":"SS15 5","AdditionalData":[{"value":"United Kingdom","key":"CountryName"},{"value":"England","key":"StateName"},{"value":"Essex","key":"CountyName"}]},"MapReference":{"ReferenceId":"1004340420","SideOfStreet":"neither","StateId":"20248595","CountyId":"20335385","CityId":"20335388","DistrictId":"20335389"}}},{"Relevance":1.0,"Distance":6.8,"MatchLevel":"street","MatchQuality":{"Country":1.0,"State":1.0,"County":1.0,"City":1.0,"District":1.0,"Street":[1.0],"PostalCode":1.0},"Location":{"LocationId":"NT_LO9ObQLlt0WlNEa45dlR3A_l_25772849_R","LocationType":"point","DisplayPosition":{"Latitude":51.5719342,"Longitude":0.4584549},"MapView":{"TopLeft":{"Latitude":51.57208,"Longitude":0.45841},"BottomRight":{"Latitude":51.57156,"Longitude":0.45857}},"Address":{"Label":"Little Oaks, Basildon, SS14 1, United Kingdom","Country":"GBR","State":"England","County":"Essex","City":"Basildon","District":"Basildon","Street":"Little Oaks","PostalCode":"SS14 1","AdditionalData":[{"value":"United Kingdom","key":"CountryName"},{"value":"England","key":"StateName"},{"value":"Essex","key":"CountyName"}]},"MapReference":{"ReferenceId":"25772849","Spot":0.72,"SideOfStreet":"right","StateId":"20248595","CountyId":"20335385","CityId":"20335388","DistrictId":"20335389"}}},{"Relevance":1.0,"Distance":14.7,"MatchLevel":"street","MatchQuality":{"Country":1.0,"State":1.0,"County":1.0,"City":1.0,"District":1.0,"Street":[1.0],"PostalCode":1.0},"Location":{"LocationId":"NT_.3hNkv9L3h88cbtYJ.rrPA_l_25772749_R","LocationType":"point","DisplayPosition":{"Latitude":51.5720931,"Longitude":0.4585278},"MapView":{"TopLeft":{"Latitude":51.57236,"Longitude":0.45841},"BottomRight":{"Latitude":51.57208,"Longitude":0.46082}},"Address":{"Label":"Broadmayne, Basildon, SS14 1, United Kingdom","Country":"GBR","State":"England","County":"Essex","City":"Basildon","District":"Basildon","Street":"Broadmayne","PostalCode":"SS14 1","AdditionalData":[{"value":"United Kingdom","key":"CountryName"},{"value":"England","key":"StateName"},{"value":"Essex","key":"CountyName"}]},"MapReference":{"ReferenceId":"25772749","Spot":0.05,"SideOfStreet":"right","StateId":"20248595","CountyId":"20335385","CityId":"20335388","DistrictId":"20335389"}}},{"Relevance":1.0,"Distance":16.1,"MatchLevel":"street","MatchQuality":{"Country":1.0,"State":1.0,"County":1.0,"City":1.0,"District":1.0,"Street":[1.0],"PostalCode":1.0},"Location":{"LocationId":"NT_PlR3cz6Bttw15JcYZ67TDA_l_26012841_R","LocationType":"point","DisplayPosition":{"Latitude":51.57208,"Longitude":0.45841},"MapView":{"TopLeft":{"Latitude":51.57208,"Longitude":0.45679},"BottomRight":{"Latitude":51.57189,"Longitude":0.45841}},"Address":{"Label":"Broadmayne, Basildon, SS14 1, United Kingdom","Country":"GBR","State":"England","County":"Essex","City":"Basildon","District":"Basildon","Street":"Broadmayne","PostalCode":"SS14 1","AdditionalData":[{"value":"United Kingdom","key":"CountryName"},{"value":"England","key":"StateName"},{"value":"Essex","key":"CountyName"}]},"MapReference":{"ReferenceId":"26012841","Spot":1.0,"SideOfStreet":"right","StateId":"20248595","CountyId":"20335385","CityId":"20335388","DistrictId":"20335389"}}},{"Relevance":1.0,"Distance":16.1,"MatchLevel":"street","MatchQuality":{"Country":1.0,"State":1.0,"County":1.0,"City":1.0,"District":1.0,"PostalCode":1.0},"Location":{"LocationId":"NT_lhegngU3elJJ10..2eCFlC_l_25772750_R","LocationType":"point","DisplayPosition":{"Latitude":51.57208,"Longitude":0.45841},"MapView":{"TopLeft":{"Latitude":51.57212,"Longitude":0.45766},"BottomRight":{"Latitude":51.57208,"Longitude":0.45841}},"Address":{"Label":"Basildon, SS14 1, United Kingdom","Country":"GBR","State":"England","County":"Essex","City":"Basildon","District":"Basildon","PostalCode":"SS14 1","AdditionalData":[{"value":"United Kingdom","key":"CountryName"},{"value":"England","key":"StateName"},{"value":"Essex","key":"CountyName"}]},"MapReference":{"ReferenceId":"25772750","Spot":0.0,"SideOfStreet":"right","StateId":"20248595","CountyId":"20335385","CityId":"20335388","DistrictId":"20335389"}}},{"Relevance":1.0,"Distance":20.3,"MatchLevel":"postalCode","MatchQuality":{"PostalCode":1.0},"Location":{"LocationId":"NT_LO9ObQLlt0WlNEa45dlR3A_l_25772849_R","LocationType":"point","DisplayPosition":{"Latitude":51.57179,"Longitude":0.45844},"MapView":{"TopLeft":{"Latitude":51.5807832,"Longitude":0.4439706},"BottomRight":{"Latitude":51.5627968,"Longitude":0.4729094}},"Address":{"Label":"SS14 1EH, Basildon, England, United Kingdom","Country":"GBR","State":"England","County":"Essex","City":"Basildon","PostalCode":"SS14 1EH","AdditionalData":[{"value":"United Kingdom","key":"CountryName"},{"value":"England","key":"StateName"},{"value":"Essex","key":"CountyName"}]},"MapReference":{"ReferenceId":"25772849","Spot":0.72,"SideOfStreet":"neither","StateId":"20248595","CountyId":"20335385","CityId":"20335388"}}},{"Relevance":1.0,"Distance":20.3,"MatchLevel":"postalCode","MatchQuality":{"PostalCode":1.0},"Location":{"LocationId":"NT_1NlaOeG523A8bG98wi38RD_l_949090324_L","LocationType":"point","DisplayPosition":{"Latitude":51.57179,"Longitude":0.45844},"MapView":{"TopLeft":{"Latitude":51.5807832,"Longitude":0.4439706},"BottomRight":{"Latitude":51.5627968,"Longitude":0.4729094}},"Address":{"Label":"SS14 1AH, Basildon, England, United Kingdom","Country":"GBR","State":"England","County":"Essex","City":"Basildon","PostalCode":"SS14 1AH","AdditionalData":[{"value":"United Kingdom","key":"CountryName"},{"value":"England","key":"StateName"},{"value":"Essex","key":"CountyName"}]},"MapReference":{"ReferenceId":"949090324","Spot":1.0,"SideOfStreet":"neither","StateId":"20248595","CountyId":"20335385","CityId":"20335388"}}},{"Relevance":1.0,"Distance":25.9,"MatchLevel":"street","MatchQuality":{"Country":1.0,"State":1.0,"County":1.0,"City":1.0,"District":1.0,"Street":[1.0],"PostalCode":1.0},"Location":{"LocationId":"NT_.3hNkv9L3h88cbtYJ.rrPA_l_835871148_R","LocationType":"point","DisplayPosition":{"Latitude":51.5721938,"Longitude":0.4585227},"MapView":{"TopLeft":{"Latitude":51.57244,"Longitude":0.45836},"BottomRight":{"Latitude":51.57218,"Longitude":0.46076}},"Address":{"Label":"Broadmayne, Basildon, SS14 1, United Kingdom","Country":"GBR","State":"England","County":"Essex","City":"Basildon","District":"Basildon","Street":"Broadmayne","PostalCode":"SS14 1","AdditionalData":[{"value":"United Kingdom","key":"CountryName"},{"value":"England","key":"StateName"},{"value":"Essex","key":"CountyName"}]},"MapReference":{"ReferenceId":"835871148","Spot":0.07,"SideOfStreet":"right","StateId":"20248595","CountyId":"20335385","CityId":"20335388","DistrictId":"20335389"}}},{"Relevance":1.0,"Distance":27.4,"MatchLevel":"street","MatchQuality":{"Country":1.0,"State":1.0,"County":1.0,"City":1.0,"District":1.0,"Street":[1.0],"PostalCode":1.0},"Location":{"LocationId":"NT_.3hNkv9L3h88cbtYJ.rrPA_l_835871147_R","LocationType":"point","DisplayPosition":{"Latitude":51.57218,"Longitude":0.45836},"MapView":{"TopLeft":{"Latitude":51.57218,"Longitude":0.45766},"BottomRight":{"Latitude":51.5721,"Longitude":0.45836}},"Address":{"Label":"Broadmayne, Basildon, SS14 1, United Kingdom","Country":"GBR","State":"England","County":"Essex","City":"Basildon","District":"Basildon","Street":"Broadmayne","PostalCode":"SS14 1","AdditionalData":[{"value":"United Kingdom","key":"CountryName"},{"value":"England","key":"StateName"},{"value":"Essex","key":"CountyName"}]},"MapReference":{"ReferenceId":"835871147","Spot":1.0,"SideOfStreet":"right","StateId":"20248595","CountyId":"20335385","CityId":"20335388","DistrictId":"20335389"}}},{"Relevance":1.0,"Distance":44.4,"MatchLevel":"street","MatchQuality":{"Country":1.0,"State":1.0,"County":1.0,"City":1.0,"District":1.0,"Street":[1.0],"PostalCode":1.0},"Location":{"LocationId":"NT_1NlaOeG523A8bG98wi38RD_l_25772848_L","LocationType":"point","DisplayPosition":{"Latitude":51.5715626,"Longitude":0.4585914},"MapView":{"TopLeft":{"Latitude":51.57169,"Longitude":0.45857},"BottomRight":{"Latitude":51.57156,"Longitude":0.45963}},"Address":{"Label":"Great Oaks, Basildon, SS14 1, United Kingdom","Country":"GBR","State":"England","County":"Essex","City":"Basildon","District":"Basildon","Street":"Great Oaks","PostalCode":"SS14 1","AdditionalData":[{"value":"United Kingdom","key":"CountryName"},{"value":"England","key":"StateName"},{"value":"Essex","key":"CountyName"}]},"MapReference":{"ReferenceId":"25772848","Spot":0.02,"SideOfStreet":"left","StateId":"20248595","CountyId":"20335385","CityId":"20335388","DistrictId":"20335389"}}}]}]}}