{"Response":{"MetaInfo":{"Timestamp":"2020-03-28T10:24:36.852+0000","NextPageInformation":"2"},"View":[{"_type":"SearchResultsViewType","ViewId":0,"Result":[{"Relevance":1.0,"Distance":0.0,"Direction":0.0,"MatchLevel":"district","MatchQuality":{"Country":1.0,"State":1.0,"County":1.0,"City":1.0,"District":1.0,"PostalCode":1.0},"Location":{"LocationId":"NT_MILLV1llfyHbdBqYnr8wjC","LocationType":"point","DisplayPosition":{"Latitude":51.5309206,"Longitude":9.8972808},"MapView":{"TopLeft":{"Latitude":51.57571,"Longitude":9.8786},"BottomRight":{"Latitude":51.50574,"Longitude":9.97961}},"Address":{"Label":"Göttingen, Niedersachsen, Deutschland","Country":"DEU","State":"Niedersachsen","County":"Göttingen","City":"Göttingen","District":"Göttingen","PostalCode":"37073","AdditionalData":[{"value":"Deutschland","key":"CountryName"},{"value":"Niedersachsen","key":"StateName"},{"value":"Göttingen","key":"CountyName"}]},"MapReference":{"ReferenceId":"51830105","SideOfStreet":"neither","CountryId":"20147700","StateId":"20151542","CountyId":"20151840","CityId":"20151920","DistrictId":"20151929"}}},{"Relevance":1.0,"Distance":4.8,"MatchLevel":"houseNumber","MatchQuality":{"Country":1.0,"State":1.0,"County":1.0,"City":1.0,"District":1.0,"Street":[1.0],"HouseNumber":1.0,"PostalCode":1.0},"MatchType":"interpolated","Location":{"LocationId":"NT_-OGe8iOdLZO9nErOCZiObA_xA","LocationType":"point","DisplayPosition":{"Latitude":51.53096,"Longitude":9.89771},"MapView":{"TopLeft":{"Latitude":51.5320842,"Longitude":9.8959029},"BottomRight":{"Latitude":51.5298358,"Longitude":9.8995171}},"Address":{"Label":"Zollstock 1, 37081 Göttingen, Deutschland","Country":"DEU","State":"Niedersachsen","County":"Göttingen","City":"Göttingen","District":"Göttingen","Street":"Zollstock","HouseNumber":"1","PostalCode":"37081","AdditionalData":[{"value":"Deutschland","key":"CountryName"},{"value":"Niedersachsen","key":"StateName"},{"value":"Göttingen","key":"CountyName"}]},"MapReference":{"ReferenceId":"586517323","Spot":0.59,"SideOfStreet":"left","CountryId":"20147700","StateId":"20151542","CountyId":"20151840","CityId":"20151920","DistrictId":"20151929","AddressId":"179318968","RoadLinkId":"36766751"}}},{"Relevance":1.0,"Distance":32.6,"MatchLevel":"houseNumber","MatchQuality":{"Country":1.0,"State":1.0,"County":1.0,"City":1.0,"District":1.0,"Street":[1.0],"HouseNumber":1.0,"PostalCode":1.0},"MatchType":"interpolated","Location":{"LocationId":"NT_5Y2HTpInMKcH5kuv2BZlXA_3AD","LocationType":"point","DisplayPosition":{"Latitude":51.53059,"Longitude":9.89762},"MapView":{"TopLeft":{"Latitude":51.5317142,"Longitude":9.895813},"BottomRight":{"Latitude":51.5294658,"Longitude":9.899427}},"Address":{"Label":"Kasseler Landstraße 70, 37081 Göttingen, Deutschland","Country":"DEU","State":"Niedersachsen","County":"Göttingen","City":"Göttingen","District":"Göttingen","Street":"Kasseler Landstraße","HouseNumber":"70","PostalCode":"37081","AdditionalData":[{"value":"Deutschland","key":"CountryName"},{"value":"Niedersachsen","key":"StateName"},{"value":"Göttingen","key":"CountyName"}]},"MapReference":{"ReferenceId":"51832905","Spot":0.93,"SideOfStreet":"left","CountryId":"20147700","StateId":"20151542","CountyId":"20151840","CityId":"20151920","DistrictId":"20151929","AddressId":"181193294","RoadLinkId":"36966741"}}},{"Relevance":1.0,"Distance":43.3,"MatchLevel":"houseNumber","MatchQuality":{"Country":1.0,"State":1.0,"County":1.0,"City":1.0,"District":1.0,"Street":[1.0],"HouseNumber":1.0,"PostalCode":1.0},"MatchType":"interpolated","Location":{"LocationId":"NT_-OGe8iOdLZO9nErOCZiObA_3EE","LocationType":"point","DisplayPosition":{"Latitude":51.53124,"Longitude":9.89771},"MapView":{"TopLeft":{"Latitude":51.5323642,"Longitude":9.8959029},"BottomRight":{"Latitude":51.5301158,"Longitude":9.8995171}},"Address":{"Label":"Zollstock 7A, 37081 Göttingen, Deutschland","Country":"DEU","State":"Niedersachsen","County":"Göttingen","City":"Göttingen","District":"Göttingen","Street":"Zollstock","HouseNumber":"7A","PostalCode":"37081","AdditionalData":[{"value":"Deutschland","key":"CountryName"},{"value":"Niedersachsen","key":"StateName"},{"value":"Göttingen","key":"CountyName"}]},"MapReference":{"ReferenceId":"906792850","Spot":0.05,"SideOfStreet":"left","CountryId":"20147700","StateId":"20151542","CountyId":"20151840","CityId":"20151920","DistrictId":"20151929","AddressId":"789883341","RoadLinkId":"267434949"}}},{"Relevance":1.0,"Distance":48.5,"MatchLevel":"street","MatchQuality":{"Country":1.0,"State":1.0,"County":1.0,"City":1.0,"District":1.0,"PostalCode":1.0},"Location":{"LocationId":"NT_d6ZHdig5ibQtrAk8D3srDA_l_51832907_L","LocationType":"point","DisplayPosition":{"Latitude":51.53065,"Longitude":9.89783},"MapView":{"TopLeft":{"Latitude":51.53065,"Longitude":9.89783},"BottomRight":{"Latitude":51.53055,"Longitude":9.8979}},"Address":{"Label":"37081 Göttingen, Deutschland","Country":"DEU","State":"Niedersachsen","County":"Göttingen","City":"Göttingen","District":"Göttingen","PostalCode":"37081","AdditionalData":[{"value":"Deutschland","key":"CountryName"},{"value":"Niedersachsen","key":"StateName"},{"value":"Göttingen","key":"CountyName"}]},"MapReference":{"ReferenceId":"51832907","Spot":1.0,"SideOfStreet":"left","CountryId":"20147700","StateId":"20151542","CountyId":"20151840","CityId":"20151920","DistrictId":"20151929"}}},{"Relevance":1.0,"Distance":51.5,"MatchLevel":"houseNumber","MatchQuality":{"Country":1.0,"State":1.0,"County":1.0,"City":1.0,"District":1.0,"Street":[1.0],"HouseNumber":1.0,"PostalCode":1.0},"MatchType":"interpolated","Location":{"LocationId":"NT_5Y2HTpInMKcH5kuv2BZlXA_2gD","LocationType":"point","DisplayPosition":{"Latitude":51.53072,"Longitude":9.89807},"MapView":{"TopLeft":{"Latitude":51.5318442,"Longitude":9.896263},"BottomRight":{"Latitude":51.5295958,"Longitude":9.899877}},"Address":{"Label":"Kasseler Landstraße 68, 37081 Göttingen, Deutschland","Country":"DEU","State":"Niedersachsen","County":"Göttingen","City":"Göttingen","District":"Göttingen","Street":"Kasseler Landstraße","HouseNumber":"68","PostalCode":"37081","AdditionalData":[{"value":"Deutschland","key":"CountryName"},{"value":"Niedersachsen","key":"StateName"},{"value":"Göttingen","key":"CountyName"}]},"MapReference":{"ReferenceId":"1053379159","Spot":0.28,"SideOfStreet":"left","CountryId":"20147700","StateId":"20151542","CountyId":"20151840","CityId":"20151920","DistrictId":"20151929","AddressId":"177704514","RoadLinkId":"373022911"}}},{"Relevance":1.0,"Distance":59.1,"MatchLevel":"houseNumber","MatchQuality":{"Country":1.0,"State":1.0,"County":1.0,"City":1.0,"District":1.0,"Street":[1.0],"HouseNumber":1.0,"PostalCode":1.0},"MatchType":"interpolated","Location":{"LocationId":"NT_5Y2HTpInMKcH5kuv2BZlXA_1MD","LocationType":"point","DisplayPosition":{"Latitude":51.53039,"Longitude":9.89734},"MapView":{"TopLeft":{"Latitude":51.5315142,"Longitude":9.895533},"BottomRight":{"Latitude":51.5292658,"Longitude":9.899147}},"Address":{"Label":"Kasseler Landstraße 53, 37081 Göttingen, Deutschland","Country":"DEU","State":"Niedersachsen","County":"Göttingen","City":"Göttingen","District":"Göttingen","Street":"Kasseler Landstraße","HouseNumber":"53","PostalCode":"37081","AdditionalData":[{"value":"Deutschland","key":"CountryName"},{"value":"Niedersachsen","key":"StateName"},{"value":"Göttingen","key":"CountyName"}]},"MapReference":{"ReferenceId":"1053379158","Spot":0.42,"SideOfStreet":"right","CountryId":"20147700","StateId":"20151542","CountyId":"20151840","CityId":"20151920","DistrictId":"20151929","AddressId":"181406767","RoadLinkId":"373022910"}}},{"Relevance":1.0,"Distance":59.4,"MatchLevel":"street","MatchQuality":{"Country":1.0,"State":1.0,"County":1.0,"City":1.0,"District":1.0,"Street":[1.0],"PostalCode":1.0},"Location":{"LocationId":"NT_7RTlcm1VlQFaCOqBwmTrZB_l_1206866779_L","LocationType":"point","DisplayPosition":{"Latitude":51.53055,"Longitude":9.8979},"MapView":{"TopLeft":{"Latitude":51.53055,"Longitude":9.8979},"BottomRight":{"Latitude":51.53035,"Longitude":9.89805}},"Address":{"Label":"Deisterstraße, 37081 Göttingen, Deutschland","Country":"DEU","State":"Niedersachsen","County":"Göttingen","City":"Göttingen","District":"Göttingen","Street":"Deisterstraße","PostalCode":"37081","AdditionalData":[{"value":"Deutschland","key":"CountryName"},{"value":"Niedersachsen","key":"StateName"},{"value":"Göttingen","key":"CountyName"}]},"MapReference":{"ReferenceId":"1206866779","Spot":1.0,"SideOfStreet":"left","CountryId":"20147700","StateId":"20151542","CountyId":"20151840","CityId":"20151920","DistrictId":"20151929"}}},{"Relevance":1.0,"Distance":75.3,"MatchLevel":"houseNumber","MatchQuality":{"Country":1.0,"State":1.0,"County":1.0,"City":1.0,"District":1.0,"Street":[1.0],"HouseNumber":1.0,"PostalCode":1.0},"MatchType":"interpolated","Location":{"LocationId":"NT_5Y2HTpInMKcH5kuv2BZlXA_1cD","LocationType":"point","DisplayPosition":{"Latitude":51.53028,"Longitude":9.89693},"MapView":{"TopLeft":{"Latitude":51.5314042,"Longitude":9.895123},"BottomRight":{"Latitude":51.5291558,"Longitude":9.898737}},"Address":{"Label":"Kasseler Landstraße 57, 37081 Göttingen, Deutschland","Country":"DEU","State":"Niedersachsen","County":"Göttingen","City":"Göttingen","District":"Göttingen","Street":"Kasseler Landstraße","HouseNumber":"57","PostalCode":"37081","AdditionalData":[{"value":"Deutschland","key":"CountryName"},{"value":"Niedersachsen","key":"StateName"},{"value":"Göttingen","key":"CountyName"}]},"MapReference":{"ReferenceId":"1053379157","Spot":1.0,"SideOfStreet":"right","CountryId":"20147700","StateId":"20151542","CountyId":"20151840","CityId":"20151920","DistrictId":"20151929","AddressId":"177761293","RoadLinkId":"373022909"}}},{"Relevance":1.0,"Distance":82.1,"MatchLevel":"street","MatchQuality":{"Country":1.0,"State":1.0,"County":1.0,"City":1.0,"District":1.0,"PostalCode":1.0},"Location":{"LocationId":"NT_d6ZHdig5ibQtrAk8D3srDA_l_1252208260_R","LocationType":"point","DisplayPosition":{"Latitude":51.53153,"Longitude":9.89661},"MapView":{"TopLeft":{"Latitude":51.53153,"Longitude":9.89512},"BottomRight":{"Latitude":51.53092,"Longitude":9.89661}},"Address":{"Label":"37081 Göttingen, Deutschland","Country":"DEU","State":"Niedersachsen","County":"Göttingen","City":"Göttingen","District":"Göttingen","PostalCode":"37081","AdditionalData":[{"value":"Deutschland","key":"CountryName"},{"value":"Niedersachsen","key":"StateName"},{"value":"Göttingen","key":"CountyName"}]},"MapReference":{"ReferenceId":"1252208260","Spot":1.0,"SideOfStreet":"right","CountryId":"20147700","StateId":"20151542","CountyId":"20151840","CityId":"20151920","DistrictId":"20151929"}}}]}]}}