{"Response":{"MetaInfo":{"Timestamp":"2020-03-28T10:08:32.278+0000","NextPageInformation":"2"},"View":[{"_type":"SearchResultsViewType","ViewId":0,"Result":[{"Relevance":1.0,"Distance":0.0,"Direction":0.0,"MatchLevel":"district","MatchQuality":{"Country":1.0,"State":1.0,"County":1.0,"City":1.0,"District":1.0,"PostalCode":1.0},"Location":{"LocationId":"NT_x.elwbm7txDGby7ejv4CdB","LocationType":"point","DisplayPosition":{"Latitude":51.5248256,"Longitude":-0.0804174},"MapView":{"TopLeft":{"Latitude":51.52794,"Longitude":-0.08605},"BottomRight":{"Latitude":51.51962,"Longitude":-0.07576}},"Address":{"Label":"Shoreditch, London, England, United Kingdom","Country":"GBR","State":"England","County":"London","City":"London","District":"Shoreditch","PostalCode":"EC2A 3","AdditionalData":[{"value":"United Kingdom","key":"CountryName"},{"value":"England","key":"StateName"},{"value":"London","key":"CountyName"}]},"MapReference":{"ReferenceId":"835434457","SideOfStreet":"neither","StateId":"20248595","CountyId":"20337453","CityId":"20337454"}}},{"Relevance":1.0,"Distance":9.3,"MatchLevel":"houseNumber","MatchQuality":{"Country":1.0,"State":1.0,"County":1.0,"City":1.0,"District":1.0,"Street":[1.0],"HouseNumber":1.0,"PostalCode":1.0},"MatchType":"interpolated","Location":{"LocationId":"NT_-3CU8iLU.bSYHUzhVBXI1A_3MD","LocationType":"point","DisplayPosition":{"Latitude":51.5248,"Longitude":-0.08029},"MapView":{"TopLeft":{"Latitude":51.5259242,"Longitude":-0.0820968},"BottomRight":{"Latitude":51.5236758,"Longitude":-0.0784832}},"Address":{"Label":"73 Curtain Road, London, EC2A 3BS, United Kingdom","Country":"GBR","State":"England","County":"London","City":"London","District":"Shoreditch","Street":"Curtain Road","HouseNumber":"73","PostalCode":"EC2A 3BS","AdditionalData":[{"value":"United Kingdom","key":"CountryName"},{"value":"England","key":"StateName"},{"value":"London","key":"CountyName"}]},"MapReference":{"ReferenceId":"1218367448","Spot":0.14,"SideOfStreet":"left","StateId":"20248595","CountyId":"20337453","CityId":"20337454","AddressId":"748426019","RoadLinkId":"535000159"}}},{"Relevance":1.0,"Distance":15.1,"MatchLevel":"postalCode","MatchQuality":{"PostalCode":1.0},"MatchType":"interpolated","Location":{"LocationId":"NT_-3CU8iLU.bSYHUzhVBXI1A_3MD","LocationType":"point","DisplayPosition":{"Latitude":51.52495,"Longitude":-0.08033},"MapView":{"TopLeft":{"Latitude":51.5339432,"Longitude":-0.0947845},"BottomRight":{"Latitude":51.5159568,"Longitude":-0.0658755}},"Address":{"Label":"EC2A 3AG, London, England, United Kingdom","Country":"GBR","State":"England","County":"London","City":"London","PostalCode":"EC2A 3AG","AdditionalData":[{"value":"United Kingdom","key":"CountryName"},{"value":"England","key":"StateName"},{"value":"London","key":"CountyName"}]},"MapReference":{"ReferenceId":"1218367448","Spot":0.14,"SideOfStreet":"neither","StateId":"20248595","CountyId":"20337453","CityId":"20337454"}}},{"Relevance":1.0,"Distance":17.1,"MatchLevel":"houseNumber","MatchQuality":{"Country":1.0,"State":1.0,"County":1.0,"City":1.0,"District":1.0,"Street":[1.0],"HouseNumber":1.0,"PostalCode":1.0},"MatchType":"interpolated","Location":{"LocationId":"NT_MSXqZhBpT0HSYt323oGZAB_0AD","LocationType":"point","DisplayPosition":{"Latitude":51.52459,"Longitude":-0.08073},"MapView":{"TopLeft":{"Latitude":51.5257142,"Longitude":-0.0825368},"BottomRight":{"Latitude":51.5234658,"Longitude":-0.0789232}},"Address":{"Label":"40 Great Eastern Street, London, EC2A 3EP, United Kingdom","Country":"GBR","State":"England","County":"London","City":"London","District":"Shoreditch","Street":"Great Eastern Street","HouseNumber":"40","PostalCode":"EC2A 3EP","AdditionalData":[{"value":"United Kingdom","key":"CountryName"},{"value":"England","key":"StateName"},{"value":"London","key":"CountyName"}]},"MapReference":{"ReferenceId":"25302167","Spot":0.77,"SideOfStreet":"right","StateId":"20248595","CountyId":"20337453","CityId":"20337454","AddressId":"748357817","RoadLinkId":"82251921"}}},{"Relevance":1.0,"Distance":21.3,"MatchLevel":"houseNumber","MatchQuality":{"Country":1.0,"State":1.0,"County":1.0,"City":1.0,"District":1.0,"Street":[1.0],"HouseNumber":1.0,"PostalCode":1.0},"MatchType":"interpolated","Location":{"LocationId":"NT_MSXqZhBpT0HSYt323oGZAB_0ID","LocationType":"point","DisplayPosition":{"Latitude":51.52469,"Longitude":-0.08089},"MapView":{"TopLeft":{"Latitude":51.5258142,"Longitude":-0.0826968},"BottomRight":{"Latitude":51.5235658,"Longitude":-0.0790832}},"Address":{"Label":"42 Great Eastern Street, London, EC2A 3EP, United Kingdom","Country":"GBR","State":"England","County":"London","City":"London","District":"Shoreditch","Street":"Great Eastern Street","HouseNumber":"42","PostalCode":"EC2A 3EP","AdditionalData":[{"value":"United Kingdom","key":"CountryName"},{"value":"England","key":"StateName"},{"value":"London","key":"CountyName"}]},"MapReference":{"ReferenceId":"25302079","Spot":0.0,"SideOfStreet":"right","StateId":"20248595","CountyId":"20337453","CityId":"20337454","AddressId":"747780495","RoadLinkId":"82519671"}}},{"Relevance":1.0,"Distance":22.4,"MatchLevel":"houseNumber","MatchQuality":{"Country":1.0,"State":1.0,"County":1.0,"City":1.0,"District":1.0,"Street":[1.0],"HouseNumber":1.0,"PostalCode":1.0},"MatchType":"interpolated","Location":{"LocationId":"NT_-3CU8iLU.bSYHUzhVBXI1A_5AD","LocationType":"point","DisplayPosition":{"Latitude":51.52464,"Longitude":-0.08029},"MapView":{"TopLeft":{"Latitude":51.5257642,"Longitude":-0.0820968},"BottomRight":{"Latitude":51.5235158,"Longitude":-0.0784832}},"Address":{"Label":"90 Curtain Road, London, EC2A 3, United Kingdom","Country":"GBR","State":"England","County":"London","City":"London","District":"Shoreditch","Street":"Curtain Road","HouseNumber":"90","PostalCode":"EC2A 3","AdditionalData":[{"value":"United Kingdom","key":"CountryName"},{"value":"England","key":"StateName"},{"value":"London","key":"CountyName"}]},"MapReference":{"ReferenceId":"1218367447","Spot":0.67,"SideOfStreet":"right","StateId":"20248595","CountyId":"20337453","CityId":"20337454","AddressId":"748473138","RoadLinkId":"535000158"}}},{"Relevance":1.0,"Distance":26.3,"MatchLevel":"houseNumber","MatchQuality":{"Country":1.0,"State":1.0,"County":1.0,"City":1.0,"District":1.0,"Street":[1.0],"HouseNumber":1.0,"PostalCode":1.0},"MatchType":"interpolated","Location":{"LocationId":"NT_AcT5lSXRzhJ1xAgBDhvlkD_l_25326204_R_0QD","LocationType":"point","DisplayPosition":{"Latitude":51.5246834,"Longitude":-0.0808801},"MapView":{"TopLeft":{"Latitude":51.5258076,"Longitude":-0.0826869},"BottomRight":{"Latitude":51.5235593,"Longitude":-0.0790733}},"Address":{"Label":"44 Great Eastern Street, London, EC2A 3, United Kingdom","Country":"GBR","State":"England","County":"London","City":"London","District":"Shoreditch","Street":"Great Eastern Street","HouseNumber":"44","PostalCode":"EC2A 3","AdditionalData":[{"value":"United Kingdom","key":"CountryName"},{"value":"England","key":"StateName"},{"value":"London","key":"CountyName"}]},"MapReference":{"ReferenceId":"25326204","Spot":0.67,"SideOfStreet":"right","StateId":"20248595","CountyId":"20337453","CityId":"20337454"}}},{"Relevance":1.0,"Distance":33.1,"MatchLevel":"postalCode","MatchQuality":{"PostalCode":1.0},"MatchType":"interpolated","Location":{"LocationId":"NT_MSXqZhBpT0HSYt323oGZAB_0ID","LocationType":"point","DisplayPosition":{"Latitude":51.52475,"Longitude":-0.08088},"MapView":{"TopLeft":{"Latitude":51.5337432,"Longitude":-0.0953344},"BottomRight":{"Latitude":51.5157568,"Longitude":-0.0664256}},"Address":{"Label":"EC2A 3EP, London, England, United Kingdom","Country":"GBR","State":"England","County":"London","City":"London","PostalCode":"EC2A 3EP","AdditionalData":[{"value":"United Kingdom","key":"CountryName"},{"value":"England","key":"StateName"},{"value":"London","key":"CountyName"}]},"MapReference":{"ReferenceId":"25302079","Spot":0.0,"SideOfStreet":"neither","StateId":"20248595","CountyId":"20337453","CityId":"20337454"}}},{"Relevance":1.0,"Distance":34.3,"MatchLevel":"houseNumber","MatchQuality":{"Country":1.0,"State":1.0,"County":1.0,"City":1.0,"District":1.0,"Street":[1.0],"HouseNumber":1.0,"PostalCode":1.0},"MatchType":"interpolated","Location":{"LocationId":"NT_lceT03lIm3QVVorwsXCDTB_l_845978541_L_1QD","LocationType":"point","DisplayPosition":{"Latitude":51.52469,"Longitude":-0.0809137},"MapView":{"TopLeft":{"Latitude":51.5258142,"Longitude":-0.0827205},"BottomRight":{"Latitude":51.5235658,"Longitude":-0.0791069}},"Address":{"Label":"54 Leonard Street, London, EC2A 3, United Kingdom","Country":"GBR","State":"England","County":"London","City":"London","District":"Shoreditch","Street":"Leonard Street","HouseNumber":"54","PostalCode":"EC2A 3","AdditionalData":[{"value":"United Kingdom","key":"CountryName"},{"value":"England","key":"StateName"},{"value":"London","key":"CountyName"}]},"MapReference":{"ReferenceId":"845978541","Spot":0.88,"SideOfStreet":"left","StateId":"20248595","CountyId":"20337453","CityId":"20337454"}}},{"Relevance":1.0,"Distance":38.8,"MatchLevel":"houseNumber","MatchQuality":{"Country":1.0,"State":1.0,"County":1.0,"City":1.0,"District":1.0,"Street":[1.0],"HouseNumber":1.0,"PostalCode":1.0},"MatchType":"interpolated","Location":{"LocationId":"NT_Ih8U0oiQIxYITZoeV1RxMC_l_845978543_R_ygD","LocationType":"point","DisplayPosition":{"Latitude":51.5246409,"Longitude":-0.080894},"MapView":{"TopLeft":{"Latitude":51.525765,"Longitude":-0.0827008},"BottomRight":{"Latitude":51.5235167,"Longitude":-0.0790872}},"Address":{"Label":"28 Phipp Street, London, EC2A 3, United Kingdom","Country":"GBR","State":"England","County":"London","City":"London","District":"Shoreditch","Street":"Phipp Street","HouseNumber":"28","PostalCode":"EC2A 3","AdditionalData":[{"value":"United Kingdom","key":"CountryName"},{"value":"England","key":"StateName"},{"value":"London","key":"CountyName"}]},"MapReference":{"ReferenceId":"845978543","Spot":0.51,"SideOfStreet":"right","StateId":"20248595","CountyId":"20337453","CityId":"20337454"}}}]}]}}