{"Response":{"MetaInfo":{"Timestamp":"2020-03-28T09:58:16.660+0000","NextPageInformation":"2"},"View":[{"_type":"SearchResultsViewType","ViewId":0,"Result":[{"Relevance":1.0,"Distance":0.0,"Direction":0.0,"MatchLevel":"district","MatchQuality":{"Country":1.0,"State":1.0,"County":1.0,"City":1.0,"District":1.0,"PostalCode":1.0},"Location":{"LocationId":"NT_C5fPMe9oMGRlVIpd4I4W7C","LocationType":"point","DisplayPosition":{"Latitude":51.5305529,"Longitude":17.9697932},"MapView":{"TopLeft":{"Latitude":51.5401,"Longitude":17.96015},"BottomRight":{"Latitude":51.52754,"Longitude":17.98402}},"Address":{"Label":"Mikstat, Woj. Wielkopolskie, Polska","Country":"POL","State":"Woj. Wielkopolskie","County":"Powiat Ostrzeszowski","City":"Mikstat","District":"Mikstat","PostalCode":"63-510","AdditionalData":[{"value":"Polska","key":"CountryName"},{"value":"Woj. Wielkopolskie","key":"StateName"},{"value":"Powiat Ostrzeszowski","key":"CountyName"}]},"MapReference":{"ReferenceId":"1112070065","SideOfStreet":"neither","CountryId":"20624059","StateId":"20629915","CountyId":"20631659","CityId":"20631670","DistrictId":"20696941"}}},{"Relevance":1.0,"Distance":8.1,"MatchLevel":"houseNumber","MatchQuality":{"Country":1.0,"State":1.0,"County":1.0,"City":1.0,"District":1.0,"Street":[1.0],"HouseNumber":1.0,"PostalCode":1.0},"MatchType":"interpolated","Location":{"LocationId":"NT_y78YqvUhN4xc14r7xABSQB_4A","LocationType":"point","DisplayPosition":{"Latitude":51.53057,"Longitude":17.96968},"MapView":{"TopLeft":{"Latitude":51.5316942,"Longitude":17.967873},"BottomRight":{"Latitude":51.5294458,"Longitude":17.971487}},"Address":{"Label":"ulica Kościelna 8, 63-510 Mikstat, Polska","Country":"POL","State":"Woj. Wielkopolskie","County":"Powiat Ostrzeszowski","City":"Mikstat","District":"Mikstat","Street":"ulica Kościelna","HouseNumber":"8","PostalCode":"63-510","AdditionalData":[{"value":"Polska","key":"CountryName"},{"value":"Woj. Wielkopolskie","key":"StateName"},{"value":"Powiat Ostrzeszowski","key":"CountyName"}]},"MapReference":{"ReferenceId":"1112237835","Spot":0.75,"SideOfStreet":"left","CountryId":"20624059","StateId":"20629915","CountyId":"20631659","CityId":"20631670","DistrictId":"20696941","AddressId":"211073043","RoadLinkId":"422251233"}}},{"Relevance":1.0,"Distance":11.4,"MatchLevel":"houseNumber","MatchQuality":{"Country":1.0,"State":1.0,"County":1.0,"City":1.0,"District":1.0,"Street":[1.0],"HouseNumber":1.0,"PostalCode":1.0},"MatchType":"interpolated","Location":{"LocationId":"NT_y78YqvUhN4xc14r7xABSQB_xMD","LocationType":"point","DisplayPosition":{"Latitude":51.53064,"Longitude":17.96988},"MapView":{"TopLeft":{"Latitude":51.5317642,"Longitude":17.968073},"BottomRight":{"Latitude":51.5295158,"Longitude":17.971687}},"Address":{"Label":"ulica Kościelna 13, 63-510 Mikstat, Polska","Country":"POL","State":"Woj. Wielkopolskie","County":"Powiat Ostrzeszowski","City":"Mikstat","District":"Mikstat","Street":"ulica Kościelna","HouseNumber":"13","PostalCode":"63-510","AdditionalData":[{"value":"Polska","key":"CountryName"},{"value":"Woj. Wielkopolskie","key":"StateName"},{"value":"Powiat Ostrzeszowski","key":"CountyName"}]},"MapReference":{"ReferenceId":"1112237836","Spot":0.55,"SideOfStreet":"right","CountryId":"20624059","StateId":"20629915","CountyId":"20631659","CityId":"20631670","DistrictId":"20696941","AddressId":"209283975","RoadLinkId":"422251234"}}},{"Relevance":1.0,"Distance":19.6,"MatchLevel":"street","MatchQuality":{"Country":1.0,"State":1.0,"County":1.0,"City":1.0,"District":1.0,"Street":[1.0],"PostalCode":1.0},"Location":{"LocationId":"NT_D8Lj1kTrR9Mk-4ZEnRd18B_l_707577815_R","LocationType":"point","DisplayPosition":{"Latitude":51.5303982,"Longitude":17.9696567},"MapView":{"TopLeft":{"Latitude":51.53051,"Longitude":17.96953},"BottomRight":{"Latitude":51.53034,"Longitude":17.96978}},"Address":{"Label":"ulica Młyńska, 63-510 Mikstat, Polska","Country":"POL","State":"Woj. Wielkopolskie","County":"Powiat Ostrzeszowski","City":"Mikstat","District":"Mikstat","Street":"ulica Młyńska","PostalCode":"63-510","AdditionalData":[{"value":"Polska","key":"CountryName"},{"value":"Woj. Wielkopolskie","key":"StateName"},{"value":"Powiat Ostrzeszowski","key":"CountyName"}]},"MapReference":{"ReferenceId":"707577815","Spot":0.45,"SideOfStreet":"right","CountryId":"20624059","StateId":"20629915","CountyId":"20631659","CityId":"20631670","DistrictId":"20696941"}}},{"Relevance":1.0,"Distance":20.9,"MatchLevel":"street","MatchQuality":{"Country":1.0,"State":1.0,"County":1.0,"City":1.0,"District":1.0,"Street":[1.0],"PostalCode":1.0},"Location":{"LocationId":"NT_VtJAnqcbHB07HOyBE5yXMC_l_1112237840_L","LocationType":"point","DisplayPosition":{"Latitude":51.53069,"Longitude":17.97},"MapView":{"TopLeft":{"Latitude":51.53095,"Longitude":17.96995},"BottomRight":{"Latitude":51.53069,"Longitude":17.97}},"Address":{"Label":"ulica Fryderyka Chopina, 63-510 Mikstat, Polska","Country":"POL","State":"Woj. Wielkopolskie","County":"Powiat Ostrzeszowski","City":"Mikstat","District":"Mikstat","Street":"ulica Fryderyka Chopina","PostalCode":"63-510","AdditionalData":[{"value":"Polska","key":"CountryName"},{"value":"Woj. Wielkopolskie","key":"StateName"},{"value":"Powiat Ostrzeszowski","key":"CountyName"}]},"MapReference":{"ReferenceId":"1112237840","Spot":0.0,"SideOfStreet":"left","CountryId":"20624059","StateId":"20629915","CountyId":"20631659","CityId":"20631670","DistrictId":"20696941"}}},{"Relevance":1.0,"Distance":29.0,"MatchLevel":"houseNumber","MatchQuality":{"Country":1.0,"State":1.0,"County":1.0,"City":1.0,"District":1.0,"Street":[1.0],"HouseNumber":1.0,"PostalCode":1.0},"MatchType":"interpolated","Location":{"LocationId":"NT_y78YqvUhN4xc14r7xABSQB_xED","LocationType":"point","DisplayPosition":{"Latitude":51.53073,"Longitude":17.9701},"MapView":{"TopLeft":{"Latitude":51.5318542,"Longitude":17.968293},"BottomRight":{"Latitude":51.5296058,"Longitude":17.971907}},"Address":{"Label":"ulica Kościelna 11, 63-510 Mikstat, Polska","Country":"POL","State":"Woj. Wielkopolskie","County":"Powiat Ostrzeszowski","City":"Mikstat","District":"Mikstat","Street":"ulica Kościelna","HouseNumber":"11","PostalCode":"63-510","AdditionalData":[{"value":"Polska","key":"CountryName"},{"value":"Woj. Wielkopolskie","key":"StateName"},{"value":"Powiat Ostrzeszowski","key":"CountyName"}]},"MapReference":{"ReferenceId":"707877253","Spot":0.1,"SideOfStreet":"right","CountryId":"20624059","StateId":"20629915","CountyId":"20631659","CityId":"20631670","DistrictId":"20696941","AddressId":"210494441","RoadLinkId":"206309706"}}},{"Relevance":1.0,"Distance":41.4,"MatchLevel":"houseNumber","MatchQuality":{"Country":1.0,"State":1.0,"County":1.0,"City":1.0,"District":1.0,"Street":[1.0],"HouseNumber":1.0,"PostalCode":1.0},"MatchType":"interpolated","Location":{"LocationId":"NT_qzwHkaKgbPx7j6SFiFaa8A_xUD","LocationType":"point","DisplayPosition":{"Latitude":51.53042,"Longitude":17.96929},"MapView":{"TopLeft":{"Latitude":51.5315442,"Longitude":17.967483},"BottomRight":{"Latitude":51.5292958,"Longitude":17.971097}},"Address":{"Label":"ulica Krakowska 15, 63-510 Mikstat, Polska","Country":"POL","State":"Woj. Wielkopolskie","County":"Powiat Ostrzeszowski","City":"Mikstat","District":"Mikstat","Street":"ulica Krakowska","HouseNumber":"15","PostalCode":"63-510","AdditionalData":[{"value":"Polska","key":"CountryName"},{"value":"Woj. Wielkopolskie","key":"StateName"},{"value":"Powiat Ostrzeszowski","key":"CountyName"}]},"MapReference":{"ReferenceId":"595380322","Spot":0.71,"SideOfStreet":"right","CountryId":"20624059","StateId":"20629915","CountyId":"20631659","CityId":"20631670","DistrictId":"20696941","AddressId":"211487145","RoadLinkId":"113130285"}}},{"Relevance":1.0,"Distance":62.9,"MatchLevel":"houseNumber","MatchQuality":{"Country":1.0,"State":1.0,"County":1.0,"City":1.0,"District":1.0,"Street":[1.0],"HouseNumber":1.0,"PostalCode":1.0},"MatchType":"interpolated","Location":{"LocationId":"NT_D8Lj1kTrR9Mk-4ZEnRd18B_xA","LocationType":"point","DisplayPosition":{"Latitude":51.52999,"Longitude":17.96989},"MapView":{"TopLeft":{"Latitude":51.5311142,"Longitude":17.968083},"BottomRight":{"Latitude":51.5288658,"Longitude":17.971697}},"Address":{"Label":"ulica Młyńska 1, 63-510 Mikstat, Polska","Country":"POL","State":"Woj. Wielkopolskie","County":"Powiat Ostrzeszowski","City":"Mikstat","District":"Mikstat","Street":"ulica Młyńska","HouseNumber":"1","PostalCode":"63-510","AdditionalData":[{"value":"Polska","key":"CountryName"},{"value":"Woj. Wielkopolskie","key":"StateName"},{"value":"Powiat Ostrzeszowski","key":"CountyName"}]},"MapReference":{"ReferenceId":"707577814","Spot":0.78,"SideOfStreet":"right","CountryId":"20624059","StateId":"20629915","CountyId":"20631659","CityId":"20631670","DistrictId":"20696941","AddressId":"222026352","RoadLinkId":"113130283"}}},{"Relevance":1.0,"Distance":66.4,"MatchLevel":"houseNumber","MatchQuality":{"Country":1.0,"State":1.0,"County":1.0,"City":1.0,"District":1.0,"Street":[1.0],"HouseNumber":1.0,"PostalCode":1.0},"MatchType":"interpolated","Location":{"LocationId":"NT_VtJAnqcbHB07HOyBE5yXMC_4A","LocationType":"point","DisplayPosition":{"Latitude":51.53127,"Longitude":17.96989},"MapView":{"TopLeft":{"Latitude":51.5323942,"Longitude":17.9680829},"BottomRight":{"Latitude":51.5301458,"Longitude":17.9716971}},"Address":{"Label":"ulica Fryderyka Chopina 8, 63-510 Mikstat, Polska","Country":"POL","State":"Woj. Wielkopolskie","County":"Powiat Ostrzeszowski","City":"Mikstat","District":"Mikstat","Street":"ulica Fryderyka Chopina","HouseNumber":"8","PostalCode":"63-510","AdditionalData":[{"value":"Polska","key":"CountryName"},{"value":"Woj. Wielkopolskie","key":"StateName"},{"value":"Powiat Ostrzeszowski","key":"CountyName"}]},"MapReference":{"ReferenceId":"1112237839","Spot":0.0,"SideOfStreet":"left","CountryId":"20624059","StateId":"20629915","CountyId":"20631659","CityId":"20631670","DistrictId":"20696941","AddressId":"211383948","RoadLinkId":"422251239"}}},{"Relevance":1.0,"Distance":77.5,"MatchLevel":"houseNumber","MatchQuality":{"Country":1.0,"State":1.0,"County":1.0,"City":1.0,"District":1.0,"Street":[1.0],"HouseNumber":1.0,"PostalCode":1.0},"MatchType":"interpolated","Location":{"LocationId":"NT_VtJAnqcbHB07HOyBE5yXMC_2A","LocationType":"point","DisplayPosition":{"Latitude":51.53125,"Longitude":17.96989},"MapView":{"TopLeft":{"Latitude":51.5323742,"Longitude":17.9680829},"BottomRight":{"Latitude":51.5301258,"Longitude":17.9716971}},"Address":{"Label":"ulica Fryderyka Chopina 6, 63-510 Mikstat, Polska","Country":"POL","State":"Woj. Wielkopolskie","County":"Powiat Ostrzeszowski","City":"Mikstat","District":"Mikstat","Street":"ulica Fryderyka Chopina","HouseNumber":"6","PostalCode":"63-510","AdditionalData":[{"value":"Polska","key":"CountryName"},{"value":"Woj. Wielkopolskie","key":"StateName"},{"value":"Powiat Ostrzeszowski","key":"CountyName"}]},"MapReference":{"ReferenceId":"1112237841","Spot":0.94,"SideOfStreet":"left","CountryId":"20624059","StateId":"20629915","CountyId":"20631659","CityId":"20631670","DistrictId":"20696941","AddressId":"211045036","RoadLinkId":"422251244"}}}]}]}}