{"Response":{"MetaInfo":{"Timestamp":"2020-03-28T10:49:36.919+0000","NextPageInformation":"2"},"View":[{"_type":"SearchResultsViewType","ViewId":0,"Result":[{"Relevance":1.0,"Distance":0.0,"Direction":0.0,"MatchLevel":"district","MatchQuality":{"Country":1.0,"State":1.0,"County":1.0,"City":1.0,"District":1.0,"PostalCode":1.0},"Location":{"LocationId":"NT_4-2VjhE1NC4SWDFmKjmExB","LocationType":"point","DisplayPosition":{"Latitude":51.5567312,"Longitude":22.1354317},"MapView":{"TopLeft":{"Latitude":51.56122,"Longitude":22.11613},"BottomRight":{"Latitude":51.55483,"Longitude":22.15239}},"Address":{"Label":"Baranów, Woj. Lubelskie, Polska","Country":"POL","State":"Woj. Lubelskie","County":"Powiat Puławski","City":"Baranów","District":"Baranów","PostalCode":"24-105","AdditionalData":[{"value":"Polska","key":"CountryName"},{"value":"Woj. Lubelskie","key":"StateName"},{"value":"Powiat Puławski","key":"CountyName"}]},"MapReference":{"ReferenceId":"1082777927","SideOfStreet":"neither","CountryId":"20624059","StateId":"20626116","CountyId":"20626431","CityId":"20626432","DistrictId":"20684631"}}},{"Relevance":1.0,"Distance":13.7,"MatchLevel":"street","MatchQuality":{"Country":1.0,"State":1.0,"County":1.0,"City":1.0,"District":1.0,"Street":[1.0],"PostalCode":1.0},"Location":{"LocationId":"NT_crANHntu7sMMWrXX1-ypJD_l_763559674_R","LocationType":"point","DisplayPosition":{"Latitude":51.55667,"Longitude":22.13526},"MapView":{"TopLeft":{"Latitude":51.55667,"Longitude":22.13526},"BottomRight":{"Latitude":51.55558,"Longitude":22.13539}},"Address":{"Label":"ulica Weselna, 24-105 Baranów, Polska","Country":"POL","State":"Woj. Lubelskie","County":"Powiat Puławski","City":"Baranów","District":"Baranów","Street":"ulica Weselna","PostalCode":"24-105","AdditionalData":[{"value":"Polska","key":"CountryName"},{"value":"Woj. Lubelskie","key":"StateName"},{"value":"Powiat Puławski","key":"CountyName"}]},"MapReference":{"ReferenceId":"763559674","Spot":1.0,"SideOfStreet":"right","CountryId":"20624059","StateId":"20626116","CountyId":"20626431","CityId":"20626432","DistrictId":"20684631"}}},{"Relevance":1.0,"Distance":15.2,"MatchLevel":"houseNumber","MatchQuality":{"Country":1.0,"State":1.0,"County":1.0,"City":1.0,"District":1.0,"Street":[1.0],"HouseNumber":1.0,"PostalCode":1.0},"MatchType":"interpolated","Location":{"LocationId":"NT_fef02J8WyDEIsoVGOy6C3C_yYD","LocationType":"point","DisplayPosition":{"Latitude":51.55662,"Longitude":22.13556},"MapView":{"TopLeft":{"Latitude":51.5577442,"Longitude":22.1337519},"BottomRight":{"Latitude":51.5554958,"Longitude":22.1373681}},"Address":{"Label":"ulica Długa 26, 24-105 Baranów, Polska","Country":"POL","State":"Woj. Lubelskie","County":"Powiat Puławski","City":"Baranów","District":"Baranów","Street":"ulica Długa","HouseNumber":"26","PostalCode":"24-105","AdditionalData":[{"value":"Polska","key":"CountryName"},{"value":"Woj. Lubelskie","key":"StateName"},{"value":"Powiat Puławski","key":"CountyName"}]},"MapReference":{"ReferenceId":"716786327","Spot":0.93,"SideOfStreet":"right","CountryId":"20624059","StateId":"20626116","CountyId":"20626431","CityId":"20626432","DistrictId":"20684631","AddressId":"266650452","RoadLinkId":"121770872"}}},{"Relevance":1.0,"Distance":23.6,"MatchLevel":"houseNumber","MatchQuality":{"Country":1.0,"State":1.0,"County":1.0,"City":1.0,"District":1.0,"Street":[1.0],"HouseNumber":1.0,"PostalCode":1.0},"MatchType":"interpolated","Location":{"LocationId":"NT_h1-GLTs5pwxBSviMvhZmOD_0A","LocationType":"point","DisplayPosition":{"Latitude":51.55691,"Longitude":22.13522},"MapView":{"TopLeft":{"Latitude":51.5580342,"Longitude":22.1334119},"BottomRight":{"Latitude":51.5557858,"Longitude":22.1370281}},"Address":{"Label":"ulica Buźniczna 4, 24-105 Baranów, Polska","Country":"POL","State":"Woj. Lubelskie","County":"Powiat Puławski","City":"Baranów","District":"Baranów","Street":"ulica Buźniczna","HouseNumber":"4","PostalCode":"24-105","AdditionalData":[{"value":"Polska","key":"CountryName"},{"value":"Woj. Lubelskie","key":"StateName"},{"value":"Powiat Puławski","key":"CountyName"}]},"MapReference":{"ReferenceId":"716786328","Spot":0.26,"SideOfStreet":"right","CountryId":"20624059","StateId":"20626116","CountyId":"20626431","CityId":"20626432","DistrictId":"20684631","AddressId":"267001254","RoadLinkId":"121770873"}}},{"Relevance":1.0,"Distance":43.0,"MatchLevel":"houseNumber","MatchQuality":{"Country":1.0,"State":1.0,"County":1.0,"City":1.0,"District":1.0,"Street":[1.0],"HouseNumber":1.0,"PostalCode":1.0},"MatchType":"interpolated","Location":{"LocationId":"NT_fef02J8WyDEIsoVGOy6C3C_ygD","LocationType":"point","DisplayPosition":{"Latitude":51.55667,"Longitude":22.13481},"MapView":{"TopLeft":{"Latitude":51.5577942,"Longitude":22.1330019},"BottomRight":{"Latitude":51.5555458,"Longitude":22.1366181}},"Address":{"Label":"ulica Długa 28, 24-105 Baranów, Polska","Country":"POL","State":"Woj. Lubelskie","County":"Powiat Puławski","City":"Baranów","District":"Baranów","Street":"ulica Długa","HouseNumber":"28","PostalCode":"24-105","AdditionalData":[{"value":"Polska","key":"CountryName"},{"value":"Woj. Lubelskie","key":"StateName"},{"value":"Powiat Puławski","key":"CountyName"}]},"MapReference":{"ReferenceId":"763559636","Spot":0.9,"SideOfStreet":"left","CountryId":"20624059","StateId":"20626116","CountyId":"20626431","CityId":"20626432","DistrictId":"20684631","AddressId":"267581947","RoadLinkId":"157849204"}}},{"Relevance":1.0,"Distance":69.2,"MatchLevel":"houseNumber","MatchQuality":{"Country":1.0,"State":1.0,"County":1.0,"City":1.0,"District":1.0,"Street":[1.0],"HouseNumber":1.0,"PostalCode":1.0},"MatchType":"interpolated","Location":{"LocationId":"NT_L4SAYuQ9YxnabQa0vADOPA_yAD","LocationType":"point","DisplayPosition":{"Latitude":51.55556,"Longitude":22.13494},"MapView":{"TopLeft":{"Latitude":51.5566842,"Longitude":22.133132},"BottomRight":{"Latitude":51.5544358,"Longitude":22.136748}},"Address":{"Label":"ulica Południowa 20, 24-105 Baranów, Polska","Country":"POL","State":"Woj. Lubelskie","County":"Powiat Puławski","City":"Baranów","District":"Baranów","Street":"ulica Południowa","HouseNumber":"20","PostalCode":"24-105","AdditionalData":[{"value":"Polska","key":"CountryName"},{"value":"Woj. Lubelskie","key":"StateName"},{"value":"Powiat Puławski","key":"CountyName"}]},"MapReference":{"ReferenceId":"763559672","Spot":0.58,"SideOfStreet":"left","CountryId":"20624059","StateId":"20626116","CountyId":"20626431","CityId":"20626432","DistrictId":"20684631","AddressId":"267553315","RoadLinkId":"157849238"}}},{"Relevance":1.0,"Distance":74.3,"MatchLevel":"houseNumber","MatchQuality":{"Country":1.0,"State":1.0,"County":1.0,"City":1.0,"District":1.0,"Street":[1.0],"HouseNumber":1.0,"PostalCode":1.0},"MatchType":"interpolated","Location":{"LocationId":"NT_QUoNEmFThPC6rPM47PKX4D_xID","LocationType":"point","DisplayPosition":{"Latitude":51.5576,"Longitude":22.13557},"MapView":{"TopLeft":{"Latitude":51.5587242,"Longitude":22.1337619},"BottomRight":{"Latitude":51.5564758,"Longitude":22.1373781}},"Address":{"Label":"ulica Rynek 12, 24-105 Baranów, Polska","Country":"POL","State":"Woj. Lubelskie","County":"Powiat Puławski","City":"Baranów","District":"Baranów","Street":"ulica Rynek","HouseNumber":"12","PostalCode":"24-105","AdditionalData":[{"value":"Polska","key":"CountryName"},{"value":"Woj. Lubelskie","key":"StateName"},{"value":"Powiat Puławski","key":"CountyName"}]},"MapReference":{"ReferenceId":"1082777926","Spot":0.18,"SideOfStreet":"right","CountryId":"20624059","StateId":"20626116","CountyId":"20626431","CityId":"20626432","DistrictId":"20684631","AddressId":"267735172","RoadLinkId":"399396189"}}},{"Relevance":1.0,"Distance":96.3,"MatchLevel":"street","MatchQuality":{"Country":1.0,"State":1.0,"County":1.0,"City":1.0,"District":1.0,"Street":[1.0],"PostalCode":1.0},"Location":{"LocationId":"NT_QUoNEmFThPC6rPM47PKX4D_l_1082777925_R","LocationType":"point","DisplayPosition":{"Latitude":51.5575971,"Longitude":22.1353808},"MapView":{"TopLeft":{"Latitude":51.5576,"Longitude":22.13509},"BottomRight":{"Latitude":51.55758,"Longitude":22.13543}},"Address":{"Label":"ulica Rynek, 24-105 Baranów, Polska","Country":"POL","State":"Woj. Lubelskie","County":"Powiat Puławski","City":"Baranów","District":"Baranów","Street":"ulica Rynek","PostalCode":"24-105","AdditionalData":[{"value":"Polska","key":"CountryName"},{"value":"Woj. Lubelskie","key":"StateName"},{"value":"Powiat Puławski","key":"CountyName"}]},"MapReference":{"ReferenceId":"1082777925","Spot":0.86,"SideOfStreet":"right","CountryId":"20624059","StateId":"20626116","CountyId":"20626431","CityId":"20626432","DistrictId":"20684631"}}},{"Relevance":1.0,"Distance":97.3,"MatchLevel":"street","MatchQuality":{"Country":1.0,"State":1.0,"County":1.0,"City":1.0,"District":1.0,"Street":[1.0],"PostalCode":1.0},"Location":{"LocationId":"NT_QUoNEmFThPC6rPM47PKX4D_l_1082777921_R","LocationType":"point","DisplayPosition":{"Latitude":51.55758,"Longitude":22.13509},"MapView":{"TopLeft":{"Latitude":51.55772,"Longitude":22.13509},"BottomRight":{"Latitude":51.55758,"Longitude":22.13513}},"Address":{"Label":"ulica Rynek, 24-105 Baranów, Polska","Country":"POL","State":"Woj. Lubelskie","County":"Powiat Puławski","City":"Baranów","District":"Baranów","Street":"ulica Rynek","PostalCode":"24-105","AdditionalData":[{"value":"Polska","key":"CountryName"},{"value":"Woj. Lubelskie","key":"StateName"},{"value":"Powiat Puławski","key":"CountyName"}]},"MapReference":{"ReferenceId":"1082777921","Spot":0.0,"SideOfStreet":"right","CountryId":"20624059","StateId":"20626116","CountyId":"20626431","CityId":"20626432","DistrictId":"20684631"}}},{"Relevance":1.0,"Distance":97.3,"MatchLevel":"street","MatchQuality":{"Country":1.0,"State":1.0,"County":1.0,"City":1.0,"District":1.0,"Street":[1.0],"PostalCode":1.0},"Location":{"LocationId":"NT_Sg44b0vNVdHSrcjO2JJIgC_l_1082777924_R","LocationType":"point","DisplayPosition":{"Latitude":51.55758,"Longitude":22.13509},"MapView":{"TopLeft":{"Latitude":51.55758,"Longitude":22.13484},"BottomRight":{"Latitude":51.55757,"Longitude":22.13509}},"Address":{"Label":"ulica Puławska, 24-105 Baranów, Polska","Country":"POL","State":"Woj. Lubelskie","County":"Powiat Puławski","City":"Baranów","District":"Baranów","Street":"ulica Puławska","PostalCode":"24-105","AdditionalData":[{"value":"Polska","key":"CountryName"},{"value":"Woj. Lubelskie","key":"StateName"},{"value":"Powiat Puławski","key":"CountyName"}]},"MapReference":{"ReferenceId":"1082777924","Spot":1.0,"SideOfStreet":"right","CountryId":"20624059","StateId":"20626116","CountyId":"20626431","CityId":"20626432","DistrictId":"20684631"}}}]}]}}