{"Response":{"MetaInfo":{"Timestamp":"2020-03-28T09:51:08.521+0000","NextPageInformation":"2"},"View":[{"_type":"SearchResultsViewType","ViewId":0,"Result":[{"Relevance":1.0,"Distance":0.0,"Direction":0.0,"MatchLevel":"district","MatchQuality":{"Country":1.0,"State":1.0,"County":1.0,"City":1.0,"District":1.0,"PostalCode":1.0},"Location":{"LocationId":"NT_KQG5dEweo-wyZxZd3r6Y8A","LocationType":"point","DisplayPosition":{"Latitude":51.5222973,"Longitude":-1.1350322},"MapView":{"TopLeft":{"Latitude":51.5349,"Longitude":-1.1424},"BottomRight":{"Latitude":51.51466,"Longitude":-1.11479}},"Address":{"Label":"Goring, Reading, England, United Kingdom","Country":"GBR","State":"England","County":"Berkshire","City":"Reading","District":"Goring","PostalCode":"RG8 9","AdditionalData":[{"value":"United Kingdom","key":"CountryName"},{"value":"England","key":"StateName"},{"value":"Berkshire","key":"CountyName"}]},"MapReference":{"ReferenceId":"762502963","SideOfStreet":"neither","StateId":"20248595","CountyId":"20334448","CityId":"20334562","DistrictId":"20334594"}}},{"Relevance":1.0,"Distance":15.0,"MatchLevel":"street","MatchQuality":{"Country":1.0,"State":1.0,"County":1.0,"City":1.0,"District":1.0,"PostalCode":1.0},"Location":{"LocationId":"NT_nixQRkZADX9r6RM5zvZziD_l_25814177_R","LocationType":"point","DisplayPosition":{"Latitude":51.52223,"Longitude":-1.13522},"MapView":{"TopLeft":{"Latitude":51.52287,"Longitude":-1.13548},"BottomRight":{"Latitude":51.52223,"Longitude":-1.13522}},"Address":{"Label":"Reading, RG8 9, United Kingdom","Country":"GBR","State":"England","County":"Berkshire","City":"Reading","District":"Goring","PostalCode":"RG8 9","AdditionalData":[{"value":"United Kingdom","key":"CountryName"},{"value":"England","key":"StateName"},{"value":"Berkshire","key":"CountyName"}]},"MapReference":{"ReferenceId":"25814177","Spot":0.0,"SideOfStreet":"right","StateId":"20248595","CountyId":"20334448","CityId":"20334562","DistrictId":"20334594"}}},{"Relevance":1.0,"Distance":33.0,"MatchLevel":"postalCode","MatchQuality":{"PostalCode":1.0},"Location":{"LocationId":"NT_mGi6NZy9sHcWCkHFzHxdRD_l_762502962_R","LocationType":"point","DisplayPosition":{"Latitude":51.5225,"Longitude":-1.13538},"MapView":{"TopLeft":{"Latitude":51.5314932,"Longitude":-1.1498337},"BottomRight":{"Latitude":51.5135068,"Longitude":-1.1209263}},"Address":{"Label":"RG8 9BA, Reading, England, United Kingdom","Country":"GBR","State":"England","County":"Berkshire","City":"Reading","PostalCode":"RG8 9BA","AdditionalData":[{"value":"United Kingdom","key":"CountryName"},{"value":"England","key":"StateName"},{"value":"Berkshire","key":"CountyName"}]},"MapReference":{"ReferenceId":"762502962","Spot":0.86,"SideOfStreet":"neither","StateId":"20248595","CountyId":"20334448","CityId":"20334562"}}},{"Relevance":1.0,"Distance":43.7,"MatchLevel":"street","MatchQuality":{"Country":1.0,"State":1.0,"County":1.0,"City":1.0,"District":1.0,"Street":[1.0],"PostalCode":1.0},"Location":{"LocationId":"NT_irtV7s0XLegFIuXcxEFwrA_l_25814092_L","LocationType":"point","DisplayPosition":{"Latitude":51.5226,"Longitude":-1.13463},"MapView":{"TopLeft":{"Latitude":51.52286,"Longitude":-1.13476},"BottomRight":{"Latitude":51.5226,"Longitude":-1.13419}},"Address":{"Label":"Walnut Tree Court, Reading, RG8 9, United Kingdom","Country":"GBR","State":"England","County":"Berkshire","City":"Reading","District":"Goring","Street":"Walnut Tree Court","PostalCode":"RG8 9","AdditionalData":[{"value":"United Kingdom","key":"CountryName"},{"value":"England","key":"StateName"},{"value":"Berkshire","key":"CountyName"}]},"MapReference":{"ReferenceId":"25814092","Spot":0.6,"SideOfStreet":"left","StateId":"20248595","CountyId":"20334448","CityId":"20334562","DistrictId":"20334594"}}},{"Relevance":1.0,"Distance":47.1,"MatchLevel":"houseNumber","MatchQuality":{"Country":1.0,"State":1.0,"County":1.0,"City":1.0,"District":1.0,"Street":[1.0],"HouseNumber":1.0,"PostalCode":1.0},"MatchType":"interpolated","Location":{"LocationId":"NT_K4JT0D8UgTPy7ZlxDE1X1B_l_25814314_L_yA","LocationType":"point","DisplayPosition":{"Latitude":51.5217404,"Longitude":-1.1350529},"MapView":{"TopLeft":{"Latitude":51.5228646,"Longitude":-1.1368596},"BottomRight":{"Latitude":51.5206163,"Longitude":-1.1332462}},"Address":{"Label":"2 Station Road, Reading, RG8 9HB, United Kingdom","Country":"GBR","State":"England","County":"Berkshire","City":"Reading","District":"Goring","Street":"Station Road","HouseNumber":"2","PostalCode":"RG8 9HB","AdditionalData":[{"value":"United Kingdom","key":"CountryName"},{"value":"England","key":"StateName"},{"value":"Berkshire","key":"CountyName"}]},"MapReference":{"ReferenceId":"25814314","Spot":0.5,"SideOfStreet":"left","StateId":"20248595","CountyId":"20334448","CityId":"20334562","DistrictId":"20334594"}}},{"Relevance":1.0,"Distance":56.5,"MatchLevel":"postalCode","MatchQuality":{"PostalCode":1.0},"MatchType":"interpolated","Location":{"LocationId":"NT_K4JT0D8UgTPy7ZlxDE1X1B_l_25814314_L_yA","LocationType":"point","DisplayPosition":{"Latitude":51.52179,"Longitude":-1.13508},"MapView":{"TopLeft":{"Latitude":51.5307832,"Longitude":-1.1495335},"BottomRight":{"Latitude":51.5127968,"Longitude":-1.1206265}},"Address":{"Label":"RG8 9HD, Reading, England, United Kingdom","Country":"GBR","State":"England","County":"Berkshire","City":"Reading","PostalCode":"RG8 9HD","AdditionalData":[{"value":"United Kingdom","key":"CountryName"},{"value":"England","key":"StateName"},{"value":"Berkshire","key":"CountyName"}]},"MapReference":{"ReferenceId":"25814314","Spot":0.5,"SideOfStreet":"neither","StateId":"20248595","CountyId":"20334448","CityId":"20334562"}}},{"Relevance":1.0,"Distance":58.8,"MatchLevel":"postalCode","MatchQuality":{"PostalCode":1.0},"MatchType":"interpolated","Location":{"LocationId":"NT_O0Pcr0U.BnRt7kf4K5zDvB_l_25814230_R_xAD","LocationType":"point","DisplayPosition":{"Latitude":51.52237,"Longitude":-1.13419},"MapView":{"TopLeft":{"Latitude":51.5313632,"Longitude":-1.1486437},"BottomRight":{"Latitude":51.5133768,"Longitude":-1.1197363}},"Address":{"Label":"RG8 9HG, Reading, England, United Kingdom","Country":"GBR","State":"England","County":"Berkshire","City":"Reading","PostalCode":"RG8 9HG","AdditionalData":[{"value":"United Kingdom","key":"CountryName"},{"value":"England","key":"StateName"},{"value":"Berkshire","key":"CountyName"}]},"MapReference":{"ReferenceId":"25814230","Spot":0.62,"SideOfStreet":"neither","StateId":"20248595","CountyId":"20334448","CityId":"20334562"}}},{"Relevance":1.0,"Distance":62.1,"MatchLevel":"houseNumber","MatchQuality":{"Country":1.0,"State":1.0,"County":1.0,"City":1.0,"District":1.0,"Street":[1.0],"HouseNumber":1.0,"PostalCode":1.0},"MatchType":"interpolated","Location":{"LocationId":"NT_O0Pcr0U.BnRt7kf4K5zDvB_l_25814230_R_xAD","LocationType":"point","DisplayPosition":{"Latitude":51.52237,"Longitude":-1.1341429},"MapView":{"TopLeft":{"Latitude":51.5234942,"Longitude":-1.1359496},"BottomRight":{"Latitude":51.5212459,"Longitude":-1.1323361}},"Address":{"Label":"10 Red Cross Road, Reading, RG8 9, United Kingdom","Country":"GBR","State":"England","County":"Berkshire","City":"Reading","District":"Goring","Street":"Red Cross Road","HouseNumber":"10","PostalCode":"RG8 9","AdditionalData":[{"value":"United Kingdom","key":"CountryName"},{"value":"England","key":"StateName"},{"value":"Berkshire","key":"CountyName"}]},"MapReference":{"ReferenceId":"25814230","Spot":0.62,"SideOfStreet":"right","StateId":"20248595","CountyId":"20334448","CityId":"20334562","DistrictId":"20334594"}}},{"Relevance":1.0,"Distance":68.5,"MatchLevel":"postalCode","MatchQuality":{"PostalCode":1.0},"Location":{"LocationId":"NT_irtV7s0XLegFIuXcxEFwrA_l_25814092_L","LocationType":"point","DisplayPosition":{"Latitude":51.52288,"Longitude":-1.13471},"MapView":{"TopLeft":{"Latitude":51.5318732,"Longitude":-1.1491639},"BottomRight":{"Latitude":51.5138868,"Longitude":-1.1202561}},"Address":{"Label":"RG8 9HW, Reading, England, United Kingdom","Country":"GBR","State":"England","County":"Berkshire","City":"Reading","PostalCode":"RG8 9HW","AdditionalData":[{"value":"United Kingdom","key":"CountryName"},{"value":"England","key":"StateName"},{"value":"Berkshire","key":"CountyName"}]},"MapReference":{"ReferenceId":"25814092","Spot":0.6,"SideOfStreet":"neither","StateId":"20248595","CountyId":"20334448","CityId":"20334562"}}},{"Relevance":1.0,"Distance":70.8,"MatchLevel":"street","MatchQuality":{"Country":1.0,"State":1.0,"County":1.0,"City":1.0,"District":1.0,"Street":[1.0],"PostalCode":1.0},"Location":{"LocationId":"NT_mGi6NZy9sHcWCkHFzHxdRD_l_25814061_R","LocationType":"point","DisplayPosition":{"Latitude":51.52287,"Longitude":-1.13548},"MapView":{"TopLeft":{"Latitude":51.52287,"Longitude":-1.13602},"BottomRight":{"Latitude":51.52274,"Longitude":-1.13548}},"Address":{"Label":"High Street, Reading, RG8 9, United Kingdom","Country":"GBR","State":"England","County":"Berkshire","City":"Reading","District":"Goring","Street":"High Street","PostalCode":"RG8 9","AdditionalData":[{"value":"United Kingdom","key":"CountryName"},{"value":"England","key":"StateName"},{"value":"Berkshire","key":"CountyName"}]},"MapReference":{"ReferenceId":"25814061","Spot":1.0,"SideOfStreet":"right","StateId":"20248595","CountyId":"20334448","CityId":"20334562","DistrictId":"20334594"}}}]}]}}