{"Response":{"MetaInfo":{"Timestamp":"2020-03-28T10:37:21.262+0000","NextPageInformation":"2"},"View":[{"_type":"SearchResultsViewType","ViewId":0,"Result":[{"Relevance":1.0,"Distance":0.0,"Direction":0.0,"MatchLevel":"district","MatchQuality":{"Country":1.0,"State":1.0,"County":1.0,"City":1.0,"District":1.0,"PostalCode":1.0},"Location":{"LocationId":"NT_OEnsIr5smVQbb4PeYuJTiA","LocationType":"point","DisplayPosition":{"Latitude":51.516401,"Longitude":-0.1912174},"MapView":{"TopLeft":{"Latitude":51.52483,"Longitude":-0.20052},"BottomRight":{"Latitude":51.51373,"Longitude":-0.1673}},"Address":{"Label":"Paddington, London, England, United Kingdom","Country":"GBR","State":"England","County":"London","City":"London","District":"Paddington","PostalCode":"W2 6","AdditionalData":[{"value":"United Kingdom","key":"CountryName"},{"value":"England","key":"StateName"},{"value":"London","key":"CountyName"}]},"MapReference":{"ReferenceId":"25305739","SideOfStreet":"neither","StateId":"20248595","CountyId":"20337453","CityId":"20337454"}}},{"Relevance":1.0,"Distance":8.3,"MatchLevel":"houseNumber","MatchQuality":{"Country":1.0,"State":1.0,"County":1.0,"City":1.0,"District":1.0,"Street":[1.0],"HouseNumber":1.0,"PostalCode":1.0},"MatchType":"interpolated","Location":{"LocationId":"NT_fFiv6RnRRhvyKSXrMS7LYC_xQD","LocationType":"point","DisplayPosition":{"Latitude":51.51634,"Longitude":-0.19086},"MapView":{"TopLeft":{"Latitude":51.5174642,"Longitude":-0.1926665},"BottomRight":{"Latitude":51.5152158,"Longitude":-0.1890535}},"Address":{"Label":"14 Newton Road, London, W2 5LT, United Kingdom","Country":"GBR","State":"England","County":"London","City":"London","District":"Paddington","Street":"Newton Road","HouseNumber":"14","PostalCode":"W2 5LT","AdditionalData":[{"value":"United Kingdom","key":"CountryName"},{"value":"England","key":"StateName"},{"value":"London","key":"CountyName"}]},"MapReference":{"ReferenceId":"25305364","Spot":1.0,"SideOfStreet":"left","StateId":"20248595","CountyId":"20337453","CityId":"20337454","AddressId":"748424704","RoadLinkId":"82606854"}}},{"Relevance":1.0,"Distance":11.6,"MatchLevel":"houseNumber","MatchQuality":{"Country":1.0,"State":1.0,"County":1.0,"City":1.0,"District":1.0,"Street":[1.0],"HouseNumber":1.0,"PostalCode":1.0},"MatchType":"interpolated","Location":{"LocationId":"NT_fFiv6RnRRhvyKSXrMS7LYC_yAD","LocationType":"point","DisplayPosition":{"Latitude":51.51618,"Longitude":-0.19128},"MapView":{"TopLeft":{"Latitude":51.5173042,"Longitude":-0.1930865},"BottomRight":{"Latitude":51.5150558,"Longitude":-0.1894735}},"Address":{"Label":"20 Newton Road, London, W2 5LT, United Kingdom","Country":"GBR","State":"England","County":"London","City":"London","District":"Paddington","Street":"Newton Road","HouseNumber":"20","PostalCode":"W2 5LT","AdditionalData":[{"value":"United Kingdom","key":"CountryName"},{"value":"England","key":"StateName"},{"value":"London","key":"CountyName"}]},"MapReference":{"ReferenceId":"724997628","Spot":0.83,"SideOfStreet":"left","StateId":"20248595","CountyId":"20337453","CityId":"20337454","AddressId":"748277193","RoadLinkId":"128114389"}}},{"Relevance":1.0,"Distance":35.5,"MatchLevel":"houseNumber","MatchQuality":{"Country":1.0,"State":1.0,"County":1.0,"City":1.0,"District":1.0,"Street":[1.0],"HouseNumber":1.0,"PostalCode":1.0},"MatchType":"interpolated","Location":{"LocationId":"NT_84YMfwEX60xGZHgPo7OrYA_yQD","LocationType":"point","DisplayPosition":{"Latitude":51.51684,"Longitude":-0.1913},"MapView":{"TopLeft":{"Latitude":51.5179642,"Longitude":-0.1931065},"BottomRight":{"Latitude":51.5157158,"Longitude":-0.1894935}},"Address":{"Label":"24 Sunderland Terrace, London, W2 5PA, United Kingdom","Country":"GBR","State":"England","County":"London","City":"London","District":"Paddington","Street":"Sunderland Terrace","HouseNumber":"24","PostalCode":"W2 5PA","AdditionalData":[{"value":"United Kingdom","key":"CountryName"},{"value":"England","key":"StateName"},{"value":"London","key":"CountyName"}]},"MapReference":{"ReferenceId":"25305222","Spot":0.82,"SideOfStreet":"right","StateId":"20248595","CountyId":"20337453","CityId":"20337454","AddressId":"748222342","RoadLinkId":"82792911"}}},{"Relevance":1.0,"Distance":38.6,"MatchLevel":"houseNumber","MatchQuality":{"Country":1.0,"State":1.0,"County":1.0,"City":1.0,"District":1.0,"Street":[1.0],"HouseNumber":1.0,"PostalCode":1.0},"MatchType":"interpolated","Location":{"LocationId":"NT_YEwSbPwLtkMl8LMbk2UbfB_xQD","LocationType":"point","DisplayPosition":{"Latitude":51.51641,"Longitude":-0.19046},"MapView":{"TopLeft":{"Latitude":51.5175342,"Longitude":-0.1922665},"BottomRight":{"Latitude":51.5152858,"Longitude":-0.1886535}},"Address":{"Label":"14 Westbourne Grove Terrace, London, W2 5SD, United Kingdom","Country":"GBR","State":"England","County":"London","City":"London","District":"Paddington","Street":"Westbourne Grove Terrace","HouseNumber":"14","PostalCode":"W2 5SD","AdditionalData":[{"value":"United Kingdom","key":"CountryName"},{"value":"England","key":"StateName"},{"value":"London","key":"CountyName"}]},"MapReference":{"ReferenceId":"25305561","Spot":1.0,"SideOfStreet":"left","StateId":"20248595","CountyId":"20337453","CityId":"20337454","AddressId":"747858576","RoadLinkId":"82415168"}}},{"Relevance":1.0,"Distance":40.7,"MatchLevel":"houseNumber","MatchQuality":{"Country":1.0,"State":1.0,"County":1.0,"City":1.0,"District":1.0,"Street":[1.0],"HouseNumber":1.0,"PostalCode":1.0},"MatchType":"interpolated","Location":{"LocationId":"NT_fFiv6RnRRhvyKSXrMS7LYC_xUD","LocationType":"point","DisplayPosition":{"Latitude":51.51607,"Longitude":-0.19091},"MapView":{"TopLeft":{"Latitude":51.5171942,"Longitude":-0.1927165},"BottomRight":{"Latitude":51.5149458,"Longitude":-0.1891035}},"Address":{"Label":"15 Newton Road, London, W2 5JP, United Kingdom","Country":"GBR","State":"England","County":"London","City":"London","District":"Paddington","Street":"Newton Road","HouseNumber":"15","PostalCode":"W2 5JP","AdditionalData":[{"value":"United Kingdom","key":"CountryName"},{"value":"England","key":"StateName"},{"value":"London","key":"CountyName"}]},"MapReference":{"ReferenceId":"25305603","Spot":0.78,"SideOfStreet":"left","StateId":"20248595","CountyId":"20337453","CityId":"20337454","AddressId":"747692807","RoadLinkId":"82861583"}}},{"Relevance":1.0,"Distance":43.5,"MatchLevel":"houseNumber","MatchQuality":{"Country":1.0,"State":1.0,"County":1.0,"City":1.0,"District":1.0,"Street":[1.0],"HouseNumber":1.0,"PostalCode":1.0},"MatchType":"interpolated","Location":{"LocationId":"NT_2p1Mnt1zelv1sIPgbGT-FD_0kD","LocationType":"point","DisplayPosition":{"Latitude":51.51688,"Longitude":-0.19107},"MapView":{"TopLeft":{"Latitude":51.5180042,"Longitude":-0.1928765},"BottomRight":{"Latitude":51.5157558,"Longitude":-0.1892635}},"Address":{"Label":"49 Sunderland Terrace, London, W2 5, United Kingdom","Country":"GBR","State":"England","County":"London","City":"London","District":"Paddington","Street":"Sunderland Terrace","HouseNumber":"49","PostalCode":"W2 5","AdditionalData":[{"value":"United Kingdom","key":"CountryName"},{"value":"England","key":"StateName"},{"value":"London","key":"CountyName"}]},"MapReference":{"ReferenceId":"25397766","Spot":0.0,"SideOfStreet":"right","StateId":"20248595","CountyId":"20337453","CityId":"20337454","AddressId":"747652540","RoadLinkId":"82503097"}}},{"Relevance":1.0,"Distance":47.3,"MatchLevel":"postalCode","MatchQuality":{"PostalCode":1.0},"MatchType":"interpolated","Location":{"LocationId":"NT_fFiv6RnRRhvyKSXrMS7LYC_yAD","LocationType":"point","DisplayPosition":{"Latitude":51.51616,"Longitude":-0.19178},"MapView":{"TopLeft":{"Latitude":51.5251532,"Longitude":-0.2062317},"BottomRight":{"Latitude":51.5071668,"Longitude":-0.1773283}},"Address":{"Label":"W2 5LT, London, England, United Kingdom","Country":"GBR","State":"England","County":"London","City":"London","PostalCode":"W2 5LT","AdditionalData":[{"value":"United Kingdom","key":"CountryName"},{"value":"England","key":"StateName"},{"value":"London","key":"CountyName"}]},"MapReference":{"ReferenceId":"724997628","Spot":0.83,"SideOfStreet":"neither","StateId":"20248595","CountyId":"20337453","CityId":"20337454"}}},{"Relevance":1.0,"Distance":49.7,"MatchLevel":"postalCode","MatchQuality":{"PostalCode":1.0},"MatchType":"interpolated","Location":{"LocationId":"NT_84YMfwEX60xGZHgPo7OrYA_yQD","LocationType":"point","DisplayPosition":{"Latitude":51.51672,"Longitude":-0.19172},"MapView":{"TopLeft":{"Latitude":51.5257132,"Longitude":-0.2061719},"BottomRight":{"Latitude":51.5077268,"Longitude":-0.1772681}},"Address":{"Label":"W2 5PA, London, England, United Kingdom","Country":"GBR","State":"England","County":"London","City":"London","PostalCode":"W2 5PA","AdditionalData":[{"value":"United Kingdom","key":"CountryName"},{"value":"England","key":"StateName"},{"value":"London","key":"CountyName"}]},"MapReference":{"ReferenceId":"25305222","Spot":0.82,"SideOfStreet":"neither","StateId":"20248595","CountyId":"20337453","CityId":"20337454"}}},{"Relevance":1.0,"Distance":57.8,"MatchLevel":"postalCode","MatchQuality":{"PostalCode":1.0},"MatchType":"interpolated","Location":{"LocationId":"NT_fFiv6RnRRhvyKSXrMS7LYC_xUD","LocationType":"point","DisplayPosition":{"Latitude":51.51592,"Longitude":-0.1909},"MapView":{"TopLeft":{"Latitude":51.5249132,"Longitude":-0.2053516},"BottomRight":{"Latitude":51.5069268,"Longitude":-0.1764484}},"Address":{"Label":"W2 5JP, London, England, United Kingdom","Country":"GBR","State":"England","County":"London","City":"London","PostalCode":"W2 5JP","AdditionalData":[{"value":"United Kingdom","key":"CountryName"},{"value":"England","key":"StateName"},{"value":"London","key":"CountyName"}]},"MapReference":{"ReferenceId":"25305603","Spot":0.78,"SideOfStreet":"neither","StateId":"20248595","CountyId":"20337453","CityId":"20337454"}}}]}]}}