{"Response":{"MetaInfo":{"Timestamp":"2020-03-28T10:36:02.165+0000","NextPageInformation":"2"},"View":[{"_type":"SearchResultsViewType","ViewId":0,"Result":[{"Relevance":1.0,"Distance":0.0,"Direction":0.0,"MatchLevel":"district","MatchQuality":{"Country":1.0,"State":1.0,"County":1.0,"City":1.0,"District":1.0,"PostalCode":1.0},"Location":{"LocationId":"NT_tjupN6vck9dbce4RqtnqyC","LocationType":"point","DisplayPosition":{"Latitude":51.551589,"Longitude":-0.0344396},"MapView":{"TopLeft":{"Latitude":51.57495,"Longitude":-0.07238},"BottomRight":{"Latitude":51.54886,"Longitude":-0.03282}},"Address":{"Label":"Clapton, London, England, United Kingdom","Country":"GBR","State":"England","County":"London","City":"London","District":"Clapton","PostalCode":"E5 9","AdditionalData":[{"value":"United Kingdom","key":"CountryName"},{"value":"England","key":"StateName"},{"value":"London","key":"CountyName"}]},"MapReference":{"ReferenceId":"835606260","SideOfStreet":"neither","StateId":"20248595","CountyId":"20337453","CityId":"20337454"}}},{"Relevance":1.0,"Distance":5.4,"MatchLevel":"houseNumber","MatchQuality":{"Country":1.0,"State":1.0,"County":1.0,"City":1.0,"District":1.0,"Street":[1.0],"HouseNumber":1.0,"PostalCode":1.0},"MatchType":"interpolated","Location":{"LocationId":"NT_PqRk-zWZ-.1FujHiUpTBWA_0A","LocationType":"point","DisplayPosition":{"Latitude":51.55162,"Longitude":-0.03438},"MapView":{"TopLeft":{"Latitude":51.5527442,"Longitude":-0.0361879},"BottomRight":{"Latitude":51.5504958,"Longitude":-0.0325721}},"Address":{"Label":"4 Kingsmead Way, London, E9 5QG, United Kingdom","Country":"GBR","State":"England","County":"London","City":"London","District":"Clapton","Street":"Kingsmead Way","HouseNumber":"4","PostalCode":"E9 5QG","AdditionalData":[{"value":"United Kingdom","key":"CountryName"},{"value":"England","key":"StateName"},{"value":"London","key":"CountyName"}]},"MapReference":{"ReferenceId":"25395594","Spot":0.0,"SideOfStreet":"left","StateId":"20248595","CountyId":"20337453","CityId":"20337454","AddressId":"748599255","RoadLinkId":"82747862"}}},{"Relevance":1.0,"Distance":5.4,"MatchLevel":"street","MatchQuality":{"Country":1.0,"State":1.0,"County":1.0,"City":1.0,"District":1.0,"PostalCode":1.0},"Location":{"LocationId":"NT_ne9A17utllC9S.QNEl5qYD_l_708315135_R","LocationType":"point","DisplayPosition":{"Latitude":51.55162,"Longitude":-0.03438},"MapView":{"TopLeft":{"Latitude":51.55185,"Longitude":-0.03438},"BottomRight":{"Latitude":51.55162,"Longitude":-0.0337}},"Address":{"Label":"London, E9 5, United Kingdom","Country":"GBR","State":"England","County":"London","City":"London","District":"Hackney","PostalCode":"E9 5","AdditionalData":[{"value":"United Kingdom","key":"CountryName"},{"value":"England","key":"StateName"},{"value":"London","key":"CountyName"}]},"MapReference":{"ReferenceId":"708315135","Spot":0.0,"SideOfStreet":"right","StateId":"20248595","CountyId":"20337453","CityId":"20337454"}}},{"Relevance":1.0,"Distance":31.2,"MatchLevel":"postalCode","MatchQuality":{"PostalCode":1.0},"MatchType":"interpolated","Location":{"LocationId":"NT_PqRk-zWZ-.1FujHiUpTBWA_0A","LocationType":"point","DisplayPosition":{"Latitude":51.55184,"Longitude":-0.03464},"MapView":{"TopLeft":{"Latitude":51.5608332,"Longitude":-0.0491031},"BottomRight":{"Latitude":51.5428468,"Longitude":-0.0201769}},"Address":{"Label":"E9 5QG, London, England, United Kingdom","Country":"GBR","State":"England","County":"London","City":"London","PostalCode":"E9 5QG","AdditionalData":[{"value":"United Kingdom","key":"CountryName"},{"value":"England","key":"StateName"},{"value":"London","key":"CountyName"}]},"MapReference":{"ReferenceId":"25395594","Spot":0.0,"SideOfStreet":"neither","StateId":"20248595","CountyId":"20337453","CityId":"20337454"}}},{"Relevance":1.0,"Distance":31.3,"MatchLevel":"postalCode","MatchQuality":{"PostalCode":1.0},"MatchType":"interpolated","Location":{"LocationId":"NT_PqRk-zWZ-.1FujHiUpTBWA","LocationType":"point","DisplayPosition":{"Latitude":51.55135,"Longitude":-0.0342},"MapView":{"TopLeft":{"Latitude":51.5603432,"Longitude":-0.0486629},"BottomRight":{"Latitude":51.5423568,"Longitude":-0.0197371}},"Address":{"Label":"E9 5QF, London, England, United Kingdom","Country":"GBR","State":"England","County":"London","City":"London","PostalCode":"E9 5QF","AdditionalData":[{"value":"United Kingdom","key":"CountryName"},{"value":"England","key":"StateName"},{"value":"London","key":"CountyName"}]},"MapReference":{"ReferenceId":"25395684","Spot":0.76,"SideOfStreet":"neither","StateId":"20248595","CountyId":"20337453","CityId":"20337454"}}},{"Relevance":1.0,"Distance":40.0,"MatchLevel":"houseNumber","MatchQuality":{"Country":1.0,"State":1.0,"County":1.0,"City":1.0,"District":1.0,"Street":[1.0],"PostalCode":1.0},"MatchType":"interpolated","Location":{"LocationId":"NT_PqRk-zWZ-.1FujHiUpTBWA","LocationType":"point","DisplayPosition":{"Latitude":51.5513,"Longitude":-0.03411},"MapView":{"TopLeft":{"Latitude":51.5524242,"Longitude":-0.0359179},"BottomRight":{"Latitude":51.5501758,"Longitude":-0.0323021}},"Address":{"Label":"Kingsmead Way, London, E9 5, United Kingdom","Country":"GBR","State":"England","County":"London","City":"London","District":"Clapton","Street":"Kingsmead Way","PostalCode":"E9 5","AdditionalData":[{"value":"United Kingdom","key":"CountryName"},{"value":"England","key":"StateName"},{"value":"London","key":"CountyName"}],"Building":"Egbert House"},"MapReference":{"ReferenceId":"25395684","Spot":0.76,"SideOfStreet":"left","StateId":"20248595","CountyId":"20337453","CityId":"20337454","AddressId":"763632790","RoadLinkId":"82913943"}}},{"Relevance":1.0,"Distance":60.0,"MatchLevel":"houseNumber","MatchQuality":{"Country":1.0,"State":1.0,"County":1.0,"City":1.0,"District":1.0,"Street":[1.0],"HouseNumber":1.0,"PostalCode":1.0},"MatchType":"interpolated","Location":{"LocationId":"NT_.BavJIKC.O-LZCv4MToO2C_1QD","LocationType":"point","DisplayPosition":{"Latitude":51.55147,"Longitude":-0.03546},"MapView":{"TopLeft":{"Latitude":51.5525942,"Longitude":-0.0372679},"BottomRight":{"Latitude":51.5503458,"Longitude":-0.0336521}},"Address":{"Label":"54 Adley Street, London, E5 0DY, United Kingdom","Country":"GBR","State":"England","County":"London","City":"London","District":"Clapton","Street":"Adley Street","HouseNumber":"54","PostalCode":"E5 0DY","AdditionalData":[{"value":"United Kingdom","key":"CountryName"},{"value":"England","key":"StateName"},{"value":"London","key":"CountyName"}]},"MapReference":{"ReferenceId":"25395707","Spot":0.92,"SideOfStreet":"right","StateId":"20248595","CountyId":"20337453","CityId":"20337454","AddressId":"748142619","RoadLinkId":"82833236"}}},{"Relevance":1.0,"Distance":61.4,"MatchLevel":"houseNumber","MatchQuality":{"Country":1.0,"State":1.0,"County":1.0,"City":1.0,"District":1.0,"Street":[1.0],"HouseNumber":1.0,"PostalCode":1.0},"MatchType":"interpolated","Location":{"LocationId":"NT_.BavJIKC.O-LZCv4MToO2C_2ID","LocationType":"point","DisplayPosition":{"Latitude":51.55165,"Longitude":-0.03547},"MapView":{"TopLeft":{"Latitude":51.5527742,"Longitude":-0.0372779},"BottomRight":{"Latitude":51.5505258,"Longitude":-0.0336621}},"Address":{"Label":"62 Adley Street, London, E5 0DZ, United Kingdom","Country":"GBR","State":"England","County":"London","City":"London","District":"Clapton","Street":"Adley Street","HouseNumber":"62","PostalCode":"E5 0DZ","AdditionalData":[{"value":"United Kingdom","key":"CountryName"},{"value":"England","key":"StateName"},{"value":"London","key":"CountyName"}]},"MapReference":{"ReferenceId":"25395591","Spot":0.06,"SideOfStreet":"right","StateId":"20248595","CountyId":"20337453","CityId":"20337454","AddressId":"747812731","RoadLinkId":"82781287"}}},{"Relevance":1.0,"Distance":77.8,"MatchLevel":"postalCode","MatchQuality":{"PostalCode":1.0},"MatchType":"interpolated","Location":{"LocationId":"NT_.BavJIKC.O-LZCv4MToO2C_2ID","LocationType":"point","DisplayPosition":{"Latitude":51.55191,"Longitude":-0.03544},"MapView":{"TopLeft":{"Latitude":51.5609032,"Longitude":-0.0499031},"BottomRight":{"Latitude":51.5429168,"Longitude":-0.0209769}},"Address":{"Label":"E5 0DZ, London, England, United Kingdom","Country":"GBR","State":"England","County":"London","City":"London","PostalCode":"E5 0DZ","AdditionalData":[{"value":"United Kingdom","key":"CountryName"},{"value":"England","key":"StateName"},{"value":"London","key":"CountyName"}]},"MapReference":{"ReferenceId":"25395591","Spot":0.06,"SideOfStreet":"neither","StateId":"20248595","CountyId":"20337453","CityId":"20337454"}}},{"Relevance":1.0,"Distance":78.9,"MatchLevel":"street","MatchQuality":{"Country":1.0,"State":1.0,"County":1.0,"City":1.0,"District":1.0,"PostalCode":1.0},"Location":{"LocationId":"NT_ne9A17utllC9S.QNEl5qYD_l_708315154_L","LocationType":"point","DisplayPosition":{"Latitude":51.55192,"Longitude":-0.03343},"MapView":{"TopLeft":{"Latitude":51.55216,"Longitude":-0.03343},"BottomRight":{"Latitude":51.55192,"Longitude":-0.0327}},"Address":{"Label":"London, E9 5, United Kingdom","Country":"GBR","State":"England","County":"London","City":"London","District":"Hackney","PostalCode":"E9 5","AdditionalData":[{"value":"United Kingdom","key":"CountryName"},{"value":"England","key":"StateName"},{"value":"London","key":"CountyName"}]},"MapReference":{"ReferenceId":"708315154","Spot":0.0,"SideOfStreet":"left","StateId":"20248595","CountyId":"20337453","CityId":"20337454"}}}]}]}}