{"Response":{"MetaInfo":{"Timestamp":"2020-03-28T11:42:08.445+0000","NextPageInformation":"2"},"View":[{"_type":"SearchResultsViewType","ViewId":0,"Result":[{"Relevance":1.0,"Distance":0.0,"Direction":0.0,"MatchLevel":"district","MatchQuality":{"Country":1.0,"State":1.0,"County":1.0,"City":1.0,"District":1.0,"PostalCode":1.0},"Location":{"LocationId":"NT_c8fMRCwak3uwcPZlxoqYqA","LocationType":"point","DisplayPosition":{"Latitude":51.5789663,"Longitude":7.2260069},"MapView":{"TopLeft":{"Latitude":51.63296,"Longitude":7.16321},"BottomRight":{"Latitude":51.55659,"Longitude":7.25772}},"Address":{"Label":"Recklinghausen, Nordrhein-Westfalen, Deutschland","Country":"DEU","State":"Nordrhein-Westfalen","County":"Recklinghausen","City":"Recklinghausen","District":"Recklinghausen","PostalCode":"45657","AdditionalData":[{"value":"Deutschland","key":"CountryName"},{"value":"Nordrhein-Westfalen","key":"StateName"},{"value":"Recklinghausen","key":"CountyName"}]},"MapReference":{"ReferenceId":"1201262405","SideOfStreet":"neither","CountryId":"20147700","StateId":"20157369","CountyId":"20159272","CityId":"20159336","DistrictId":"20159343"}}},{"Relevance":1.0,"Distance":8.3,"MatchLevel":"houseNumber","MatchQuality":{"Country":1.0,"State":1.0,"County":1.0,"City":1.0,"District":1.0,"Street":[1.0],"HouseNumber":1.0,"PostalCode":1.0},"MatchType":"interpolated","Location":{"LocationId":"NT_rCnOKnFYVhtO7qFAX7JgcC_5YD","LocationType":"point","DisplayPosition":{"Latitude":51.57907,"Longitude":7.22608},"MapView":{"TopLeft":{"Latitude":51.5801942,"Longitude":7.224271},"BottomRight":{"Latitude":51.5779458,"Longitude":7.227889}},"Address":{"Label":"König-Ludwig-Straße 96, 45663 Recklinghausen, Deutschland","Country":"DEU","State":"Nordrhein-Westfalen","County":"Recklinghausen","City":"Recklinghausen","District":"Recklinghausen","Street":"König-Ludwig-Straße","HouseNumber":"96","PostalCode":"45663","AdditionalData":[{"value":"Deutschland","key":"CountryName"},{"value":"Nordrhein-Westfalen","key":"StateName"},{"value":"Recklinghausen","key":"CountyName"}]},"MapReference":{"ReferenceId":"888271790","Spot":0.78,"SideOfStreet":"right","CountryId":"20147700","StateId":"20157369","CountyId":"20159272","CityId":"20159336","DistrictId":"20159343","AddressId":"195650245","RoadLinkId":"254405167"}}},{"Relevance":1.0,"Distance":10.7,"MatchLevel":"landmark","MatchQuality":{"Country":1.0,"State":1.0,"County":1.0,"City":1.0,"District":1.0,"Street":[1.0],"PostalCode":1.0,"Name":1.0},"Location":{"LocationId":"NT_z1XojBwtPlGdxYpjGGWOoD_p_3xHFCGpFqCjw2jwJ3GXqiC","LocationType":"park","Name":"Schimmelsheider Park","DisplayPosition":{"Latitude":51.58022,"Longitude":7.22733},"MapView":{"TopLeft":{"Latitude":51.58409,"Longitude":7.22116},"BottomRight":{"Latitude":51.57873,"Longitude":7.23076}},"Address":{"Label":"König-Ludwig-Straße, 45663 Recklinghausen, Deutschland","Country":"DEU","State":"Nordrhein-Westfalen","County":"Recklinghausen","City":"Recklinghausen","District":"Recklinghausen","Street":"König-Ludwig-Straße","PostalCode":"45663","AdditionalData":[{"value":"Deutschland","key":"CountryName"},{"value":"Nordrhein-Westfalen","key":"StateName"},{"value":"Recklinghausen","key":"CountyName"}]},"MapReference":{"CountryId":"20147700","StateId":"20157369","CountyId":"20159272","CityId":"20159336","DistrictId":"20159343","PlaceId":"50542214"}}},{"Relevance":1.0,"Distance":35.8,"MatchLevel":"street","MatchQuality":{"Country":1.0,"State":1.0,"County":1.0,"City":1.0,"District":1.0,"Street":[1.0],"PostalCode":1.0},"Location":{"LocationId":"NT_rCnOKnFYVhtO7qFAX7JgcC_l_888260889_R","LocationType":"point","DisplayPosition":{"Latitude":51.57911,"Longitude":7.22647},"MapView":{"TopLeft":{"Latitude":51.57913,"Longitude":7.22647},"BottomRight":{"Latitude":51.57911,"Longitude":7.22665}},"Address":{"Label":"König-Ludwig-Straße, 45663 Recklinghausen, Deutschland","Country":"DEU","State":"Nordrhein-Westfalen","County":"Recklinghausen","City":"Recklinghausen","District":"Recklinghausen","Street":"König-Ludwig-Straße","PostalCode":"45663","AdditionalData":[{"value":"Deutschland","key":"CountryName"},{"value":"Nordrhein-Westfalen","key":"StateName"},{"value":"Recklinghausen","key":"CountyName"}]},"MapReference":{"ReferenceId":"888260889","Spot":0.0,"SideOfStreet":"right","CountryId":"20147700","StateId":"20157369","CountyId":"20159272","CityId":"20159336","DistrictId":"20159343"}}},{"Relevance":1.0,"Distance":48.0,"MatchLevel":"street","MatchQuality":{"Country":1.0,"State":1.0,"County":1.0,"City":1.0,"District":1.0,"Street":[1.0],"PostalCode":1.0},"Location":{"LocationId":"NT_757SKvw4hlPs895Y5AcSqA_l_888271791_R","LocationType":"point","DisplayPosition":{"Latitude":51.57913,"Longitude":7.22665},"MapView":{"TopLeft":{"Latitude":51.57914,"Longitude":7.22665},"BottomRight":{"Latitude":51.57913,"Longitude":7.22678}},"Address":{"Label":"Antoniusstraße, 45663 Recklinghausen, Deutschland","Country":"DEU","State":"Nordrhein-Westfalen","County":"Recklinghausen","City":"Recklinghausen","District":"Recklinghausen","Street":"Antoniusstraße","PostalCode":"45663","AdditionalData":[{"value":"Deutschland","key":"CountryName"},{"value":"Nordrhein-Westfalen","key":"StateName"},{"value":"Recklinghausen","key":"CountyName"}]},"MapReference":{"ReferenceId":"888271791","Spot":0.0,"SideOfStreet":"right","CountryId":"20147700","StateId":"20157369","CountyId":"20159272","CityId":"20159336","DistrictId":"20159343"}}},{"Relevance":1.0,"Distance":53.1,"MatchLevel":"houseNumber","MatchQuality":{"Country":1.0,"State":1.0,"County":1.0,"City":1.0,"District":1.0,"Street":[1.0],"HouseNumber":1.0,"PostalCode":1.0},"MatchType":"interpolated","Location":{"LocationId":"NT_rCnOKnFYVhtO7qFAX7JgcC_5cD","LocationType":"point","DisplayPosition":{"Latitude":51.57942,"Longitude":7.22659},"MapView":{"TopLeft":{"Latitude":51.5805442,"Longitude":7.224781},"BottomRight":{"Latitude":51.5782958,"Longitude":7.228399}},"Address":{"Label":"König-Ludwig-Straße 97, 45663 Recklinghausen, Deutschland","Country":"DEU","State":"Nordrhein-Westfalen","County":"Recklinghausen","City":"Recklinghausen","District":"Recklinghausen","Street":"König-Ludwig-Straße","HouseNumber":"97","PostalCode":"45663","AdditionalData":[{"value":"Deutschland","key":"CountryName"},{"value":"Nordrhein-Westfalen","key":"StateName"},{"value":"Recklinghausen","key":"CountyName"}]},"MapReference":{"ReferenceId":"51350388","Spot":0.72,"SideOfStreet":"left","CountryId":"20147700","StateId":"20157369","CountyId":"20159272","CityId":"20159336","DistrictId":"20159343","AddressId":"194658047","RoadLinkId":"35555359"}}},{"Relevance":1.0,"Distance":76.6,"MatchLevel":"houseNumber","MatchQuality":{"Country":1.0,"State":1.0,"County":1.0,"City":1.0,"District":1.0,"Street":[1.0],"HouseNumber":1.0,"PostalCode":1.0},"MatchType":"interpolated","Location":{"LocationId":"NT_jPYVm8q3xIQ4oro.OfbaAB_4A","LocationType":"point","DisplayPosition":{"Latitude":51.57842,"Longitude":7.22688},"MapView":{"TopLeft":{"Latitude":51.5795442,"Longitude":7.2250711},"BottomRight":{"Latitude":51.5772958,"Longitude":7.2286889}},"Address":{"Label":"Königstraße 8, 45663 Recklinghausen, Deutschland","Country":"DEU","State":"Nordrhein-Westfalen","County":"Recklinghausen","City":"Recklinghausen","District":"Recklinghausen","Street":"Königstraße","HouseNumber":"8","PostalCode":"45663","AdditionalData":[{"value":"Deutschland","key":"CountryName"},{"value":"Nordrhein-Westfalen","key":"StateName"},{"value":"Recklinghausen","key":"CountyName"}]},"MapReference":{"ReferenceId":"51350403","Spot":0.39,"SideOfStreet":"left","CountryId":"20147700","StateId":"20157369","CountyId":"20159272","CityId":"20159336","DistrictId":"20159343","AddressId":"194382805","RoadLinkId":"35301251"}}},{"Relevance":1.0,"Distance":91.1,"MatchLevel":"houseNumber","MatchQuality":{"Country":1.0,"State":1.0,"County":1.0,"City":1.0,"District":1.0,"Street":[1.0],"HouseNumber":1.0,"PostalCode":1.0},"MatchType":"interpolated","Location":{"LocationId":"NT_k4en8C3r6l0CTgqBf2hazD_2ID","LocationType":"point","DisplayPosition":{"Latitude":51.57994,"Longitude":7.22598},"MapView":{"TopLeft":{"Latitude":51.5810642,"Longitude":7.224171},"BottomRight":{"Latitude":51.5788158,"Longitude":7.227789}},"Address":{"Label":"Schimmelsheider Weg 62, 45663 Recklinghausen, Deutschland","Country":"DEU","State":"Nordrhein-Westfalen","County":"Recklinghausen","City":"Recklinghausen","District":"Recklinghausen","Street":"Schimmelsheider Weg","HouseNumber":"62","PostalCode":"45663","AdditionalData":[{"value":"Deutschland","key":"CountryName"},{"value":"Nordrhein-Westfalen","key":"StateName"},{"value":"Recklinghausen","key":"CountyName"}]},"MapReference":{"ReferenceId":"51350983","Spot":0.75,"SideOfStreet":"left","CountryId":"20147700","StateId":"20157369","CountyId":"20159272","CityId":"20159336","DistrictId":"20159343","AddressId":"194736871","RoadLinkId":"35037198"}}},{"Relevance":1.0,"Distance":93.6,"MatchLevel":"houseNumber","MatchQuality":{"Country":1.0,"State":1.0,"County":1.0,"City":1.0,"District":1.0,"Street":[1.0],"HouseNumber":1.0,"PostalCode":1.0},"MatchType":"interpolated","Location":{"LocationId":"NT_rCnOKnFYVhtO7qFAX7JgcC_4QD","LocationType":"point","DisplayPosition":{"Latitude":51.57893,"Longitude":7.22465},"MapView":{"TopLeft":{"Latitude":51.5800542,"Longitude":7.222841},"BottomRight":{"Latitude":51.5778058,"Longitude":7.226459}},"Address":{"Label":"König-Ludwig-Straße 84, 45663 Recklinghausen, Deutschland","Country":"DEU","State":"Nordrhein-Westfalen","County":"Recklinghausen","City":"Recklinghausen","District":"Recklinghausen","Street":"König-Ludwig-Straße","HouseNumber":"84","PostalCode":"45663","AdditionalData":[{"value":"Deutschland","key":"CountryName"},{"value":"Nordrhein-Westfalen","key":"StateName"},{"value":"Recklinghausen","key":"CountyName"}]},"MapReference":{"ReferenceId":"888271789","Spot":0.87,"SideOfStreet":"right","CountryId":"20147700","StateId":"20157369","CountyId":"20159272","CityId":"20159336","DistrictId":"20159343","AddressId":"195133230","RoadLinkId":"254405166"}}},{"Relevance":1.0,"Distance":95.4,"MatchLevel":"houseNumber","MatchQuality":{"Country":1.0,"State":1.0,"County":1.0,"City":1.0,"District":1.0,"Street":[1.0],"HouseNumber":1.0,"PostalCode":1.0},"MatchType":"interpolated","Location":{"LocationId":"NT_X.O6-yQmK0cMohuANF7FUA_1A","LocationType":"point","DisplayPosition":{"Latitude":51.57811,"Longitude":7.22592},"MapView":{"TopLeft":{"Latitude":51.5792342,"Longitude":7.2241111},"BottomRight":{"Latitude":51.5769858,"Longitude":7.2277289}},"Address":{"Label":"Am Südpark 5, 45663 Recklinghausen, Deutschland","Country":"DEU","State":"Nordrhein-Westfalen","County":"Recklinghausen","City":"Recklinghausen","District":"Recklinghausen","Street":"Am Südpark","HouseNumber":"5","PostalCode":"45663","AdditionalData":[{"value":"Deutschland","key":"CountryName"},{"value":"Nordrhein-Westfalen","key":"StateName"},{"value":"Recklinghausen","key":"CountyName"}]},"MapReference":{"ReferenceId":"51349559","Spot":0.1,"SideOfStreet":"left","CountryId":"20147700","StateId":"20157369","CountyId":"20159272","CityId":"20159336","DistrictId":"20159343","AddressId":"196126423","RoadLinkId":"35636776"}}}]}]}}