{"Response":{"MetaInfo":{"Timestamp":"2020-03-28T10:11:24.179+0000","NextPageInformation":"2"},"View":[{"_type":"SearchResultsViewType","ViewId":0,"Result":[{"Relevance":1.0,"Distance":0.0,"Direction":0.0,"MatchLevel":"district","MatchQuality":{"Country":1.0,"State":1.0,"County":1.0,"City":1.0,"District":1.0,"PostalCode":1.0},"Location":{"LocationId":"NT_5v5RLfwf5uD4JBJ5.XXZHA","LocationType":"point","DisplayPosition":{"Latitude":51.5260616,"Longitude":-0.1256058},"MapView":{"TopLeft":{"Latitude":51.53165,"Longitude":-0.13012},"BottomRight":{"Latitude":51.52138,"Longitude":-0.10966}},"Address":{"Label":"St Pancras, London, England, United Kingdom","Country":"GBR","State":"England","County":"London","City":"London","District":"St Pancras","PostalCode":"WC1H 9","AdditionalData":[{"value":"United Kingdom","key":"CountryName"},{"value":"England","key":"StateName"},{"value":"London","key":"CountyName"}]},"MapReference":{"ReferenceId":"1155738777","SideOfStreet":"neither","StateId":"20248595","CountyId":"20337453","CityId":"20337454"}}},{"Relevance":1.0,"Distance":2.6,"MatchLevel":"houseNumber","MatchQuality":{"Country":1.0,"State":1.0,"County":1.0,"City":1.0,"District":1.0,"Street":[1.0],"HouseNumber":1.0,"PostalCode":1.0},"MatchType":"interpolated","Location":{"LocationId":"NT_7Zss.dwInSATOtF.gI0pcB_4QD","LocationType":"point","DisplayPosition":{"Latitude":51.52603,"Longitude":-0.12571},"MapView":{"TopLeft":{"Latitude":51.5271542,"Longitude":-0.1275169},"BottomRight":{"Latitude":51.5249058,"Longitude":-0.1239031}},"Address":{"Label":"84 Marchmont Street, London, WC1N 1AG, United Kingdom","Country":"GBR","State":"England","County":"London","City":"London","District":"St Pancras","Street":"Marchmont Street","HouseNumber":"84","PostalCode":"WC1N 1AG","AdditionalData":[{"value":"United Kingdom","key":"CountryName"},{"value":"England","key":"StateName"},{"value":"London","key":"CountyName"}]},"MapReference":{"ReferenceId":"1162417388","Spot":0.83,"SideOfStreet":"right","StateId":"20248595","CountyId":"20337453","CityId":"20337454","AddressId":"748422624","RoadLinkId":"468669480"}}},{"Relevance":1.0,"Distance":5.2,"MatchLevel":"postalCode","MatchQuality":{"PostalCode":1.0},"MatchType":"interpolated","Location":{"LocationId":"NT_7Zss.dwInSATOtF.gI0pcB_4QD","LocationType":"point","DisplayPosition":{"Latitude":51.52602,"Longitude":-0.12564},"MapView":{"TopLeft":{"Latitude":51.5350132,"Longitude":-0.1400948},"BottomRight":{"Latitude":51.5170268,"Longitude":-0.1111852}},"Address":{"Label":"WC1N 1AG, London, England, United Kingdom","Country":"GBR","State":"England","County":"London","City":"London","PostalCode":"WC1N 1AG","AdditionalData":[{"value":"United Kingdom","key":"CountryName"},{"value":"England","key":"StateName"},{"value":"London","key":"CountyName"}]},"MapReference":{"ReferenceId":"1162417388","Spot":0.83,"SideOfStreet":"neither","StateId":"20248595","CountyId":"20337453","CityId":"20337454"}}},{"Relevance":1.0,"Distance":10.9,"MatchLevel":"houseNumber","MatchQuality":{"Country":1.0,"State":1.0,"County":1.0,"City":1.0,"District":1.0,"Street":[1.0],"HouseNumber":1.0,"PostalCode":1.0},"MatchType":"interpolated","Location":{"LocationId":"NT_7Zss.dwInSATOtF.gI0pcB_l_1162417389_R_5QD","LocationType":"point","DisplayPosition":{"Latitude":51.5261,"Longitude":-0.12575},"MapView":{"TopLeft":{"Latitude":51.5272242,"Longitude":-0.1275569},"BottomRight":{"Latitude":51.5249759,"Longitude":-0.1239432}},"Address":{"Label":"94 Marchmont Street, London, WC1N 1, United Kingdom","Country":"GBR","State":"England","County":"London","City":"London","District":"St Pancras","Street":"Marchmont Street","HouseNumber":"94","PostalCode":"WC1N 1","AdditionalData":[{"value":"United Kingdom","key":"CountryName"},{"value":"England","key":"StateName"},{"value":"London","key":"CountyName"}]},"MapReference":{"ReferenceId":"1162417389","Spot":0.0,"SideOfStreet":"right","StateId":"20248595","CountyId":"20337453","CityId":"20337454"}}},{"Relevance":1.0,"Distance":17.0,"MatchLevel":"houseNumber","MatchQuality":{"Country":1.0,"State":1.0,"County":1.0,"City":1.0,"District":1.0,"Street":[1.0],"HouseNumber":1.0,"PostalCode":1.0},"MatchType":"interpolated","Location":{"LocationId":"NT_DG0xyGQg8GwNdApojg-saC_xA","LocationType":"point","DisplayPosition":{"Latitude":51.52629,"Longitude":-0.1258},"MapView":{"TopLeft":{"Latitude":51.5274142,"Longitude":-0.1276069},"BottomRight":{"Latitude":51.5251658,"Longitude":-0.1239931}},"Address":{"Label":"1 Leigh Street, London, WC1H 9EW, United Kingdom","Country":"GBR","State":"England","County":"London","City":"London","District":"St Pancras","Street":"Leigh Street","HouseNumber":"1","PostalCode":"WC1H 9EW","AdditionalData":[{"value":"United Kingdom","key":"CountryName"},{"value":"England","key":"StateName"},{"value":"London","key":"CountyName"}]},"MapReference":{"ReferenceId":"1155746810","Spot":0.54,"SideOfStreet":"right","StateId":"20248595","CountyId":"20337453","CityId":"20337454","AddressId":"748171239","RoadLinkId":"461965637"}}},{"Relevance":1.0,"Distance":22.1,"MatchLevel":"houseNumber","MatchQuality":{"Country":1.0,"State":1.0,"County":1.0,"City":1.0,"District":1.0,"Street":[1.0],"HouseNumber":1.0,"PostalCode":1.0},"MatchType":"interpolated","Location":{"LocationId":"NT_DG0xyGQg8GwNdApojg-saC_zA","LocationType":"point","DisplayPosition":{"Latitude":51.52634,"Longitude":-0.12567},"MapView":{"TopLeft":{"Latitude":51.5274642,"Longitude":-0.1274769},"BottomRight":{"Latitude":51.5252158,"Longitude":-0.1238631}},"Address":{"Label":"3 Leigh Street, London, WC1H 9EW, United Kingdom","Country":"GBR","State":"England","County":"London","City":"London","District":"St Pancras","Street":"Leigh Street","HouseNumber":"3","PostalCode":"WC1H 9EW","AdditionalData":[{"value":"United Kingdom","key":"CountryName"},{"value":"England","key":"StateName"},{"value":"London","key":"CountyName"}]},"MapReference":{"ReferenceId":"1155746811","Spot":0.09,"SideOfStreet":"right","StateId":"20248595","CountyId":"20337453","CityId":"20337454","AddressId":"748167688","RoadLinkId":"461965638"}}},{"Relevance":1.0,"Distance":25.3,"MatchLevel":"houseNumber","MatchQuality":{"Country":1.0,"State":1.0,"County":1.0,"City":1.0,"District":1.0,"Street":[1.0],"HouseNumber":1.0,"PostalCode":1.0},"MatchType":"interpolated","Location":{"LocationId":"NT_nwQ2lRqVGoBHyt3uiW5rkC_l_1162417390_R_2MD","LocationType":"point","DisplayPosition":{"Latitude":51.52624,"Longitude":-0.1259825},"MapView":{"TopLeft":{"Latitude":51.5273642,"Longitude":-0.1277894},"BottomRight":{"Latitude":51.5251158,"Longitude":-0.1241756}},"Address":{"Label":"63 Cartwright Gardens, London, WC1H 9, United Kingdom","Country":"GBR","State":"England","County":"London","City":"London","District":"St Pancras","Street":"Cartwright Gardens","HouseNumber":"63","PostalCode":"WC1H 9","AdditionalData":[{"value":"United Kingdom","key":"CountryName"},{"value":"England","key":"StateName"},{"value":"London","key":"CountyName"}]},"MapReference":{"ReferenceId":"1162417390","Spot":0.75,"SideOfStreet":"right","StateId":"20248595","CountyId":"20337453","CityId":"20337454"}}},{"Relevance":1.0,"Distance":29.7,"MatchLevel":"street","MatchQuality":{"Country":1.0,"State":1.0,"County":1.0,"City":1.0,"District":1.0,"Street":[1.0],"PostalCode":1.0},"Location":{"LocationId":"NT_nwQ2lRqVGoBHyt3uiW5rkC_l_1162417394_R","LocationType":"point","DisplayPosition":{"Latitude":51.52625,"Longitude":-0.12591},"MapView":{"TopLeft":{"Latitude":51.52641,"Longitude":-0.12605},"BottomRight":{"Latitude":51.52625,"Longitude":-0.12591}},"Address":{"Label":"Cartwright Gardens, London, WC1H 9, United Kingdom","Country":"GBR","State":"England","County":"London","City":"London","District":"St Pancras","Street":"Cartwright Gardens","PostalCode":"WC1H 9","AdditionalData":[{"value":"United Kingdom","key":"CountryName"},{"value":"England","key":"StateName"},{"value":"London","key":"CountyName"}]},"MapReference":{"ReferenceId":"1162417394","Spot":0.0,"SideOfStreet":"right","StateId":"20248595","CountyId":"20337453","CityId":"20337454"}}},{"Relevance":1.0,"Distance":37.2,"MatchLevel":"street","MatchQuality":{"Country":1.0,"State":1.0,"County":1.0,"City":1.0,"District":1.0,"Street":[1.0],"PostalCode":1.0},"Location":{"LocationId":"NT_Xq1AiOiwOR.9g-osAcHfPD_l_1215682519_L","LocationType":"point","DisplayPosition":{"Latitude":51.52609,"Longitude":-0.12507},"MapView":{"TopLeft":{"Latitude":51.52613,"Longitude":-0.12507},"BottomRight":{"Latitude":51.52609,"Longitude":-0.12481}},"Address":{"Label":"Compton Place, London, WC1H 9, United Kingdom","Country":"GBR","State":"England","County":"London","City":"London","District":"St Pancras","Street":"Compton Place","PostalCode":"WC1H 9","AdditionalData":[{"value":"United Kingdom","key":"CountryName"},{"value":"England","key":"StateName"},{"value":"London","key":"CountyName"}]},"MapReference":{"ReferenceId":"1215682519","Spot":0.0,"SideOfStreet":"left","StateId":"20248595","CountyId":"20337453","CityId":"20337454"}}},{"Relevance":1.0,"Distance":45.0,"MatchLevel":"houseNumber","MatchQuality":{"Country":1.0,"State":1.0,"County":1.0,"City":1.0,"District":1.0,"Street":[1.0],"HouseNumber":1.0,"PostalCode":1.0},"MatchType":"interpolated","Location":{"LocationId":"NT_A0xhNmy.v7MxZEAHhvbZVC_yUD","LocationType":"point","DisplayPosition":{"Latitude":51.52583,"Longitude":-0.12491},"MapView":{"TopLeft":{"Latitude":51.5269542,"Longitude":-0.1267168},"BottomRight":{"Latitude":51.5247058,"Longitude":-0.1231032}},"Address":{"Label":"25 Tavistock Place, London, WC1H 9SF, United Kingdom","Country":"GBR","State":"England","County":"London","City":"London","District":"St Pancras","Street":"Tavistock Place","HouseNumber":"25","PostalCode":"WC1H 9SF","AdditionalData":[{"value":"United Kingdom","key":"CountryName"},{"value":"England","key":"StateName"},{"value":"London","key":"CountyName"}]},"MapReference":{"ReferenceId":"25302015","Spot":0.97,"SideOfStreet":"left","StateId":"20248595","CountyId":"20337453","CityId":"20337454","AddressId":"747721962","RoadLinkId":"82948174"}}}]}]}}