{"Response":{"MetaInfo":{"Timestamp":"2020-03-28T10:34:25.699+0000","NextPageInformation":"2"},"View":[{"_type":"SearchResultsViewType","ViewId":0,"Result":[{"Relevance":1.0,"Distance":0.0,"Direction":0.0,"MatchLevel":"district","MatchQuality":{"Country":1.0,"State":1.0,"County":1.0,"City":1.0,"District":1.0,"PostalCode":1.0},"Location":{"LocationId":"NT_AyWh2SCocHAG2AjBT10IOD","LocationType":"point","DisplayPosition":{"Latitude":51.5506674,"Longitude":-0.3388489},"MapView":{"TopLeft":{"Latitude":51.5573,"Longitude":-0.37159},"BottomRight":{"Latitude":51.51758,"Longitude":-0.30577}},"Address":{"Label":"Greenford, England, United Kingdom","Country":"GBR","State":"England","County":"Middlesex","City":"Greenford","District":"Greenford","PostalCode":"UB6 0","AdditionalData":[{"value":"United Kingdom","key":"CountryName"},{"value":"England","key":"StateName"},{"value":"Middlesex","key":"CountyName"}]},"MapReference":{"ReferenceId":"25351095","SideOfStreet":"neither","StateId":"20248595","CountyId":"20337579","CityId":"20337593","DistrictId":"20337594"}}},{"Relevance":1.0,"Distance":7.1,"MatchLevel":"street","MatchQuality":{"Country":1.0,"State":1.0,"County":1.0,"City":1.0,"District":1.0,"Street":[1.0],"PostalCode":1.0},"Location":{"LocationId":"NT_P8D3H5fXJBBGf.f1CCH-zB_l_26013224_R","LocationType":"point","DisplayPosition":{"Latitude":51.5507311,"Longitude":-0.3388503},"MapView":{"TopLeft":{"Latitude":51.55075,"Longitude":-0.33946},"BottomRight":{"Latitude":51.55071,"Longitude":-0.33802}},"Address":{"Label":"Horsenden Lane North, Greenford, UB6 0, United Kingdom","Country":"GBR","State":"England","County":"Middlesex","City":"Greenford","District":"Greenford","Street":"Horsenden Lane North","PostalCode":"UB6 0","AdditionalData":[{"value":"United Kingdom","key":"CountryName"},{"value":"England","key":"StateName"},{"value":"Middlesex","key":"CountyName"}]},"MapReference":{"ReferenceId":"26013224","Spot":0.42,"SideOfStreet":"right","StateId":"20248595","CountyId":"20337579","CityId":"20337593","DistrictId":"20337594"}}},{"Relevance":1.0,"Distance":19.4,"MatchLevel":"postalCode","MatchQuality":{"PostalCode":1.0},"Location":{"LocationId":"NT_P8D3H5fXJBBGf.f1CCH-zB_l_26013224_R","LocationType":"point","DisplayPosition":{"Latitude":51.55067,"Longitude":-0.33913},"MapView":{"TopLeft":{"Latitude":51.5596632,"Longitude":-0.3535927},"BottomRight":{"Latitude":51.5416768,"Longitude":-0.3246673}},"Address":{"Label":"UB6 0GD, Greenford, England, United Kingdom","Country":"GBR","State":"England","County":"Middlesex","City":"Greenford","PostalCode":"UB6 0GD","AdditionalData":[{"value":"United Kingdom","key":"CountryName"},{"value":"England","key":"StateName"},{"value":"Middlesex","key":"CountyName"}]},"MapReference":{"ReferenceId":"26013224","Spot":0.42,"SideOfStreet":"neither","StateId":"20248595","CountyId":"20337579","CityId":"20337593"}}},{"Relevance":1.0,"Distance":26.7,"MatchLevel":"houseNumber","MatchQuality":{"Country":1.0,"State":1.0,"County":1.0,"City":1.0,"District":1.0,"Street":[1.0],"HouseNumber":1.0,"PostalCode":1.0},"MatchType":"interpolated","Location":{"LocationId":"NT_KskomPws9WvA23eVOWdLAA_xITO2A","LocationType":"point","DisplayPosition":{"Latitude":51.55065,"Longitude":-0.33947},"MapView":{"TopLeft":{"Latitude":51.5517742,"Longitude":-0.3412778},"BottomRight":{"Latitude":51.5495258,"Longitude":-0.3376622}},"Address":{"Label":"1296 Greenford Road, Greenford, UB6 0HH, United Kingdom","Country":"GBR","State":"England","County":"Middlesex","City":"Greenford","District":"Greenford","Street":"Greenford Road","HouseNumber":"1296","PostalCode":"UB6 0HH","AdditionalData":[{"value":"United Kingdom","key":"CountryName"},{"value":"England","key":"StateName"},{"value":"Middlesex","key":"CountyName"}]},"MapReference":{"ReferenceId":"1226041003","Spot":0.89,"SideOfStreet":"right","StateId":"20248595","CountyId":"20337579","CityId":"20337593","DistrictId":"20337594","AddressId":"749490673","RoadLinkId":"544339201"}}},{"Relevance":1.0,"Distance":31.6,"MatchLevel":"houseNumber","MatchQuality":{"Country":1.0,"State":1.0,"County":1.0,"City":1.0,"District":1.0,"Street":[1.0],"HouseNumber":1.0,"PostalCode":1.0},"MatchType":"interpolated","Location":{"LocationId":"NT_KskomPws9WvA23eVOWdLAA_xMTM2A","LocationType":"point","DisplayPosition":{"Latitude":51.55089,"Longitude":-0.33942},"MapView":{"TopLeft":{"Latitude":51.5520142,"Longitude":-0.3412278},"BottomRight":{"Latitude":51.5497658,"Longitude":-0.3376122}},"Address":{"Label":"1316 Greenford Road, Greenford, UB6 0, United Kingdom","Country":"GBR","State":"England","County":"Middlesex","City":"Greenford","District":"Greenford","Street":"Greenford Road","HouseNumber":"1316","PostalCode":"UB6 0","AdditionalData":[{"value":"United Kingdom","key":"CountryName"},{"value":"England","key":"StateName"},{"value":"Middlesex","key":"CountyName"}]},"MapReference":{"ReferenceId":"758745223","Spot":0.31,"SideOfStreet":"right","StateId":"20248595","CountyId":"20337579","CityId":"20337593","DistrictId":"20337594","AddressId":"749478759","RoadLinkId":"153426728"}}},{"Relevance":1.0,"Distance":38.9,"MatchLevel":"houseNumber","MatchQuality":{"Country":1.0,"State":1.0,"County":1.0,"City":1.0,"District":1.0,"Street":[1.0],"HouseNumber":1.0,"PostalCode":1.0},"MatchType":"interpolated","Location":{"LocationId":"NT_6VWI0PxPH18b6SDNpxP53D_1MD","LocationType":"point","DisplayPosition":{"Latitude":51.55057,"Longitude":-0.33806},"MapView":{"TopLeft":{"Latitude":51.5516942,"Longitude":-0.3398678},"BottomRight":{"Latitude":51.5494458,"Longitude":-0.3362522}},"Address":{"Label":"53 Burwell Avenue, Greenford, UB6 0NU, United Kingdom","Country":"GBR","State":"England","County":"Middlesex","City":"Greenford","District":"Greenford","Street":"Burwell Avenue","HouseNumber":"53","PostalCode":"UB6 0NU","AdditionalData":[{"value":"United Kingdom","key":"CountryName"},{"value":"England","key":"StateName"},{"value":"Middlesex","key":"CountyName"}]},"MapReference":{"ReferenceId":"26013226","Spot":0.92,"SideOfStreet":"left","StateId":"20248595","CountyId":"20337579","CityId":"20337593","DistrictId":"20337594","AddressId":"749672709","RoadLinkId":"82270299"}}},{"Relevance":1.0,"Distance":42.5,"MatchLevel":"landmark","MatchQuality":{"Country":1.0,"State":1.0,"County":1.0,"City":1.0,"District":1.0,"PostalCode":1.0,"Name":1.0},"Location":{"LocationId":"NT_EILjwaOR8O81CyMB3VG3nC","LocationType":"industrialComplex","Name":"Glaxo Wellcome UK Ltd","DisplayPosition":{"Latitude":51.54834,"Longitude":-0.34224},"MapView":{"TopLeft":{"Latitude":51.55075,"Longitude":-0.34429},"BottomRight":{"Latitude":51.54593,"Longitude":-0.33946}},"Address":{"Label":"Greenford, UB6 0, United Kingdom","Country":"GBR","State":"England","County":"Middlesex","City":"Greenford","District":"Greenford","PostalCode":"UB6 0","AdditionalData":[{"value":"United Kingdom","key":"CountryName"},{"value":"England","key":"StateName"},{"value":"Middlesex","key":"CountyName"}]},"MapReference":{"StateId":"20248595","CountyId":"20337579","CityId":"20337593","DistrictId":"20337594","PlaceId":"1407024900"}}},{"Relevance":1.0,"Distance":42.5,"MatchLevel":"street","MatchQuality":{"Country":1.0,"State":1.0,"County":1.0,"City":1.0,"District":1.0,"Street":[1.0],"PostalCode":1.0},"Location":{"LocationId":"NT_P8D3H5fXJBBGf.f1CCH-zB_l_25350852_L","LocationType":"point","DisplayPosition":{"Latitude":51.55071,"Longitude":-0.33946},"MapView":{"TopLeft":{"Latitude":51.55075,"Longitude":-0.34034},"BottomRight":{"Latitude":51.55071,"Longitude":-0.33946}},"Address":{"Label":"Horsenden Lane North, Greenford, UB6 0, United Kingdom","Country":"GBR","State":"England","County":"Middlesex","City":"Greenford","District":"Greenford","Street":"Horsenden Lane North","PostalCode":"UB6 0","AdditionalData":[{"value":"United Kingdom","key":"CountryName"},{"value":"England","key":"StateName"},{"value":"Middlesex","key":"CountyName"}]},"MapReference":{"ReferenceId":"25350852","Spot":0.0,"SideOfStreet":"left","StateId":"20248595","CountyId":"20337579","CityId":"20337593","DistrictId":"20337594"}}},{"Relevance":1.0,"Distance":47.7,"MatchLevel":"houseNumber","MatchQuality":{"Country":1.0,"State":1.0,"County":1.0,"City":1.0,"District":1.0,"Street":[1.0],"HouseNumber":1.0,"PostalCode":1.0},"MatchType":"interpolated","Location":{"LocationId":"NT_rNq4ezkAjklNIeb9tkJlIB_xA","LocationType":"point","DisplayPosition":{"Latitude":51.55087,"Longitude":-0.338},"MapView":{"TopLeft":{"Latitude":51.5519942,"Longitude":-0.3398078},"BottomRight":{"Latitude":51.5497458,"Longitude":-0.3361922}},"Address":{"Label":"1 Ennismore Avenue, Greenford, UB6 0JJ, United Kingdom","Country":"GBR","State":"England","County":"Middlesex","City":"Greenford","District":"Greenford","Street":"Ennismore Avenue","HouseNumber":"1","PostalCode":"UB6 0JJ","AdditionalData":[{"value":"United Kingdom","key":"CountryName"},{"value":"England","key":"StateName"},{"value":"Middlesex","key":"CountyName"}]},"MapReference":{"ReferenceId":"25350856","Spot":0.08,"SideOfStreet":"left","StateId":"20248595","CountyId":"20337579","CityId":"20337593","DistrictId":"20337594","AddressId":"749406847","RoadLinkId":"82972935"}}},{"Relevance":1.0,"Distance":56.4,"MatchLevel":"postalCode","MatchQuality":{"PostalCode":1.0},"MatchType":"interpolated","Location":{"LocationId":"NT_KskomPws9WvA23eVOWdLAA_xMTM2A","LocationType":"point","DisplayPosition":{"Latitude":51.55103,"Longitude":-0.33942},"MapView":{"TopLeft":{"Latitude":51.5600232,"Longitude":-0.3538828},"BottomRight":{"Latitude":51.5420368,"Longitude":-0.3249572}},"Address":{"Label":"UB6 0AJ, Greenford, England, United Kingdom","Country":"GBR","State":"England","County":"Middlesex","City":"Greenford","PostalCode":"UB6 0AJ","AdditionalData":[{"value":"United Kingdom","key":"CountryName"},{"value":"England","key":"StateName"},{"value":"Middlesex","key":"CountyName"}]},"MapReference":{"ReferenceId":"758745223","Spot":0.31,"SideOfStreet":"neither","StateId":"20248595","CountyId":"20337579","CityId":"20337593"}}}]}]}}