{"Response":{"MetaInfo":{"Timestamp":"2020-03-28T11:15:51.221+0000","NextPageInformation":"2"},"View":[{"_type":"SearchResultsViewType","ViewId":0,"Result":[{"Relevance":1.0,"Distance":0.0,"Direction":0.0,"MatchLevel":"district","MatchQuality":{"Country":1.0,"State":1.0,"County":1.0,"City":1.0,"District":1.0,"PostalCode":1.0},"Location":{"LocationId":"NT_uhc-w8aWZAqli8u3uASKfC","LocationType":"point","DisplayPosition":{"Latitude":51.5538134,"Longitude":-0.1613357},"MapView":{"TopLeft":{"Latitude":51.57292,"Longitude":-0.197},"BottomRight":{"Latitude":51.53641,"Longitude":-0.14968}},"Address":{"Label":"NW3, London, England, United Kingdom","Country":"GBR","State":"England","County":"London","City":"London","District":"NW3","PostalCode":"NW3 1","AdditionalData":[{"value":"United Kingdom","key":"CountryName"},{"value":"England","key":"StateName"},{"value":"London","key":"CountyName"}]},"MapReference":{"ReferenceId":"25400147","SideOfStreet":"neither","StateId":"20248595","CountyId":"20337453","CityId":"20337454","DistrictId":"20337485"}}},{"Relevance":1.0,"Distance":9.4,"MatchLevel":"houseNumber","MatchQuality":{"Country":1.0,"State":1.0,"County":1.0,"City":1.0,"District":1.0,"Street":[1.0],"HouseNumber":1.0,"PostalCode":1.0},"MatchType":"interpolated","Location":{"LocationId":"NT_ez.wjgZpUmUjQOAdH.GS0C_l_77740355_R_yA","LocationType":"point","DisplayPosition":{"Latitude":51.5539551,"Longitude":-0.1613666},"MapView":{"TopLeft":{"Latitude":51.5550792,"Longitude":-0.1631746},"BottomRight":{"Latitude":51.5528309,"Longitude":-0.1595587}},"Address":{"Label":"2 Cressy Road, London, NW3 2, United Kingdom","Country":"GBR","State":"England","County":"London","City":"London","District":"Hampstead","Street":"Cressy Road","HouseNumber":"2","PostalCode":"NW3 2","AdditionalData":[{"value":"United Kingdom","key":"CountryName"},{"value":"England","key":"StateName"},{"value":"London","key":"CountyName"}]},"MapReference":{"ReferenceId":"77740355","Spot":0.51,"SideOfStreet":"right","StateId":"20248595","CountyId":"20337453","CityId":"20337454"}}},{"Relevance":1.0,"Distance":9.8,"MatchLevel":"houseNumber","MatchQuality":{"Country":1.0,"State":1.0,"County":1.0,"City":1.0,"District":1.0,"Street":[1.0],"HouseNumber":1.0,"PostalCode":1.0},"MatchType":"interpolated","Location":{"LocationId":"NT_ez.wjgZpUmUjQOAdH.GS0C_yA","LocationType":"point","DisplayPosition":{"Latitude":51.55376,"Longitude":-0.1615},"MapView":{"TopLeft":{"Latitude":51.5548842,"Longitude":-0.163308},"BottomRight":{"Latitude":51.5526358,"Longitude":-0.159692}},"Address":{"Label":"2 Cressy Road, London, NW3 2NA, United Kingdom","Country":"GBR","State":"England","County":"London","City":"London","District":"Hampstead","Street":"Cressy Road","HouseNumber":"2","PostalCode":"NW3 2NA","AdditionalData":[{"value":"United Kingdom","key":"CountryName"},{"value":"England","key":"StateName"},{"value":"London","key":"CountyName"}]},"MapReference":{"ReferenceId":"77740354","Spot":0.86,"SideOfStreet":"right","StateId":"20248595","CountyId":"20337453","CityId":"20337454","AddressId":"748158082","RoadLinkId":"82927771"}}},{"Relevance":1.0,"Distance":24.2,"MatchLevel":"postalCode","MatchQuality":{"PostalCode":1.0},"MatchType":"interpolated","Location":{"LocationId":"NT_ez.wjgZpUmUjQOAdH.GS0C_l_77740355_R_yA","LocationType":"point","DisplayPosition":{"Latitude":51.55403,"Longitude":-0.16137},"MapView":{"TopLeft":{"Latitude":51.5630232,"Longitude":-0.1758337},"BottomRight":{"Latitude":51.5450368,"Longitude":-0.1469063}},"Address":{"Label":"NW3 2ND, London, England, United Kingdom","Country":"GBR","State":"England","County":"London","City":"London","PostalCode":"NW3 2ND","AdditionalData":[{"value":"United Kingdom","key":"CountryName"},{"value":"England","key":"StateName"},{"value":"London","key":"CountyName"}]},"MapReference":{"ReferenceId":"77740355","Spot":0.51,"SideOfStreet":"neither","StateId":"20248595","CountyId":"20337453","CityId":"20337454"}}},{"Relevance":1.0,"Distance":26.1,"MatchLevel":"houseNumber","MatchQuality":{"Country":1.0,"State":1.0,"County":1.0,"City":1.0,"District":1.0,"Street":[1.0],"HouseNumber":1.0,"PostalCode":1.0},"MatchType":"interpolated","Location":{"LocationId":"NT_KxHWS3YQia-Jmc4sjaRq0C_4YD","LocationType":"point","DisplayPosition":{"Latitude":51.5535,"Longitude":-0.16149},"MapView":{"TopLeft":{"Latitude":51.5546242,"Longitude":-0.1632979},"BottomRight":{"Latitude":51.5523758,"Longitude":-0.1596821}},"Address":{"Label":"86 Fleet Road, London, NW3 2QT, United Kingdom","Country":"GBR","State":"England","County":"London","City":"London","District":"Hampstead","Street":"Fleet Road","HouseNumber":"86","PostalCode":"NW3 2QT","AdditionalData":[{"value":"United Kingdom","key":"CountryName"},{"value":"England","key":"StateName"},{"value":"London","key":"CountyName"}]},"MapReference":{"ReferenceId":"25349745","Spot":0.58,"SideOfStreet":"right","StateId":"20248595","CountyId":"20337453","CityId":"20337454","AddressId":"747645390","RoadLinkId":"82688361"}}},{"Relevance":1.0,"Distance":26.6,"MatchLevel":"postalCode","MatchQuality":{"PostalCode":1.0},"MatchType":"interpolated","Location":{"LocationId":"NT_5GhL2zMzsmfJiSOh9kVTYC_1A","LocationType":"point","DisplayPosition":{"Latitude":51.5538,"Longitude":-0.16172},"MapView":{"TopLeft":{"Latitude":51.5627932,"Longitude":-0.1761837},"BottomRight":{"Latitude":51.5448068,"Longitude":-0.1472563}},"Address":{"Label":"NW3 2NH, London, England, United Kingdom","Country":"GBR","State":"England","County":"London","City":"London","PostalCode":"NW3 2NH","AdditionalData":[{"value":"United Kingdom","key":"CountryName"},{"value":"England","key":"StateName"},{"value":"London","key":"CountyName"}]},"MapReference":{"ReferenceId":"77740373","Spot":1.0,"SideOfStreet":"neither","StateId":"20248595","CountyId":"20337453","CityId":"20337454"}}},{"Relevance":1.0,"Distance":26.9,"MatchLevel":"houseNumber","MatchQuality":{"Country":1.0,"State":1.0,"County":1.0,"City":1.0,"District":1.0,"Street":[1.0],"HouseNumber":1.0,"PostalCode":1.0},"MatchType":"interpolated","Location":{"LocationId":"NT_5GhL2zMzsmfJiSOh9kVTYC_1A","LocationType":"point","DisplayPosition":{"Latitude":51.55385,"Longitude":-0.16172},"MapView":{"TopLeft":{"Latitude":51.5549742,"Longitude":-0.163528},"BottomRight":{"Latitude":51.5527258,"Longitude":-0.159912}},"Address":{"Label":"5 Ella Mews, London, NW3 2NH, United Kingdom","Country":"GBR","State":"England","County":"London","City":"London","District":"Hampstead","Street":"Ella Mews","HouseNumber":"5","PostalCode":"NW3 2NH","AdditionalData":[{"value":"United Kingdom","key":"CountryName"},{"value":"England","key":"StateName"},{"value":"London","key":"CountyName"}]},"MapReference":{"ReferenceId":"77740373","Spot":1.0,"SideOfStreet":"right","StateId":"20248595","CountyId":"20337453","CityId":"20337454","AddressId":"748549561","RoadLinkId":"82441585"}}},{"Relevance":1.0,"Distance":33.3,"MatchLevel":"street","MatchQuality":{"Country":1.0,"State":1.0,"County":1.0,"City":1.0,"District":1.0,"Street":[1.0],"PostalCode":1.0},"Location":{"LocationId":"NT_ez.wjgZpUmUjQOAdH.GS0C_l_77734993_R","LocationType":"point","DisplayPosition":{"Latitude":51.55411,"Longitude":-0.16127},"MapView":{"TopLeft":{"Latitude":51.55447,"Longitude":-0.16127},"BottomRight":{"Latitude":51.55411,"Longitude":-0.16103}},"Address":{"Label":"Cressy Road, London, NW3 2, United Kingdom","Country":"GBR","State":"England","County":"London","City":"London","District":"Hampstead","Street":"Cressy Road","PostalCode":"NW3 2","AdditionalData":[{"value":"United Kingdom","key":"CountryName"},{"value":"England","key":"StateName"},{"value":"London","key":"CountyName"}]},"MapReference":{"ReferenceId":"77734993","Spot":0.0,"SideOfStreet":"right","StateId":"20248595","CountyId":"20337453","CityId":"20337454"}}},{"Relevance":1.0,"Distance":33.3,"MatchLevel":"houseNumber","MatchQuality":{"Country":1.0,"State":1.0,"County":1.0,"City":1.0,"District":1.0,"Street":[1.0],"HouseNumber":1.0,"PostalCode":1.0},"MatchType":"interpolated","Location":{"LocationId":"NT_KxHWS3YQia-Jmc4sjaRq0C_5AD","LocationType":"point","DisplayPosition":{"Latitude":51.55354,"Longitude":-0.16178},"MapView":{"TopLeft":{"Latitude":51.5546642,"Longitude":-0.1635879},"BottomRight":{"Latitude":51.5524158,"Longitude":-0.1599721}},"Address":{"Label":"90 Fleet Road, London, NW3 2QX, United Kingdom","Country":"GBR","State":"England","County":"London","City":"London","District":"Hampstead","Street":"Fleet Road","HouseNumber":"90","PostalCode":"NW3 2QX","AdditionalData":[{"value":"United Kingdom","key":"CountryName"},{"value":"England","key":"StateName"},{"value":"London","key":"CountyName"}]},"MapReference":{"ReferenceId":"566005567","Spot":0.08,"SideOfStreet":"right","StateId":"20248595","CountyId":"20337453","CityId":"20337454","AddressId":"747625717","RoadLinkId":"82704878"}}},{"Relevance":1.0,"Distance":36.7,"MatchLevel":"houseNumber","MatchQuality":{"Country":1.0,"State":1.0,"County":1.0,"City":1.0,"District":1.0,"Street":[1.0],"HouseNumber":1.0,"PostalCode":1.0},"MatchType":"interpolated","Location":{"LocationId":"NT_KxHWS3YQia-Jmc4sjaRq0C_4AD","LocationType":"point","DisplayPosition":{"Latitude":51.55342,"Longitude":-0.16123},"MapView":{"TopLeft":{"Latitude":51.5545442,"Longitude":-0.1630379},"BottomRight":{"Latitude":51.5522958,"Longitude":-0.1594221}},"Address":{"Label":"80 Fleet Road, London, NW3 2QT, United Kingdom","Country":"GBR","State":"England","County":"London","City":"London","District":"Hampstead","Street":"Fleet Road","HouseNumber":"80","PostalCode":"NW3 2QT","AdditionalData":[{"value":"United Kingdom","key":"CountryName"},{"value":"England","key":"StateName"},{"value":"London","key":"CountyName"}]},"MapReference":{"ReferenceId":"957603205","Spot":0.95,"SideOfStreet":"right","StateId":"20248595","CountyId":"20337453","CityId":"20337454","AddressId":"748047466","RoadLinkId":"300560278"}}}]}]}}