{"Response":{"MetaInfo":{"Timestamp":"2020-03-28T10:32:35.224+0000","NextPageInformation":"2"},"View":[{"_type":"SearchResultsViewType","ViewId":0,"Result":[{"Relevance":1.0,"Distance":0.0,"Direction":0.0,"MatchLevel":"district","MatchQuality":{"Country":1.0,"State":1.0,"County":1.0,"City":1.0,"District":1.0,"PostalCode":1.0},"Location":{"LocationId":"NT_0t4oXsgIdsDRWVxGtJ8wlD","LocationType":"point","DisplayPosition":{"Latitude":51.5270286,"Longitude":-0.0132584},"MapView":{"TopLeft":{"Latitude":51.54141,"Longitude":-0.04447},"BottomRight":{"Latitude":51.51641,"Longitude":-0.00164}},"Address":{"Label":"Bow, London, England, United Kingdom","Country":"GBR","State":"England","County":"London","City":"London","District":"Bow","PostalCode":"E3 2","AdditionalData":[{"value":"United Kingdom","key":"CountryName"},{"value":"England","key":"StateName"},{"value":"London","key":"CountyName"}]},"MapReference":{"ReferenceId":"1217898998","SideOfStreet":"neither","StateId":"20248595","CountyId":"20337453","CityId":"20337454"}}},{"Relevance":1.0,"Distance":9.9,"MatchLevel":"houseNumber","MatchQuality":{"Country":1.0,"State":1.0,"County":1.0,"City":1.0,"District":1.0,"Street":[1.0],"HouseNumber":1.0,"PostalCode":1.0},"MatchType":"interpolated","Location":{"LocationId":"NT_bEfkhAOUngVZxxj4LjoicA_l_1113390179_R_1A","LocationType":"point","DisplayPosition":{"Latitude":51.52724,"Longitude":-0.01336},"MapView":{"TopLeft":{"Latitude":51.5283642,"Longitude":-0.0151669},"BottomRight":{"Latitude":51.5261159,"Longitude":-0.0115531}},"Address":{"Label":"5 Bruce Road, London, E3 3, United Kingdom","Country":"GBR","State":"England","County":"London","City":"London","District":"Bow","Street":"Bruce Road","HouseNumber":"5","PostalCode":"E3 3","AdditionalData":[{"value":"United Kingdom","key":"CountryName"},{"value":"England","key":"StateName"},{"value":"London","key":"CountyName"}]},"MapReference":{"ReferenceId":"1113390179","Spot":0.0,"SideOfStreet":"right","StateId":"20248595","CountyId":"20337453","CityId":"20337454"}}},{"Relevance":1.0,"Distance":18.1,"MatchLevel":"houseNumber","MatchQuality":{"Country":1.0,"State":1.0,"County":1.0,"City":1.0,"District":1.0,"Street":[1.0],"PostalCode":1.0},"MatchType":"interpolated","Location":{"LocationId":"NT_bEfkhAOUngVZxxj4LjoicA","LocationType":"point","DisplayPosition":{"Latitude":51.52718,"Longitude":-0.01361},"MapView":{"TopLeft":{"Latitude":51.5283042,"Longitude":-0.0154169},"BottomRight":{"Latitude":51.5260558,"Longitude":-0.0118031}},"Address":{"Label":"Bruce Road, London, E3 3, United Kingdom","Country":"GBR","State":"England","County":"London","City":"London","District":"Bow","Street":"Bruce Road","PostalCode":"E3 3","AdditionalData":[{"value":"United Kingdom","key":"CountryName"},{"value":"England","key":"StateName"},{"value":"London","key":"CountyName"}],"Building":"Polar Harca Housing Office"},"MapReference":{"ReferenceId":"1160994291","Spot":0.46,"SideOfStreet":"right","StateId":"20248595","CountyId":"20337453","CityId":"20337454","AddressId":"763504124","RoadLinkId":"467289112"}}},{"Relevance":1.0,"Distance":25.5,"MatchLevel":"houseNumber","MatchQuality":{"Country":1.0,"State":1.0,"County":1.0,"City":1.0,"District":1.0,"Street":[1.0],"HouseNumber":1.0,"PostalCode":1.0},"MatchType":"interpolated","Location":{"LocationId":"NT_OaXfey1PTA620MYu7mPFMB_zkD","LocationType":"point","DisplayPosition":{"Latitude":51.52712,"Longitude":-0.01292},"MapView":{"TopLeft":{"Latitude":51.5282442,"Longitude":-0.0147269},"BottomRight":{"Latitude":51.5259958,"Longitude":-0.0111131}},"Address":{"Label":"39 St Leonard's Street, London, E3 3BS, United Kingdom","Country":"GBR","State":"England","County":"London","City":"London","District":"Bow","Street":"St Leonard's Street","HouseNumber":"39","PostalCode":"E3 3BS","AdditionalData":[{"value":"United Kingdom","key":"CountryName"},{"value":"England","key":"StateName"},{"value":"London","key":"CountyName"}]},"MapReference":{"ReferenceId":"25362199","Spot":0.5,"SideOfStreet":"right","StateId":"20248595","CountyId":"20337453","CityId":"20337454","AddressId":"763633338","RoadLinkId":"82326936"}}},{"Relevance":1.0,"Distance":37.7,"MatchLevel":"houseNumber","MatchQuality":{"Country":1.0,"State":1.0,"County":1.0,"City":1.0,"District":1.0,"Street":[1.0],"HouseNumber":1.0,"PostalCode":1.0},"MatchType":"interpolated","Location":{"LocationId":"NT_OaXfey1PTA620MYu7mPFMB_zUD","LocationType":"point","DisplayPosition":{"Latitude":51.52736,"Longitude":-0.01314},"MapView":{"TopLeft":{"Latitude":51.5284842,"Longitude":-0.0149469},"BottomRight":{"Latitude":51.5262358,"Longitude":-0.0113331}},"Address":{"Label":"35 St Leonard's Street, London, E3 3BS, United Kingdom","Country":"GBR","State":"England","County":"London","City":"London","District":"Bow","Street":"St Leonard's Street","HouseNumber":"35","PostalCode":"E3 3BS","AdditionalData":[{"value":"United Kingdom","key":"CountryName"},{"value":"England","key":"StateName"},{"value":"London","key":"CountyName"}]},"MapReference":{"ReferenceId":"1034542462","Spot":0.63,"SideOfStreet":"right","StateId":"20248595","CountyId":"20337453","CityId":"20337454","AddressId":"763619772","RoadLinkId":"356488050"}}},{"Relevance":1.0,"Distance":38.2,"MatchLevel":"houseNumber","MatchQuality":{"Country":1.0,"State":1.0,"County":1.0,"City":1.0,"District":1.0,"Street":[1.0],"HouseNumber":1.0,"PostalCode":1.0},"MatchType":"interpolated","Location":{"LocationId":"NT_bEfkhAOUngVZxxj4LjoicA_3A","LocationType":"point","DisplayPosition":{"Latitude":51.52712,"Longitude":-0.01386},"MapView":{"TopLeft":{"Latitude":51.5282442,"Longitude":-0.0156669},"BottomRight":{"Latitude":51.5259958,"Longitude":-0.0120531}},"Address":{"Label":"7 Bruce Road, London, E3 3HN, United Kingdom","Country":"GBR","State":"England","County":"London","City":"London","District":"Bow","Street":"Bruce Road","HouseNumber":"7","PostalCode":"E3 3HN","AdditionalData":[{"value":"United Kingdom","key":"CountryName"},{"value":"England","key":"StateName"},{"value":"London","key":"CountyName"}]},"MapReference":{"ReferenceId":"1164629342","Spot":0.85,"SideOfStreet":"right","StateId":"20248595","CountyId":"20337453","CityId":"20337454","AddressId":"748547014","RoadLinkId":"470937057"}}},{"Relevance":1.0,"Distance":47.2,"MatchLevel":"houseNumber","MatchQuality":{"Country":1.0,"State":1.0,"County":1.0,"City":1.0,"District":1.0,"Street":[1.0],"HouseNumber":1.0,"PostalCode":1.0},"MatchType":"interpolated","Location":{"LocationId":"NT_OaXfey1PTA620MYu7mPFMB_0kD","LocationType":"point","DisplayPosition":{"Latitude":51.52685,"Longitude":-0.01264},"MapView":{"TopLeft":{"Latitude":51.5279742,"Longitude":-0.0144469},"BottomRight":{"Latitude":51.5257258,"Longitude":-0.0108331}},"Address":{"Label":"49 St Leonard's Street, London, E3 3BS, United Kingdom","Country":"GBR","State":"England","County":"London","City":"London","District":"Bow","Street":"St Leonard's Street","HouseNumber":"49","PostalCode":"E3 3BS","AdditionalData":[{"value":"United Kingdom","key":"CountryName"},{"value":"England","key":"StateName"},{"value":"London","key":"CountyName"}]},"MapReference":{"ReferenceId":"25399659","Spot":0.74,"SideOfStreet":"right","StateId":"20248595","CountyId":"20337453","CityId":"20337454","AddressId":"763612607","RoadLinkId":"83020674"}}},{"Relevance":1.0,"Distance":48.0,"MatchLevel":"houseNumber","MatchQuality":{"Country":1.0,"State":1.0,"County":1.0,"City":1.0,"District":1.0,"Street":[1.0],"HouseNumber":1.0,"PostalCode":1.0},"MatchType":"interpolated","Location":{"LocationId":"NT_OaXfey1PTA620MYu7mPFMB_zED","LocationType":"point","DisplayPosition":{"Latitude":51.52746,"Longitude":-0.01324},"MapView":{"TopLeft":{"Latitude":51.5285842,"Longitude":-0.0150469},"BottomRight":{"Latitude":51.5263358,"Longitude":-0.0114331}},"Address":{"Label":"31 St Leonard's Street, London, E3 3BS, United Kingdom","Country":"GBR","State":"England","County":"London","City":"London","District":"Bow","Street":"St Leonard's Street","HouseNumber":"31","PostalCode":"E3 3BS","AdditionalData":[{"value":"United Kingdom","key":"CountryName"},{"value":"England","key":"StateName"},{"value":"London","key":"CountyName"}]},"MapReference":{"ReferenceId":"1034542463","Spot":0.23,"SideOfStreet":"right","StateId":"20248595","CountyId":"20337453","CityId":"20337454","AddressId":"763409057","RoadLinkId":"356488051"}}},{"Relevance":1.0,"Distance":52.7,"MatchLevel":"postalCode","MatchQuality":{"PostalCode":1.0},"MatchType":"interpolated","Location":{"LocationId":"NT_OaXfey1PTA620MYu7mPFMB_zkD","LocationType":"point","DisplayPosition":{"Latitude":51.52694,"Longitude":-0.01251},"MapView":{"TopLeft":{"Latitude":51.5359332,"Longitude":-0.0269651},"BottomRight":{"Latitude":51.5179468,"Longitude":0.0019451}},"Address":{"Label":"E3 3BS, London, England, United Kingdom","Country":"GBR","State":"England","County":"London","City":"London","PostalCode":"E3 3BS","AdditionalData":[{"value":"United Kingdom","key":"CountryName"},{"value":"England","key":"StateName"},{"value":"London","key":"CountyName"}]},"MapReference":{"ReferenceId":"25362199","Spot":0.5,"SideOfStreet":"neither","StateId":"20248595","CountyId":"20337453","CityId":"20337454"}}},{"Relevance":1.0,"Distance":56.9,"MatchLevel":"houseNumber","MatchQuality":{"Country":1.0,"State":1.0,"County":1.0,"City":1.0,"District":1.0,"Street":[1.0],"HouseNumber":1.0,"PostalCode":1.0},"MatchType":"interpolated","Location":{"LocationId":"NT_DlYdNzwIwEnQkkBFHY-jnB_xA","LocationType":"point","DisplayPosition":{"Latitude":51.52741,"Longitude":-0.01271},"MapView":{"TopLeft":{"Latitude":51.5285342,"Longitude":-0.0145169},"BottomRight":{"Latitude":51.5262858,"Longitude":-0.0109031}},"Address":{"Label":"1 Franklin Street, London, E3 3DG, United Kingdom","Country":"GBR","State":"England","County":"London","City":"London","District":"Bow","Street":"Franklin Street","HouseNumber":"1","PostalCode":"E3 3DG","AdditionalData":[{"value":"United Kingdom","key":"CountryName"},{"value":"England","key":"StateName"},{"value":"London","key":"CountyName"}]},"MapReference":{"ReferenceId":"565993672","Spot":0.53,"SideOfStreet":"left","StateId":"20248595","CountyId":"20337453","CityId":"20337454","AddressId":"748578093","RoadLinkId":"82567722"}}}]}]}}