{"Response":{"MetaInfo":{"Timestamp":"2020-03-28T09:52:07.764+0000","NextPageInformation":"2"},"View":[{"_type":"SearchResultsViewType","ViewId":0,"Result":[{"Relevance":1.0,"Distance":0.0,"Direction":0.0,"MatchLevel":"district","MatchQuality":{"Country":1.0,"State":1.0,"County":1.0,"City":1.0,"District":1.0,"PostalCode":1.0},"Location":{"LocationId":"NT_lWnz6MxxybVNKipf8-.b4A","LocationType":"point","DisplayPosition":{"Latitude":51.5312807,"Longitude":-2.5761962},"MapView":{"TopLeft":{"Latitude":51.55026,"Longitude":-2.62289},"BottomRight":{"Latitude":51.5164,"Longitude":-2.53942}},"Address":{"Label":"Patchway, Bristol, England, United Kingdom","Country":"GBR","State":"England","County":"Avon","City":"Bristol","District":"Patchway","PostalCode":"BS34 6","AdditionalData":[{"value":"United Kingdom","key":"CountryName"},{"value":"England","key":"StateName"},{"value":"Avon","key":"CountyName"}]},"MapReference":{"ReferenceId":"26749207","SideOfStreet":"neither","StateId":"20248595","CountyId":"20352323","CityId":"20352420","DistrictId":"20352523"}}},{"Relevance":1.0,"Distance":14.9,"MatchLevel":"street","MatchQuality":{"Country":1.0,"State":1.0,"County":1.0,"City":1.0,"District":1.0,"Street":[1.0],"PostalCode":1.0},"Location":{"LocationId":"NT_5NvKs6uHCMGDTKeucnvl3C_l_26749527_R","LocationType":"point","DisplayPosition":{"Latitude":51.5311835,"Longitude":-2.576345},"MapView":{"TopLeft":{"Latitude":51.53162,"Longitude":-2.57663},"BottomRight":{"Latitude":51.53113,"Longitude":-2.57631}},"Address":{"Label":"Durban Road, Bristol, BS34 5, United Kingdom","Country":"GBR","State":"England","County":"Avon","City":"Bristol","District":"Patchway","Street":"Durban Road","PostalCode":"BS34 5","AdditionalData":[{"value":"United Kingdom","key":"CountryName"},{"value":"England","key":"StateName"},{"value":"Avon","key":"CountyName"}]},"MapReference":{"ReferenceId":"26749527","Spot":0.11,"SideOfStreet":"right","StateId":"20248595","CountyId":"20352323","CityId":"20352420","DistrictId":"20352523"}}},{"Relevance":1.0,"Distance":17.9,"MatchLevel":"postalCode","MatchQuality":{"PostalCode":1.0},"Location":{"LocationId":"NT_5NvKs6uHCMGDTKeucnvl3C_l_26749527_R","LocationType":"point","DisplayPosition":{"Latitude":51.53138,"Longitude":-2.5764},"MapView":{"TopLeft":{"Latitude":51.5403732,"Longitude":-2.5908565},"BottomRight":{"Latitude":51.5223868,"Longitude":-2.5619435}},"Address":{"Label":"BS34 5PE, Bristol, England, United Kingdom","Country":"GBR","State":"England","County":"Avon","City":"Bristol","PostalCode":"BS34 5PE","AdditionalData":[{"value":"United Kingdom","key":"CountryName"},{"value":"England","key":"StateName"},{"value":"Avon","key":"CountyName"}]},"MapReference":{"ReferenceId":"26749527","Spot":0.11,"SideOfStreet":"neither","StateId":"20248595","CountyId":"20352323","CityId":"20352420"}}},{"Relevance":1.0,"Distance":18.5,"MatchLevel":"street","MatchQuality":{"Country":1.0,"State":1.0,"County":1.0,"City":1.0,"District":1.0,"Street":[1.0],"PostalCode":1.0},"Location":{"LocationId":"NT_5NvKs6uHCMGDTKeucnvl3C_l_779699240_R","LocationType":"point","DisplayPosition":{"Latitude":51.53113,"Longitude":-2.57631},"MapView":{"TopLeft":{"Latitude":51.53113,"Longitude":-2.57631},"BottomRight":{"Latitude":51.531,"Longitude":-2.57623}},"Address":{"Label":"Durban Road, Bristol, BS34 5, United Kingdom","Country":"GBR","State":"England","County":"Avon","City":"Bristol","District":"Patchway","Street":"Durban Road","PostalCode":"BS34 5","AdditionalData":[{"value":"United Kingdom","key":"CountryName"},{"value":"England","key":"StateName"},{"value":"Avon","key":"CountyName"}]},"MapReference":{"ReferenceId":"779699240","Spot":1.0,"SideOfStreet":"right","StateId":"20248595","CountyId":"20352323","CityId":"20352420","DistrictId":"20352523"}}},{"Relevance":1.0,"Distance":31.3,"MatchLevel":"street","MatchQuality":{"Country":1.0,"State":1.0,"County":1.0,"City":1.0,"District":1.0,"Street":[1.0],"PostalCode":1.0},"Location":{"LocationId":"NT_5NvKs6uHCMGDTKeucnvl3C_l_779699239_R","LocationType":"point","DisplayPosition":{"Latitude":51.531,"Longitude":-2.57623},"MapView":{"TopLeft":{"Latitude":51.531,"Longitude":-2.57623},"BottomRight":{"Latitude":51.53077,"Longitude":-2.57608}},"Address":{"Label":"Durban Road, Bristol, BS34 5, United Kingdom","Country":"GBR","State":"England","County":"Avon","City":"Bristol","District":"Patchway","Street":"Durban Road","PostalCode":"BS34 5","AdditionalData":[{"value":"United Kingdom","key":"CountryName"},{"value":"England","key":"StateName"},{"value":"Avon","key":"CountyName"}]},"MapReference":{"ReferenceId":"779699239","Spot":1.0,"SideOfStreet":"right","StateId":"20248595","CountyId":"20352323","CityId":"20352420","DistrictId":"20352523"}}},{"Relevance":1.0,"Distance":38.9,"MatchLevel":"houseNumber","MatchQuality":{"Country":1.0,"State":1.0,"County":1.0,"City":1.0,"District":1.0,"Street":[1.0],"HouseNumber":1.0,"PostalCode":1.0},"MatchType":"interpolated","Location":{"LocationId":"NT_Cj0KYuDLYEpcZTYmhpYSoD_l_1198881867_L_2ED","LocationType":"point","DisplayPosition":{"Latitude":51.5310288,"Longitude":-2.5766454},"MapView":{"TopLeft":{"Latitude":51.5321529,"Longitude":-2.5784525},"BottomRight":{"Latitude":51.5299046,"Longitude":-2.5748384}},"Address":{"Label":"61 Cranbourne Road, Bristol, BS34 5DZ, United Kingdom","Country":"GBR","State":"England","County":"Avon","City":"Bristol","District":"Patchway","Street":"Cranbourne Road","HouseNumber":"61","PostalCode":"BS34 5DZ","AdditionalData":[{"value":"United Kingdom","key":"CountryName"},{"value":"England","key":"StateName"},{"value":"Avon","key":"CountyName"}]},"MapReference":{"ReferenceId":"1198881867","Spot":0.9,"SideOfStreet":"left","StateId":"20248595","CountyId":"20352323","CityId":"20352420","DistrictId":"20352523"}}},{"Relevance":1.0,"Distance":46.2,"MatchLevel":"houseNumber","MatchQuality":{"Country":1.0,"State":1.0,"County":1.0,"City":1.0,"District":1.0,"Street":[1.0],"HouseNumber":1.0,"PostalCode":1.0},"MatchType":"interpolated","Location":{"LocationId":"NT_c2dn5zpCWsaDZdJzbU1nWA_l_26749504_L_xIDN","LocationType":"point","DisplayPosition":{"Latitude":51.53167,"Longitude":-2.5764299},"MapView":{"TopLeft":{"Latitude":51.5327942,"Longitude":-2.578237},"BottomRight":{"Latitude":51.5305459,"Longitude":-2.5746228}},"Address":{"Label":"124 Rodway Road, Bristol, BS34 5PG, United Kingdom","Country":"GBR","State":"England","County":"Avon","City":"Bristol","District":"Patchway","Street":"Rodway Road","HouseNumber":"124","PostalCode":"BS34 5PG","AdditionalData":[{"value":"United Kingdom","key":"CountryName"},{"value":"England","key":"StateName"},{"value":"Avon","key":"CountyName"}]},"MapReference":{"ReferenceId":"26749504","Spot":0.21,"SideOfStreet":"left","StateId":"20248595","CountyId":"20352323","CityId":"20352420","DistrictId":"20352523"}}},{"Relevance":1.0,"Distance":57.1,"MatchLevel":"street","MatchQuality":{"Country":1.0,"State":1.0,"County":1.0,"City":1.0,"District":1.0,"Street":[1.0],"PostalCode":1.0},"Location":{"LocationId":"NT_tHnHlVkOl4-gKQ1yh-jgvB_l_26749541_L","LocationType":"point","DisplayPosition":{"Latitude":51.5307739,"Longitude":-2.5760649},"MapView":{"TopLeft":{"Latitude":51.53209,"Longitude":-2.57608},"BottomRight":{"Latitude":51.53077,"Longitude":-2.5711}},"Address":{"Label":"Highwood Road, Bristol, BS34 5, United Kingdom","Country":"GBR","State":"England","County":"Avon","City":"Bristol","District":"Patchway","Street":"Highwood Road","PostalCode":"BS34 5","AdditionalData":[{"value":"United Kingdom","key":"CountryName"},{"value":"England","key":"StateName"},{"value":"Avon","key":"CountyName"}]},"MapReference":{"ReferenceId":"26749541","Spot":0.0,"SideOfStreet":"left","StateId":"20248595","CountyId":"20352323","CityId":"20352420","DistrictId":"20352523"}}},{"Relevance":1.0,"Distance":57.4,"MatchLevel":"street","MatchQuality":{"Country":1.0,"State":1.0,"County":1.0,"City":1.0,"District":1.0,"Street":[1.0],"PostalCode":1.0},"Location":{"LocationId":"NT_tHnHlVkOl4-gKQ1yh-jgvB_l_26749555_L","LocationType":"point","DisplayPosition":{"Latitude":51.53077,"Longitude":-2.57608},"MapView":{"TopLeft":{"Latitude":51.53077,"Longitude":-2.57705},"BottomRight":{"Latitude":51.53052,"Longitude":-2.57608}},"Address":{"Label":"Highwood Road, Bristol, BS34 5, United Kingdom","Country":"GBR","State":"England","County":"Avon","City":"Bristol","District":"Patchway","Street":"Highwood Road","PostalCode":"BS34 5","AdditionalData":[{"value":"United Kingdom","key":"CountryName"},{"value":"England","key":"StateName"},{"value":"Avon","key":"CountyName"}]},"MapReference":{"ReferenceId":"26749555","Spot":1.0,"SideOfStreet":"left","StateId":"20248595","CountyId":"20352323","CityId":"20352420","DistrictId":"20352523"}}},{"Relevance":1.0,"Distance":57.4,"MatchLevel":"street","MatchQuality":{"Country":1.0,"State":1.0,"County":1.0,"City":1.0,"District":1.0,"PostalCode":1.0},"Location":{"LocationId":"NT_s9kixvwUExOn-qMvQCRURD_l_26749546_R","LocationType":"point","DisplayPosition":{"Latitude":51.53077,"Longitude":-2.57608},"MapView":{"TopLeft":{"Latitude":51.53077,"Longitude":-2.57608},"BottomRight":{"Latitude":51.53071,"Longitude":-2.57603}},"Address":{"Label":"Bristol, BS34 5, United Kingdom","Country":"GBR","State":"England","County":"Avon","City":"Bristol","District":"Patchway","PostalCode":"BS34 5","AdditionalData":[{"value":"United Kingdom","key":"CountryName"},{"value":"England","key":"StateName"},{"value":"Avon","key":"CountyName"}]},"MapReference":{"ReferenceId":"26749546","Spot":1.0,"SideOfStreet":"right","StateId":"20248595","CountyId":"20352323","CityId":"20352420","DistrictId":"20352523"}}}]}]}}