{"Response":{"MetaInfo":{"Timestamp":"2020-03-28T10:11:25.770+0000","NextPageInformation":"2"},"View":[{"_type":"SearchResultsViewType","ViewId":0,"Result":[{"Relevance":1.0,"Distance":0.0,"Direction":0.0,"MatchLevel":"district","MatchQuality":{"Country":1.0,"State":1.0,"County":1.0,"City":1.0,"District":1.0,"PostalCode":1.0},"Location":{"LocationId":"NT_cPyW8rU9U2hj-dU7rqyu1C","LocationType":"point","DisplayPosition":{"Latitude":51.5043317,"Longitude":-2.6001273},"MapView":{"TopLeft":{"Latitude":51.51753,"Longitude":-2.65532},"BottomRight":{"Latitude":51.39937,"Longitude":-2.51087}},"Address":{"Label":"Bristol, England, United Kingdom","Country":"GBR","State":"England","County":"Avon","City":"Bristol","District":"Bristol","PostalCode":"BS1 6","AdditionalData":[{"value":"United Kingdom","key":"CountryName"},{"value":"England","key":"StateName"},{"value":"Avon","key":"CountyName"}]},"MapReference":{"ReferenceId":"786168041","SideOfStreet":"neither","StateId":"20248595","CountyId":"20352323","CityId":"20352420","DistrictId":"20352421"}}},{"Relevance":1.0,"Distance":13.8,"MatchLevel":"houseNumber","MatchQuality":{"Country":1.0,"State":1.0,"County":1.0,"City":1.0,"District":1.0,"Street":[1.0],"HouseNumber":1.0,"PostalCode":1.0},"MatchType":"interpolated","Location":{"LocationId":"NT_rDcLGDiqTVkWZLcU1r9OxC_l_26751582_L_yQTN","LocationType":"point","DisplayPosition":{"Latitude":51.5040772,"Longitude":-2.6000479},"MapView":{"TopLeft":{"Latitude":51.5052014,"Longitude":-2.6018539},"BottomRight":{"Latitude":51.502953,"Longitude":-2.5982419}},"Address":{"Label":"245 Greystoke Avenue, Bristol, BS10 6BB, United Kingdom","Country":"GBR","State":"England","County":"Avon","City":"Bristol","District":"Bristol","Street":"Greystoke Avenue","HouseNumber":"245","PostalCode":"BS10 6BB","AdditionalData":[{"value":"United Kingdom","key":"CountryName"},{"value":"England","key":"StateName"},{"value":"Avon","key":"CountyName"}]},"MapReference":{"ReferenceId":"26751582","Spot":0.4,"SideOfStreet":"left","StateId":"20248595","CountyId":"20352323","CityId":"20352420","DistrictId":"20352421"}}},{"Relevance":1.0,"Distance":29.2,"MatchLevel":"houseNumber","MatchQuality":{"Country":1.0,"State":1.0,"County":1.0,"City":1.0,"District":1.0,"Street":[1.0],"HouseNumber":1.0,"PostalCode":1.0},"MatchType":"interpolated","Location":{"LocationId":"NT_hSABtnjl1t1IlKl9Eh-WOB_l_26751445_R_xYDO","LocationType":"point","DisplayPosition":{"Latitude":51.50471,"Longitude":-2.6003199},"MapView":{"TopLeft":{"Latitude":51.5058342,"Longitude":-2.6021259},"BottomRight":{"Latitude":51.5035859,"Longitude":-2.5985139}},"Address":{"Label":"168 Ullswater Road, Bristol, BS10 6EB, United Kingdom","Country":"GBR","State":"England","County":"Avon","City":"Bristol","District":"Bristol","Street":"Ullswater Road","HouseNumber":"168","PostalCode":"BS10 6EB","AdditionalData":[{"value":"United Kingdom","key":"CountryName"},{"value":"England","key":"StateName"},{"value":"Avon","key":"CountyName"}]},"MapReference":{"ReferenceId":"26751445","Spot":0.2,"SideOfStreet":"right","StateId":"20248595","CountyId":"20352323","CityId":"20352420","DistrictId":"20352421"}}},{"Relevance":1.0,"Distance":45.5,"MatchLevel":"postalCode","MatchQuality":{"PostalCode":1.0},"MatchType":"interpolated","Location":{"LocationId":"NT_rDcLGDiqTVkWZLcU1r9OxC_l_26751582_L_yQTN","LocationType":"point","DisplayPosition":{"Latitude":51.50434,"Longitude":-2.59947},"MapView":{"TopLeft":{"Latitude":51.5133332,"Longitude":-2.613918},"BottomRight":{"Latitude":51.4953468,"Longitude":-2.585022}},"Address":{"Label":"BS10 6BB, Bristol, England, United Kingdom","Country":"GBR","State":"England","County":"Avon","City":"Bristol","PostalCode":"BS10 6BB","AdditionalData":[{"value":"United Kingdom","key":"CountryName"},{"value":"England","key":"StateName"},{"value":"Avon","key":"CountyName"}]},"MapReference":{"ReferenceId":"26751582","Spot":0.4,"SideOfStreet":"neither","StateId":"20248595","CountyId":"20352323","CityId":"20352420"}}},{"Relevance":1.0,"Distance":47.7,"MatchLevel":"houseNumber","MatchQuality":{"Country":1.0,"State":1.0,"County":1.0,"City":1.0,"District":1.0,"Street":[1.0],"HouseNumber":1.0,"PostalCode":1.0},"MatchType":"interpolated","Location":{"LocationId":"NT_hSABtnjl1t1IlKl9Eh-WOB_l_26751522_R_xYjN","LocationType":"point","DisplayPosition":{"Latitude":51.5045267,"Longitude":-2.600855},"MapView":{"TopLeft":{"Latitude":51.5056508,"Longitude":-2.602661},"BottomRight":{"Latitude":51.5034025,"Longitude":-2.599049}},"Address":{"Label":"166 Ullswater Road, Bristol, BS10 6EB, United Kingdom","Country":"GBR","State":"England","County":"Avon","City":"Bristol","District":"Bristol","Street":"Ullswater Road","HouseNumber":"166","PostalCode":"BS10 6EB","AdditionalData":[{"value":"United Kingdom","key":"CountryName"},{"value":"England","key":"StateName"},{"value":"Avon","key":"CountyName"}]},"MapReference":{"ReferenceId":"26751522","Spot":0.74,"SideOfStreet":"right","StateId":"20248595","CountyId":"20352323","CityId":"20352420","DistrictId":"20352421"}}},{"Relevance":1.0,"Distance":48.1,"MatchLevel":"postalCode","MatchQuality":{"PostalCode":1.0},"MatchType":"interpolated","Location":{"LocationId":"NT_hSABtnjl1t1IlKl9Eh-WOB_l_26751445_R_xYDO","LocationType":"point","DisplayPosition":{"Latitude":51.50476,"Longitude":-2.60003},"MapView":{"TopLeft":{"Latitude":51.5137532,"Longitude":-2.6144781},"BottomRight":{"Latitude":51.4957668,"Longitude":-2.5855819}},"Address":{"Label":"BS10 6EB, Bristol, England, United Kingdom","Country":"GBR","State":"England","County":"Avon","City":"Bristol","PostalCode":"BS10 6EB","AdditionalData":[{"value":"United Kingdom","key":"CountryName"},{"value":"England","key":"StateName"},{"value":"Avon","key":"CountyName"}]},"MapReference":{"ReferenceId":"26751445","Spot":0.2,"SideOfStreet":"neither","StateId":"20248595","CountyId":"20352323","CityId":"20352420"}}},{"Relevance":1.0,"Distance":58.6,"MatchLevel":"houseNumber","MatchQuality":{"Country":1.0,"State":1.0,"County":1.0,"City":1.0,"District":1.0,"Street":[1.0],"HouseNumber":1.0,"PostalCode":1.0},"MatchType":"interpolated","Location":{"LocationId":"NT_rlu-yLPfnA7JXD51xPOBwB_l_26751446_R_4ED","LocationType":"point","DisplayPosition":{"Latitude":51.50476,"Longitude":-2.60062},"MapView":{"TopLeft":{"Latitude":51.5058842,"Longitude":-2.6024261},"BottomRight":{"Latitude":51.5036359,"Longitude":-2.598814}},"Address":{"Label":"81 Wigton Crescent, Bristol, BS10 6, United Kingdom","Country":"GBR","State":"England","County":"Avon","City":"Bristol","District":"Bristol","Street":"Wigton Crescent","HouseNumber":"81","PostalCode":"BS10 6","AdditionalData":[{"value":"United Kingdom","key":"CountryName"},{"value":"England","key":"StateName"},{"value":"Avon","key":"CountyName"}]},"MapReference":{"ReferenceId":"26751446","Spot":0.15,"SideOfStreet":"right","StateId":"20248595","CountyId":"20352323","CityId":"20352420","DistrictId":"20352421"}}},{"Relevance":1.0,"Distance":65.9,"MatchLevel":"houseNumber","MatchQuality":{"Country":1.0,"State":1.0,"County":1.0,"City":1.0,"District":1.0,"Street":[1.0],"HouseNumber":1.0,"PostalCode":1.0},"MatchType":"interpolated","Location":{"LocationId":"NT_rDcLGDiqTVkWZLcU1r9OxC_l_26751615_R_yYDN","LocationType":"point","DisplayPosition":{"Latitude":51.5038371,"Longitude":-2.5996026},"MapView":{"TopLeft":{"Latitude":51.5049613,"Longitude":-2.6014086},"BottomRight":{"Latitude":51.502713,"Longitude":-2.5977967}},"Address":{"Label":"264 Greystoke Avenue, Bristol, BS10 6BQ, United Kingdom","Country":"GBR","State":"England","County":"Avon","City":"Bristol","District":"Bristol","Street":"Greystoke Avenue","HouseNumber":"264","PostalCode":"BS10 6BQ","AdditionalData":[{"value":"United Kingdom","key":"CountryName"},{"value":"England","key":"StateName"},{"value":"Avon","key":"CountyName"}]},"MapReference":{"ReferenceId":"26751615","Spot":0.29,"SideOfStreet":"right","StateId":"20248595","CountyId":"20352323","CityId":"20352420","DistrictId":"20352421"}}},{"Relevance":1.0,"Distance":74.4,"MatchLevel":"postalCode","MatchQuality":{"PostalCode":1.0},"MatchType":"interpolated","Location":{"LocationId":"NT_rDcLGDiqTVkWZLcU1r9OxC_l_26751615_R_yYDN","LocationType":"point","DisplayPosition":{"Latitude":51.50387,"Longitude":-2.59935},"MapView":{"TopLeft":{"Latitude":51.5128632,"Longitude":-2.6137978},"BottomRight":{"Latitude":51.4948768,"Longitude":-2.5849022}},"Address":{"Label":"BS10 6BQ, Bristol, England, United Kingdom","Country":"GBR","State":"England","County":"Avon","City":"Bristol","PostalCode":"BS10 6BQ","AdditionalData":[{"value":"United Kingdom","key":"CountryName"},{"value":"England","key":"StateName"},{"value":"Avon","key":"CountyName"}]},"MapReference":{"ReferenceId":"26751615","Spot":0.29,"SideOfStreet":"neither","StateId":"20248595","CountyId":"20352323","CityId":"20352420"}}},{"Relevance":1.0,"Distance":81.8,"MatchLevel":"street","MatchQuality":{"Country":1.0,"State":1.0,"County":1.0,"City":1.0,"District":1.0,"Street":[1.0],"PostalCode":1.0},"Location":{"LocationId":"NT_8j2CdnduCFrUoTgCOEtWHD_l_26751404_L","LocationType":"point","DisplayPosition":{"Latitude":51.50498,"Longitude":-2.59957},"MapView":{"TopLeft":{"Latitude":51.50537,"Longitude":-2.59993},"BottomRight":{"Latitude":51.50498,"Longitude":-2.59957}},"Address":{"Label":"Mardale Close, Bristol, BS10 6, United Kingdom","Country":"GBR","State":"England","County":"Avon","City":"Bristol","District":"Bristol","Street":"Mardale Close","PostalCode":"BS10 6","AdditionalData":[{"value":"United Kingdom","key":"CountryName"},{"value":"England","key":"StateName"},{"value":"Avon","key":"CountyName"}]},"MapReference":{"ReferenceId":"26751404","Spot":0.0,"SideOfStreet":"left","StateId":"20248595","CountyId":"20352323","CityId":"20352420","DistrictId":"20352421"}}}]}]}}