{"Response":{"MetaInfo":{"Timestamp":"2020-03-28T11:00:27.797+0000","NextPageInformation":"2"},"View":[{"_type":"SearchResultsViewType","ViewId":0,"Result":[{"Relevance":1.0,"Distance":0.0,"Direction":0.0,"MatchLevel":"city","MatchQuality":{"Country":1.0,"State":1.0,"County":1.0,"City":1.0,"PostalCode":1.0},"Location":{"LocationId":"NT_FGL7qrNSyiUtfDiiLhMRBB","LocationType":"point","DisplayPosition":{"Latitude":51.6621791,"Longitude":7.1230023},"MapView":{"TopLeft":{"Latitude":51.72051,"Longitude":7.02252},"BottomRight":{"Latitude":51.61504,"Longitude":7.20048}},"Address":{"Label":"Marl, Nordrhein-Westfalen, Deutschland","Country":"DEU","State":"Nordrhein-Westfalen","County":"Recklinghausen","City":"Marl","PostalCode":"45768","AdditionalData":[{"value":"Deutschland","key":"CountryName"},{"value":"Nordrhein-Westfalen","key":"StateName"},{"value":"Recklinghausen","key":"CountyName"}]},"MapReference":{"ReferenceId":"1101894655","SideOfStreet":"neither","CountryId":"20147700","StateId":"20157369","CountyId":"20159272","CityId":"20159327"}}},{"Relevance":1.0,"Distance":6.3,"MatchLevel":"street","MatchQuality":{"Country":1.0,"State":1.0,"County":1.0,"City":1.0,"Street":[1.0],"PostalCode":1.0},"Location":{"LocationId":"NT_p.08Gjj5L8QB81ZEXFFdCB_l_587016355_R","LocationType":"point","DisplayPosition":{"Latitude":51.6622225,"Longitude":7.1229444},"MapView":{"TopLeft":{"Latitude":51.66236,"Longitude":7.12292},"BottomRight":{"Latitude":51.66163,"Longitude":7.12345}},"Address":{"Label":"Lipper Weg, 45770 Marl, Deutschland","Country":"DEU","State":"Nordrhein-Westfalen","County":"Recklinghausen","City":"Marl","Street":"Lipper Weg","PostalCode":"45770","AdditionalData":[{"value":"Deutschland","key":"CountryName"},{"value":"Nordrhein-Westfalen","key":"StateName"},{"value":"Recklinghausen","key":"CountyName"}]},"MapReference":{"ReferenceId":"587016355","Spot":0.54,"SideOfStreet":"right","CountryId":"20147700","StateId":"20157369","CountyId":"20159272","CityId":"20159327"}}},{"Relevance":1.0,"Distance":36.9,"MatchLevel":"street","MatchQuality":{"Country":1.0,"State":1.0,"County":1.0,"City":1.0,"PostalCode":1.0},"Location":{"LocationId":"NT_Kc75GwmFq29o2O8PRez9kC_l_587016357_L","LocationType":"point","DisplayPosition":{"Latitude":51.66236,"Longitude":7.12345},"MapView":{"TopLeft":{"Latitude":51.66236,"Longitude":7.12345},"BottomRight":{"Latitude":51.66217,"Longitude":7.12353}},"Address":{"Label":"45770 Marl, Deutschland","Country":"DEU","State":"Nordrhein-Westfalen","County":"Recklinghausen","City":"Marl","PostalCode":"45770","AdditionalData":[{"value":"Deutschland","key":"CountryName"},{"value":"Nordrhein-Westfalen","key":"StateName"},{"value":"Recklinghausen","key":"CountyName"}]},"MapReference":{"ReferenceId":"587016357","Spot":1.0,"SideOfStreet":"left","CountryId":"20147700","StateId":"20157369","CountyId":"20159272","CityId":"20159327"}}},{"Relevance":1.0,"Distance":57.8,"MatchLevel":"houseNumber","MatchQuality":{"Country":1.0,"State":1.0,"County":1.0,"City":1.0,"Street":[1.0],"HouseNumber":1.0,"PostalCode":1.0},"MatchType":"interpolated","Location":{"LocationId":"NT_p.08Gjj5L8QB81ZEXFFdCB_xMD","LocationType":"point","DisplayPosition":{"Latitude":51.66258,"Longitude":7.12363},"MapView":{"TopLeft":{"Latitude":51.6637042,"Longitude":7.1218177},"BottomRight":{"Latitude":51.6614558,"Longitude":7.1254423}},"Address":{"Label":"Lipper Weg 13, 45770 Marl, Deutschland","Country":"DEU","State":"Nordrhein-Westfalen","County":"Recklinghausen","City":"Marl","Street":"Lipper Weg","HouseNumber":"13","PostalCode":"45770","AdditionalData":[{"value":"Deutschland","key":"CountryName"},{"value":"Nordrhein-Westfalen","key":"StateName"},{"value":"Recklinghausen","key":"CountyName"}]},"MapReference":{"ReferenceId":"587016356","Spot":0.53,"SideOfStreet":"left","CountryId":"20147700","StateId":"20157369","CountyId":"20159272","CityId":"20159327","AddressId":"209470842","RoadLinkId":"35766270"}}},{"Relevance":1.0,"Distance":85.3,"MatchLevel":"street","MatchQuality":{"Country":1.0,"State":1.0,"County":1.0,"City":1.0,"Street":[1.0],"PostalCode":1.0},"Location":{"LocationId":"NT_p.08Gjj5L8QB81ZEXFFdCB_l_587016354_L","LocationType":"point","DisplayPosition":{"Latitude":51.66277,"Longitude":7.12379},"MapView":{"TopLeft":{"Latitude":51.66293,"Longitude":7.12379},"BottomRight":{"Latitude":51.66277,"Longitude":7.12393}},"Address":{"Label":"Lipper Weg, 45770 Marl, Deutschland","Country":"DEU","State":"Nordrhein-Westfalen","County":"Recklinghausen","City":"Marl","Street":"Lipper Weg","PostalCode":"45770","AdditionalData":[{"value":"Deutschland","key":"CountryName"},{"value":"Nordrhein-Westfalen","key":"StateName"},{"value":"Recklinghausen","key":"CountyName"}]},"MapReference":{"ReferenceId":"587016354","Spot":0.0,"SideOfStreet":"left","CountryId":"20147700","StateId":"20157369","CountyId":"20159272","CityId":"20159327"}}},{"Relevance":1.0,"Distance":86.5,"MatchLevel":"houseNumber","MatchQuality":{"Country":1.0,"State":1.0,"County":1.0,"City":1.0,"Street":[1.0],"HouseNumber":1.0,"PostalCode":1.0},"MatchType":"interpolated","Location":{"LocationId":"NT_YE8VCKAa3Mhxhhed5tt89C_zYjM","LocationType":"point","DisplayPosition":{"Latitude":51.66217,"Longitude":7.1217},"MapView":{"TopLeft":{"Latitude":51.6632942,"Longitude":7.1198877},"BottomRight":{"Latitude":51.6610458,"Longitude":7.1235123}},"Address":{"Label":"Langehegge 362, 45770 Marl, Deutschland","Country":"DEU","State":"Nordrhein-Westfalen","County":"Recklinghausen","City":"Marl","Street":"Langehegge","HouseNumber":"362","PostalCode":"45770","AdditionalData":[{"value":"Deutschland","key":"CountryName"},{"value":"Nordrhein-Westfalen","key":"StateName"},{"value":"Recklinghausen","key":"CountyName"}]},"MapReference":{"ReferenceId":"753879920","Spot":0.94,"SideOfStreet":"right","CountryId":"20147700","StateId":"20157369","CountyId":"20159272","CityId":"20159327","AddressId":"193949080","RoadLinkId":"149253797"}}},{"Relevance":1.0,"Distance":89.8,"MatchLevel":"houseNumber","MatchQuality":{"Country":1.0,"State":1.0,"County":1.0,"City":1.0,"Street":[1.0],"HouseNumber":1.0,"PostalCode":1.0},"MatchType":"interpolated","Location":{"LocationId":"NT_p.08Gjj5L8QB81ZEXFFdCB_xETQ","LocationType":"point","DisplayPosition":{"Latitude":51.6625,"Longitude":7.12449},"MapView":{"TopLeft":{"Latitude":51.6636242,"Longitude":7.1226777},"BottomRight":{"Latitude":51.6613758,"Longitude":7.1263023}},"Address":{"Label":"Lipper Weg 11A, 45770 Marl, Deutschland","Country":"DEU","State":"Nordrhein-Westfalen","County":"Recklinghausen","City":"Marl","Street":"Lipper Weg","HouseNumber":"11A","PostalCode":"45770","AdditionalData":[{"value":"Deutschland","key":"CountryName"},{"value":"Nordrhein-Westfalen","key":"StateName"},{"value":"Recklinghausen","key":"CountyName"}]},"MapReference":{"ReferenceId":"51493700","Spot":0.13,"SideOfStreet":"left","CountryId":"20147700","StateId":"20157369","CountyId":"20159272","CityId":"20159327","AddressId":"743366015","RoadLinkId":"34955722"}}},{"Relevance":1.0,"Distance":105.2,"MatchLevel":"street","MatchQuality":{"Country":1.0,"State":1.0,"County":1.0,"City":1.0,"District":1.0,"Street":[1.0],"PostalCode":1.0},"Location":{"LocationId":"NT_AKwhHbG5c-AA7BV4UYoJBB_l_51314124_L","LocationType":"point","DisplayPosition":{"Latitude":51.66293,"Longitude":7.12393},"MapView":{"TopLeft":{"Latitude":51.66293,"Longitude":7.12393},"BottomRight":{"Latitude":51.66276,"Longitude":7.12439}},"Address":{"Label":"Lipper Weg, 45770 Marl, Deutschland","Country":"DEU","State":"Nordrhein-Westfalen","County":"Recklinghausen","City":"Marl","District":"Marl","Street":"Lipper Weg","PostalCode":"45770","AdditionalData":[{"value":"Deutschland","key":"CountryName"},{"value":"Nordrhein-Westfalen","key":"StateName"},{"value":"Recklinghausen","key":"CountyName"}]},"MapReference":{"ReferenceId":"51314124","Spot":1.0,"SideOfStreet":"left","CountryId":"20147700","StateId":"20157369","CountyId":"20159272","CityId":"20159327","DistrictId":"20159332"}}},{"Relevance":1.0,"Distance":105.8,"MatchLevel":"street","MatchQuality":{"Country":1.0,"State":1.0,"County":1.0,"City":1.0,"District":1.0,"Street":[1.0],"PostalCode":1.0},"Location":{"LocationId":"NT_AKwhHbG5c-AA7BV4UYoJBB_l_51314123_L","LocationType":"point","DisplayPosition":{"Latitude":51.66303,"Longitude":7.12369},"MapView":{"TopLeft":{"Latitude":51.66303,"Longitude":7.12369},"BottomRight":{"Latitude":51.66293,"Longitude":7.12393}},"Address":{"Label":"Lipper Weg, 45770 Marl, Deutschland","Country":"DEU","State":"Nordrhein-Westfalen","County":"Recklinghausen","City":"Marl","District":"Marl","Street":"Lipper Weg","PostalCode":"45770","AdditionalData":[{"value":"Deutschland","key":"CountryName"},{"value":"Nordrhein-Westfalen","key":"StateName"},{"value":"Recklinghausen","key":"CountyName"}]},"MapReference":{"ReferenceId":"51314123","Spot":1.0,"SideOfStreet":"left","CountryId":"20147700","StateId":"20157369","CountyId":"20159272","CityId":"20159327","DistrictId":"20159332"}}},{"Relevance":1.0,"Distance":113.3,"MatchLevel":"street","MatchQuality":{"Country":1.0,"State":1.0,"County":1.0,"City":1.0,"PostalCode":1.0},"Location":{"LocationId":"NT_Kc75GwmFq29o2O8PRez9kC_l_1122818574_L","LocationType":"point","DisplayPosition":{"Latitude":51.66116,"Longitude":7.123},"MapView":{"TopLeft":{"Latitude":51.66116,"Longitude":7.12145},"BottomRight":{"Latitude":51.661,"Longitude":7.12352}},"Address":{"Label":"45770 Marl, Deutschland","Country":"DEU","State":"Nordrhein-Westfalen","County":"Recklinghausen","City":"Marl","PostalCode":"45770","AdditionalData":[{"value":"Deutschland","key":"CountryName"},{"value":"Nordrhein-Westfalen","key":"StateName"},{"value":"Recklinghausen","key":"CountyName"}]},"MapReference":{"ReferenceId":"1122818574","Spot":0.74,"SideOfStreet":"left","CountryId":"20147700","StateId":"20157369","CountyId":"20159272","CityId":"20159327"}}}]}]}}