{"Response":{"MetaInfo":{"Timestamp":"2020-03-28T10:39:08.565+0000","NextPageInformation":"2"},"View":[{"_type":"SearchResultsViewType","ViewId":0,"Result":[{"Relevance":1.0,"Distance":0.0,"Direction":0.0,"MatchLevel":"district","MatchQuality":{"Country":1.0,"State":1.0,"County":1.0,"City":1.0,"District":1.0,"PostalCode":1.0},"Location":{"LocationId":"NT_7YPz7f1Iz4yrSyrmW5OxgC","LocationType":"point","DisplayPosition":{"Latitude":51.6167588,"Longitude":-3.9851336},"MapView":{"TopLeft":{"Latitude":51.62305,"Longitude":-4.008},"BottomRight":{"Latitude":51.61227,"Longitude":-3.9781}},"Address":{"Label":"Sketty, Swansea, Wales, United Kingdom","Country":"GBR","State":"Wales","County":"West Glamorgan","City":"Swansea","District":"Sketty","PostalCode":"SA2 0","AdditionalData":[{"value":"United Kingdom","key":"CountryName"},{"value":"Wales","key":"StateName"},{"value":"West Glamorgan","key":"CountyName"}]},"MapReference":{"ReferenceId":"907937912","SideOfStreet":"neither","StateId":"20287683","CountyId":"20343011","CityId":"20343062","DistrictId":"20343141"}}},{"Relevance":1.0,"Distance":5.4,"MatchLevel":"postalCode","MatchQuality":{"PostalCode":1.0},"Location":{"LocationId":"NT_21DnEzzCPanzeZAW8qFWrA_l_565709439_R","LocationType":"point","DisplayPosition":{"Latitude":51.61675,"Longitude":-3.98521},"MapView":{"TopLeft":{"Latitude":51.6257432,"Longitude":-3.9996937},"BottomRight":{"Latitude":51.6077568,"Longitude":-3.9707263}},"Address":{"Label":"SA2 9EA, Swansea, Wales, United Kingdom","Country":"GBR","State":"Wales","County":"West Glamorgan","City":"Swansea","PostalCode":"SA2 9EA","AdditionalData":[{"value":"United Kingdom","key":"CountryName"},{"value":"Wales","key":"StateName"},{"value":"West Glamorgan","key":"CountyName"}]},"MapReference":{"ReferenceId":"565709439","Spot":0.14,"SideOfStreet":"neither","StateId":"20287683","CountyId":"20343011","CityId":"20343062"}}},{"Relevance":1.0,"Distance":8.7,"MatchLevel":"street","MatchQuality":{"Country":1.0,"State":1.0,"County":1.0,"City":1.0,"District":1.0,"Street":[1.0],"PostalCode":1.0},"Location":{"LocationId":"NT_21DnEzzCPanzeZAW8qFWrA_l_565709439_R","LocationType":"point","DisplayPosition":{"Latitude":51.6168338,"Longitude":-3.9851688},"MapView":{"TopLeft":{"Latitude":51.6176,"Longitude":-3.98539},"BottomRight":{"Latitude":51.61673,"Longitude":-3.98392}},"Address":{"Label":"De la Beche Road, Swansea, SA2 9, United Kingdom","Country":"GBR","State":"Wales","County":"West Glamorgan","City":"Swansea","District":"Sketty","Street":"De la Beche Road","PostalCode":"SA2 9","AdditionalData":[{"value":"United Kingdom","key":"CountryName"},{"value":"Wales","key":"StateName"},{"value":"West Glamorgan","key":"CountyName"}]},"MapReference":{"ReferenceId":"565709439","Spot":0.14,"SideOfStreet":"right","StateId":"20287683","CountyId":"20343011","CityId":"20343062","DistrictId":"20343141"}}},{"Relevance":1.0,"Distance":18.0,"MatchLevel":"street","MatchQuality":{"Country":1.0,"State":1.0,"County":1.0,"City":1.0,"District":1.0,"Street":[1.0],"PostalCode":1.0},"Location":{"LocationId":"NT_21DnEzzCPanzeZAW8qFWrA_l_17380645_R","LocationType":"point","DisplayPosition":{"Latitude":51.61673,"Longitude":-3.98539},"MapView":{"TopLeft":{"Latitude":51.61673,"Longitude":-3.98777},"BottomRight":{"Latitude":51.61584,"Longitude":-3.98539}},"Address":{"Label":"De la Beche Road, Swansea, SA2 9, United Kingdom","Country":"GBR","State":"Wales","County":"West Glamorgan","City":"Swansea","District":"Sketty","Street":"De la Beche Road","PostalCode":"SA2 9","AdditionalData":[{"value":"United Kingdom","key":"CountryName"},{"value":"Wales","key":"StateName"},{"value":"West Glamorgan","key":"CountyName"}]},"MapReference":{"ReferenceId":"17380645","Spot":1.0,"SideOfStreet":"right","StateId":"20287683","CountyId":"20343011","CityId":"20343062","DistrictId":"20343141"}}},{"Relevance":1.0,"Distance":29.8,"MatchLevel":"houseNumber","MatchQuality":{"Country":1.0,"State":1.0,"County":1.0,"City":1.0,"District":1.0,"Street":[1.0],"HouseNumber":1.0,"PostalCode":1.0},"MatchType":"interpolated","Location":{"LocationId":"NT_t5ZX.Vp-53-przyUYuptxB_l_17380417_R_yA","LocationType":"point","DisplayPosition":{"Latitude":51.6168001,"Longitude":-3.9855601},"MapView":{"TopLeft":{"Latitude":51.6179242,"Longitude":-3.9873706},"BottomRight":{"Latitude":51.6156759,"Longitude":-3.9837497}},"Address":{"Label":"2 Cory Street, Swansea, SA2 9AW, United Kingdom","Country":"GBR","State":"Wales","County":"West Glamorgan","City":"Swansea","District":"Sketty","Street":"Cory Street","HouseNumber":"2","PostalCode":"SA2 9AW","AdditionalData":[{"value":"United Kingdom","key":"CountryName"},{"value":"Wales","key":"StateName"},{"value":"West Glamorgan","key":"CountyName"}]},"MapReference":{"ReferenceId":"17380417","Spot":0.14,"SideOfStreet":"right","StateId":"20287683","CountyId":"20343011","CityId":"20343062","DistrictId":"20343141"}}},{"Relevance":1.0,"Distance":72.9,"MatchLevel":"landmark","MatchQuality":{"Country":1.0,"State":1.0,"County":1.0,"City":1.0,"District":1.0,"Street":[1.0],"PostalCode":1.0,"Name":1.0},"Location":{"LocationId":"NT_jU4TqhEKXTeIXMDwQejpWD_p_kD6X.mkkImll4FlTRWi9tA","LocationType":"park","Name":"Singleton Park","DisplayPosition":{"Latitude":51.60901,"Longitude":-3.97451},"MapView":{"TopLeft":{"Latitude":51.61729,"Longitude":-3.98977},"BottomRight":{"Latitude":51.60891,"Longitude":-3.97286}},"Address":{"Label":"Mumbles Road, Swansea, SA2 0, United Kingdom","Country":"GBR","State":"Wales","County":"West Glamorgan","City":"Swansea","District":"Swansea","Street":"Mumbles Road","PostalCode":"SA2 0","AdditionalData":[{"value":"United Kingdom","key":"CountryName"},{"value":"Wales","key":"StateName"},{"value":"West Glamorgan","key":"CountyName"}]},"MapReference":{"StateId":"20287683","CountyId":"20343011","CityId":"20343062","DistrictId":"20343063","PlaceId":"19730012"}}},{"Relevance":1.0,"Distance":81.7,"MatchLevel":"street","MatchQuality":{"Country":1.0,"State":1.0,"County":1.0,"City":1.0,"District":1.0,"Street":[1.0],"PostalCode":1.0},"Location":{"LocationId":"NT_kFyqOcCVl2m4NqNUEJzCIB_l_565709440_R","LocationType":"point","DisplayPosition":{"Latitude":51.61749,"Longitude":-3.98525},"MapView":{"TopLeft":{"Latitude":51.61757,"Longitude":-3.98525},"BottomRight":{"Latitude":51.61749,"Longitude":-3.98518}},"Address":{"Label":"Maxime Court, Swansea, SA2 9, United Kingdom","Country":"GBR","State":"Wales","County":"West Glamorgan","City":"Swansea","District":"Sketty","Street":"Maxime Court","PostalCode":"SA2 9","AdditionalData":[{"value":"United Kingdom","key":"CountryName"},{"value":"Wales","key":"StateName"},{"value":"West Glamorgan","key":"CountyName"}]},"MapReference":{"ReferenceId":"565709440","Spot":0.0,"SideOfStreet":"right","StateId":"20287683","CountyId":"20343011","CityId":"20343062","DistrictId":"20343141"}}},{"Relevance":1.0,"Distance":82.0,"MatchLevel":"postalCode","MatchQuality":{"PostalCode":1.0},"Location":{"LocationId":"NT_kFyqOcCVl2m4NqNUEJzCIB_l_565709440_R","LocationType":"point","DisplayPosition":{"Latitude":51.61749,"Longitude":-3.98529},"MapView":{"TopLeft":{"Latitude":51.6264832,"Longitude":-3.999774},"BottomRight":{"Latitude":51.6084968,"Longitude":-3.970806}},"Address":{"Label":"SA2 9FB, Swansea, Wales, United Kingdom","Country":"GBR","State":"Wales","County":"West Glamorgan","City":"Swansea","PostalCode":"SA2 9FB","AdditionalData":[{"value":"United Kingdom","key":"CountryName"},{"value":"Wales","key":"StateName"},{"value":"West Glamorgan","key":"CountyName"}]},"MapReference":{"ReferenceId":"565709440","Spot":0.0,"SideOfStreet":"neither","StateId":"20287683","CountyId":"20343011","CityId":"20343062"}}},{"Relevance":1.0,"Distance":85.8,"MatchLevel":"street","MatchQuality":{"Country":1.0,"State":1.0,"County":1.0,"City":1.0,"District":1.0,"Street":[1.0],"PostalCode":1.0},"Location":{"LocationId":"NT_kFyqOcCVl2m4NqNUEJzCIB_l_565709442_L","LocationType":"point","DisplayPosition":{"Latitude":51.61753,"Longitude":-3.98508},"MapView":{"TopLeft":{"Latitude":51.61757,"Longitude":-3.98518},"BottomRight":{"Latitude":51.61753,"Longitude":-3.98508}},"Address":{"Label":"Maxime Court, Swansea, SA2 9, United Kingdom","Country":"GBR","State":"Wales","County":"West Glamorgan","City":"Swansea","District":"Sketty","Street":"Maxime Court","PostalCode":"SA2 9","AdditionalData":[{"value":"United Kingdom","key":"CountryName"},{"value":"Wales","key":"StateName"},{"value":"West Glamorgan","key":"CountyName"}]},"MapReference":{"ReferenceId":"565709442","Spot":0.0,"SideOfStreet":"left","StateId":"20287683","CountyId":"20343011","CityId":"20343062","DistrictId":"20343141"}}},{"Relevance":1.0,"Distance":90.3,"MatchLevel":"street","MatchQuality":{"Country":1.0,"State":1.0,"County":1.0,"City":1.0,"District":1.0,"Street":[1.0],"PostalCode":1.0},"Location":{"LocationId":"NT_kFyqOcCVl2m4NqNUEJzCIB_l_565709441_R","LocationType":"point","DisplayPosition":{"Latitude":51.61757,"Longitude":-3.98518},"MapView":{"TopLeft":{"Latitude":51.61787,"Longitude":-3.98518},"BottomRight":{"Latitude":51.61757,"Longitude":-3.98498}},"Address":{"Label":"Maxime Court, Swansea, SA2 9, United Kingdom","Country":"GBR","State":"Wales","County":"West Glamorgan","City":"Swansea","District":"Sketty","Street":"Maxime Court","PostalCode":"SA2 9","AdditionalData":[{"value":"United Kingdom","key":"CountryName"},{"value":"Wales","key":"StateName"},{"value":"West Glamorgan","key":"CountyName"}]},"MapReference":{"ReferenceId":"565709441","Spot":0.0,"SideOfStreet":"right","StateId":"20287683","CountyId":"20343011","CityId":"20343062","DistrictId":"20343141"}}}]}]}}