{"Response":{"MetaInfo":{"Timestamp":"2020-03-28T10:40:52.647+0000","NextPageInformation":"2"},"View":[{"_type":"SearchResultsViewType","ViewId":0,"Result":[{"Relevance":1.0,"Distance":0.0,"Direction":0.0,"MatchLevel":"district","MatchQuality":{"Country":1.0,"State":1.0,"County":1.0,"City":1.0,"District":1.0,"PostalCode":1.0},"Location":{"LocationId":"NT_SrHEIAomxu.NKWBkAOMW5A","LocationType":"point","DisplayPosition":{"Latitude":51.6225961,"Longitude":0.3076585},"MapView":{"TopLeft":{"Latitude":51.64189,"Longitude":0.26213},"BottomRight":{"Latitude":51.59986,"Longitude":0.36356}},"Address":{"Label":"Brentwood, England, United Kingdom","Country":"GBR","State":"England","County":"Essex","City":"Brentwood","District":"Brentwood","PostalCode":"CM14 4","AdditionalData":[{"value":"United Kingdom","key":"CountryName"},{"value":"England","key":"StateName"},{"value":"Essex","key":"CountyName"}]},"MapReference":{"ReferenceId":"846841477","SideOfStreet":"neither","StateId":"20248595","CountyId":"20335385","CityId":"20335428","DistrictId":"20335429"}}},{"Relevance":1.0,"Distance":8.4,"MatchLevel":"postalCode","MatchQuality":{"PostalCode":1.0},"MatchType":"interpolated","Location":{"LocationId":"NT_XDR6nZupcuClCoDymSJYGC_l_841165930_L_zMD","LocationType":"point","DisplayPosition":{"Latitude":51.62253,"Longitude":0.3076},"MapView":{"TopLeft":{"Latitude":51.6315232,"Longitude":0.2931144},"BottomRight":{"Latitude":51.6135368,"Longitude":0.3220856}},"Address":{"Label":"CM15 8AQ, Brentwood, England, United Kingdom","Country":"GBR","State":"England","County":"Essex","City":"Brentwood","PostalCode":"CM15 8AQ","AdditionalData":[{"value":"United Kingdom","key":"CountryName"},{"value":"England","key":"StateName"},{"value":"Essex","key":"CountyName"}]},"MapReference":{"ReferenceId":"841165930","Spot":0.82,"SideOfStreet":"neither","StateId":"20248595","CountyId":"20335385","CityId":"20335428"}}},{"Relevance":1.0,"Distance":12.2,"MatchLevel":"street","MatchQuality":{"Country":1.0,"State":1.0,"County":1.0,"City":1.0,"District":1.0,"Street":[1.0],"PostalCode":1.0},"Location":{"LocationId":"NT_QoLW8qVEblJSANWSvOP2uC_l_756569194_R","LocationType":"point","DisplayPosition":{"Latitude":51.6225101,"Longitude":0.3075489},"MapView":{"TopLeft":{"Latitude":51.6227,"Longitude":0.3074},"BottomRight":{"Latitude":51.62219,"Longitude":0.3078}},"Address":{"Label":"Sawyers Hall Lane, Brentwood, CM15 8, United Kingdom","Country":"GBR","State":"England","County":"Essex","City":"Brentwood","District":"Brentwood","Street":"Sawyers Hall Lane","PostalCode":"CM15 8","AdditionalData":[{"value":"United Kingdom","key":"CountryName"},{"value":"England","key":"StateName"},{"value":"Essex","key":"CountyName"}]},"MapReference":{"ReferenceId":"756569194","Spot":0.63,"SideOfStreet":"right","StateId":"20248595","CountyId":"20335385","CityId":"20335428","DistrictId":"20335429"}}},{"Relevance":1.0,"Distance":17.2,"MatchLevel":"postalCode","MatchQuality":{"PostalCode":1.0},"Location":{"LocationId":"NT_QoLW8qVEblJSANWSvOP2uC_l_756569194_R","LocationType":"point","DisplayPosition":{"Latitude":51.62261,"Longitude":0.30741},"MapView":{"TopLeft":{"Latitude":51.6316032,"Longitude":0.2929244},"BottomRight":{"Latitude":51.6136168,"Longitude":0.3218956}},"Address":{"Label":"CM15 9BN, Brentwood, England, United Kingdom","Country":"GBR","State":"England","County":"Essex","City":"Brentwood","PostalCode":"CM15 9BN","AdditionalData":[{"value":"United Kingdom","key":"CountryName"},{"value":"England","key":"StateName"},{"value":"Essex","key":"CountyName"}]},"MapReference":{"ReferenceId":"756569194","Spot":0.63,"SideOfStreet":"neither","StateId":"20248595","CountyId":"20335385","CityId":"20335428"}}},{"Relevance":1.0,"Distance":19.2,"MatchLevel":"street","MatchQuality":{"Country":1.0,"State":1.0,"County":1.0,"City":1.0,"District":1.0,"Street":[1.0],"PostalCode":1.0},"Location":{"LocationId":"NT_UTJwB9X-P4-ImT3yY5YDLA_l_756569196_R","LocationType":"point","DisplayPosition":{"Latitude":51.62276,"Longitude":0.30757},"MapView":{"TopLeft":{"Latitude":51.62284,"Longitude":0.3074},"BottomRight":{"Latitude":51.6227,"Longitude":0.30757}},"Address":{"Label":"Limes Court, Brentwood, CM15 9, United Kingdom","Country":"GBR","State":"England","County":"Essex","City":"Brentwood","District":"Brentwood","Street":"Limes Court","PostalCode":"CM15 9","AdditionalData":[{"value":"United Kingdom","key":"CountryName"},{"value":"England","key":"StateName"},{"value":"Essex","key":"CountyName"}]},"MapReference":{"ReferenceId":"756569196","Spot":0.64,"SideOfStreet":"right","StateId":"20248595","CountyId":"20335385","CityId":"20335428","DistrictId":"20335429"}}},{"Relevance":1.0,"Distance":21.3,"MatchLevel":"street","MatchQuality":{"Country":1.0,"State":1.0,"County":1.0,"City":1.0,"District":1.0,"Street":[1.0],"PostalCode":1.0},"Location":{"LocationId":"NT_7zJSskuaqCoBJVxku7zeWB_l_756569195_R","LocationType":"point","DisplayPosition":{"Latitude":51.6227,"Longitude":0.3074},"MapView":{"TopLeft":{"Latitude":51.62367,"Longitude":0.30666},"BottomRight":{"Latitude":51.6227,"Longitude":0.3074}},"Address":{"Label":"Sawyers Hall Lane, Brentwood, CM15 9, United Kingdom","Country":"GBR","State":"England","County":"Essex","City":"Brentwood","District":"Brentwood","Street":"Sawyers Hall Lane","PostalCode":"CM15 9","AdditionalData":[{"value":"United Kingdom","key":"CountryName"},{"value":"England","key":"StateName"},{"value":"Essex","key":"CountyName"}]},"MapReference":{"ReferenceId":"756569195","Spot":0.0,"SideOfStreet":"right","StateId":"20248595","CountyId":"20335385","CityId":"20335428","DistrictId":"20335429"}}},{"Relevance":1.0,"Distance":31.4,"MatchLevel":"postalCode","MatchQuality":{"PostalCode":1.0},"Location":{"LocationId":"NT_UTJwB9X-P4-ImT3yY5YDLA_l_756569196_R","LocationType":"point","DisplayPosition":{"Latitude":51.62287,"Longitude":0.30755},"MapView":{"TopLeft":{"Latitude":51.6318632,"Longitude":0.2930643},"BottomRight":{"Latitude":51.6138768,"Longitude":0.3220357}},"Address":{"Label":"CM15 9BW, Brentwood, England, United Kingdom","Country":"GBR","State":"England","County":"Essex","City":"Brentwood","PostalCode":"CM15 9BW","AdditionalData":[{"value":"United Kingdom","key":"CountryName"},{"value":"England","key":"StateName"},{"value":"Essex","key":"CountyName"}]},"MapReference":{"ReferenceId":"756569196","Spot":0.64,"SideOfStreet":"neither","StateId":"20248595","CountyId":"20335385","CityId":"20335428"}}},{"Relevance":1.0,"Distance":43.1,"MatchLevel":"houseNumber","MatchQuality":{"Country":1.0,"State":1.0,"County":1.0,"City":1.0,"District":1.0,"Street":[1.0],"HouseNumber":1.0,"PostalCode":1.0},"MatchType":"interpolated","Location":{"LocationId":"NT_XDR6nZupcuClCoDymSJYGC_l_868070839_R_zAD","LocationType":"point","DisplayPosition":{"Latitude":51.62226,"Longitude":0.3079701},"MapView":{"TopLeft":{"Latitude":51.6233842,"Longitude":0.3061594},"BottomRight":{"Latitude":51.6211359,"Longitude":0.3097808}},"Address":{"Label":"30 Shenfield Road, Brentwood, CM15 8AA, United Kingdom","Country":"GBR","State":"England","County":"Essex","City":"Brentwood","District":"Brentwood","Street":"Shenfield Road","HouseNumber":"30","PostalCode":"CM15 8AA","AdditionalData":[{"value":"United Kingdom","key":"CountryName"},{"value":"England","key":"StateName"},{"value":"Essex","key":"CountyName"}]},"MapReference":{"ReferenceId":"868070839","Spot":0.09,"SideOfStreet":"right","StateId":"20248595","CountyId":"20335385","CityId":"20335428","DistrictId":"20335429"}}},{"Relevance":1.0,"Distance":45.7,"MatchLevel":"houseNumber","MatchQuality":{"Country":1.0,"State":1.0,"County":1.0,"City":1.0,"District":1.0,"Street":[1.0],"HouseNumber":1.0,"PostalCode":1.0},"MatchType":"interpolated","Location":{"LocationId":"NT_XDR6nZupcuClCoDymSJYGC_l_841165930_L_zMD","LocationType":"point","DisplayPosition":{"Latitude":51.6220723,"Longitude":0.3075169},"MapView":{"TopLeft":{"Latitude":51.6231965,"Longitude":0.3057063},"BottomRight":{"Latitude":51.6209482,"Longitude":0.3093276}},"Address":{"Label":"33 Shenfield Road, Brentwood, CM15 8AQ, United Kingdom","Country":"GBR","State":"England","County":"Essex","City":"Brentwood","District":"Brentwood","Street":"Shenfield Road","HouseNumber":"33","PostalCode":"CM15 8AQ","AdditionalData":[{"value":"United Kingdom","key":"CountryName"},{"value":"England","key":"StateName"},{"value":"Essex","key":"CountyName"}]},"MapReference":{"ReferenceId":"841165930","Spot":0.82,"SideOfStreet":"left","StateId":"20248595","CountyId":"20335385","CityId":"20335428","DistrictId":"20335429"}}},{"Relevance":1.0,"Distance":51.1,"MatchLevel":"postalCode","MatchQuality":{"PostalCode":1.0},"Location":{"LocationId":"NT_XDR6nZupcuClCoDymSJYGC_l_841165929_L","LocationType":"point","DisplayPosition":{"Latitude":51.62232,"Longitude":0.30825},"MapView":{"TopLeft":{"Latitude":51.6313132,"Longitude":0.2937645},"BottomRight":{"Latitude":51.6133268,"Longitude":0.3227355}},"Address":{"Label":"CM15 8AD, Brentwood, England, United Kingdom","Country":"GBR","State":"England","County":"Essex","City":"Brentwood","PostalCode":"CM15 8AD","AdditionalData":[{"value":"United Kingdom","key":"CountryName"},{"value":"England","key":"StateName"},{"value":"Essex","key":"CountyName"}]},"MapReference":{"ReferenceId":"841165929","Spot":1.0,"SideOfStreet":"neither","StateId":"20248595","CountyId":"20335385","CityId":"20335428"}}}]}]}}