{"Response":{"MetaInfo":{"Timestamp":"2020-03-28T11:31:02.437+0000","NextPageInformation":"2"},"View":[{"_type":"SearchResultsViewType","ViewId":0,"Result":[{"Relevance":1.0,"Distance":0.0,"Direction":0.0,"MatchLevel":"district","MatchQuality":{"Country":1.0,"State":1.0,"County":1.0,"City":1.0,"District":1.0,"PostalCode":1.0},"Location":{"LocationId":"NT_eaGY.-jH2n8NnuVweMQBSC","LocationType":"point","DisplayPosition":{"Latitude":51.6603029,"Longitude":19.350338},"MapView":{"TopLeft":{"Latitude":51.69787,"Longitude":19.30353},"BottomRight":{"Latitude":51.64245,"Longitude":19.41292}},"Address":{"Label":"Pabianice, Woj. Łódzkie, Polska","Country":"POL","State":"Woj. Łódzkie","County":"Powiat Pabianicki","City":"Pabianice","District":"Pabianice","PostalCode":"95-200","AdditionalData":[{"value":"Polska","key":"CountryName"},{"value":"Woj. Łódzkie","key":"StateName"},{"value":"Powiat Pabianicki","key":"CountyName"}]},"MapReference":{"ReferenceId":"1007228663","SideOfStreet":"neither","CountryId":"20624059","StateId":"20625723","CountyId":"20625866","CityId":"20675061","DistrictId":"20675062"}}},{"Relevance":1.0,"Distance":7.3,"MatchLevel":"street","MatchQuality":{"Country":1.0,"State":1.0,"County":1.0,"City":1.0,"District":1.0,"Street":[1.0],"PostalCode":1.0},"Location":{"LocationId":"NT_2I02-vb9Nzb1Gbnm6-Zj1B_l_1007215665_L","LocationType":"point","DisplayPosition":{"Latitude":51.6603681,"Longitude":19.3503418},"MapView":{"TopLeft":{"Latitude":51.66037,"Longitude":19.35031},"BottomRight":{"Latitude":51.66036,"Longitude":19.35048}},"Address":{"Label":"ulica Stanisława Moniuszki, 95-200 Pabianice, Polska","Country":"POL","State":"Woj. Łódzkie","County":"Powiat Pabianicki","City":"Pabianice","District":"Pabianice","Street":"ulica Stanisława Moniuszki","PostalCode":"95-200","AdditionalData":[{"value":"Polska","key":"CountryName"},{"value":"Woj. Łódzkie","key":"StateName"},{"value":"Powiat Pabianicki","key":"CountyName"}]},"MapReference":{"ReferenceId":"1007215665","Spot":0.81,"SideOfStreet":"left","CountryId":"20624059","StateId":"20625723","CountyId":"20625866","CityId":"20675061","DistrictId":"20675062"}}},{"Relevance":1.0,"Distance":7.7,"MatchLevel":"street","MatchQuality":{"Country":1.0,"State":1.0,"County":1.0,"City":1.0,"District":1.0,"Street":[1.0],"PostalCode":1.0},"Location":{"LocationId":"NT_2I02-vb9Nzb1Gbnm6-Zj1B_l_595650908_L","LocationType":"point","DisplayPosition":{"Latitude":51.66037,"Longitude":19.35031},"MapView":{"TopLeft":{"Latitude":51.66038,"Longitude":19.35011},"BottomRight":{"Latitude":51.66037,"Longitude":19.35031}},"Address":{"Label":"ulica Stanisława Moniuszki, 95-200 Pabianice, Polska","Country":"POL","State":"Woj. Łódzkie","County":"Powiat Pabianicki","City":"Pabianice","District":"Pabianice","Street":"ulica Stanisława Moniuszki","PostalCode":"95-200","AdditionalData":[{"value":"Polska","key":"CountryName"},{"value":"Woj. Łódzkie","key":"StateName"},{"value":"Powiat Pabianicki","key":"CountyName"}]},"MapReference":{"ReferenceId":"595650908","Spot":0.0,"SideOfStreet":"left","CountryId":"20624059","StateId":"20625723","CountyId":"20625866","CityId":"20675061","DistrictId":"20675062"}}},{"Relevance":1.0,"Distance":10.2,"MatchLevel":"houseNumber","MatchQuality":{"Country":1.0,"State":1.0,"County":1.0,"City":1.0,"District":1.0,"Street":[1.0],"HouseNumber":1.0,"PostalCode":1.0},"MatchType":"interpolated","Location":{"LocationId":"NT_mQG42N8qOi.QhkivLBqsMA_yA","LocationType":"point","DisplayPosition":{"Latitude":51.66023,"Longitude":19.3501},"MapView":{"TopLeft":{"Latitude":51.6613542,"Longitude":19.3482878},"BottomRight":{"Latitude":51.6591058,"Longitude":19.3519122}},"Address":{"Label":"ulica Łąkowa 2, 95-200 Pabianice, Polska","Country":"POL","State":"Woj. Łódzkie","County":"Powiat Pabianicki","City":"Pabianice","District":"Pabianice","Street":"ulica Łąkowa","HouseNumber":"2","PostalCode":"95-200","AdditionalData":[{"value":"Polska","key":"CountryName"},{"value":"Woj. Łódzkie","key":"StateName"},{"value":"Powiat Pabianicki","key":"CountyName"}]},"MapReference":{"ReferenceId":"595648085","Spot":0.93,"SideOfStreet":"right","CountryId":"20624059","StateId":"20625723","CountyId":"20625866","CityId":"20675061","DistrictId":"20675062","AddressId":"222109860","RoadLinkId":"95580208"}}},{"Relevance":1.0,"Distance":27.8,"MatchLevel":"houseNumber","MatchQuality":{"Country":1.0,"State":1.0,"County":1.0,"City":1.0,"District":1.0,"Street":[1.0],"HouseNumber":1.0,"PostalCode":1.0},"MatchType":"interpolated","Location":{"LocationId":"NT_2I02-vb9Nzb1Gbnm6-Zj1B_yQD","LocationType":"point","DisplayPosition":{"Latitude":51.66039,"Longitude":19.34996},"MapView":{"TopLeft":{"Latitude":51.6615142,"Longitude":19.3481478},"BottomRight":{"Latitude":51.6592658,"Longitude":19.3517722}},"Address":{"Label":"ulica Stanisława Moniuszki 24, 95-200 Pabianice, Polska","Country":"POL","State":"Woj. Łódzkie","County":"Powiat Pabianicki","City":"Pabianice","District":"Pabianice","Street":"ulica Stanisława Moniuszki","HouseNumber":"24","PostalCode":"95-200","AdditionalData":[{"value":"Polska","key":"CountryName"},{"value":"Woj. Łódzkie","key":"StateName"},{"value":"Powiat Pabianicki","key":"CountyName"}]},"MapReference":{"ReferenceId":"595647947","Spot":0.19,"SideOfStreet":"left","CountryId":"20624059","StateId":"20625723","CountyId":"20625866","CityId":"20675061","DistrictId":"20675062","AddressId":"209921051","RoadLinkId":"95388598"}}},{"Relevance":1.0,"Distance":30.8,"MatchLevel":"houseNumber","MatchQuality":{"Country":1.0,"State":1.0,"County":1.0,"City":1.0,"District":1.0,"Street":[1.0],"HouseNumber":1.0,"PostalCode":1.0},"MatchType":"interpolated","Location":{"LocationId":"NT_2I02-vb9Nzb1Gbnm6-Zj1B_yAD","LocationType":"point","DisplayPosition":{"Latitude":51.66035,"Longitude":19.35075},"MapView":{"TopLeft":{"Latitude":51.6614742,"Longitude":19.3489378},"BottomRight":{"Latitude":51.6592258,"Longitude":19.3525622}},"Address":{"Label":"ulica Stanisława Moniuszki 20, 95-200 Pabianice, Polska","Country":"POL","State":"Woj. Łódzkie","County":"Powiat Pabianicki","City":"Pabianice","District":"Pabianice","Street":"ulica Stanisława Moniuszki","HouseNumber":"20","PostalCode":"95-200","AdditionalData":[{"value":"Polska","key":"CountryName"},{"value":"Woj. Łódzkie","key":"StateName"},{"value":"Powiat Pabianicki","key":"CountyName"}]},"MapReference":{"ReferenceId":"1007215664","Spot":0.71,"SideOfStreet":"left","CountryId":"20624059","StateId":"20625723","CountyId":"20625866","CityId":"20675061","DistrictId":"20675062","AddressId":"210760953","RoadLinkId":"331940743"}}},{"Relevance":1.0,"Distance":45.3,"MatchLevel":"houseNumber","MatchQuality":{"Country":1.0,"State":1.0,"County":1.0,"City":1.0,"District":1.0,"Street":[1.0],"HouseNumber":1.0,"PostalCode":1.0},"MatchType":"interpolated","Location":{"LocationId":"NT_6iSwyGwo4A9TB3oMpLqe1A_xgD","LocationType":"point","DisplayPosition":{"Latitude":51.66071,"Longitude":19.35036},"MapView":{"TopLeft":{"Latitude":51.6618342,"Longitude":19.3485478},"BottomRight":{"Latitude":51.6595858,"Longitude":19.3521722}},"Address":{"Label":"ulica Bohaterów 18, 95-200 Pabianice, Polska","Country":"POL","State":"Woj. Łódzkie","County":"Powiat Pabianicki","City":"Pabianice","District":"Pabianice","Street":"ulica Bohaterów","HouseNumber":"18","PostalCode":"95-200","AdditionalData":[{"value":"Polska","key":"CountryName"},{"value":"Woj. Łódzkie","key":"StateName"},{"value":"Powiat Pabianicki","key":"CountyName"}]},"MapReference":{"ReferenceId":"595647948","Spot":0.17,"SideOfStreet":"right","CountryId":"20624059","StateId":"20625723","CountyId":"20625866","CityId":"20675061","DistrictId":"20675062","AddressId":"211035503","RoadLinkId":"95718912"}}},{"Relevance":1.0,"Distance":63.7,"MatchLevel":"houseNumber","MatchQuality":{"Country":1.0,"State":1.0,"County":1.0,"City":1.0,"District":1.0,"Street":[1.0],"HouseNumber":1.0,"PostalCode":1.0},"MatchType":"interpolated","Location":{"LocationId":"NT_6yCduhyBcnvKyFfbsnQgaC_yA","LocationType":"point","DisplayPosition":{"Latitude":51.66026,"Longitude":19.34929},"MapView":{"TopLeft":{"Latitude":51.6613842,"Longitude":19.3474778},"BottomRight":{"Latitude":51.6591358,"Longitude":19.3511022}},"Address":{"Label":"ulica Piękna 2, 95-200 Pabianice, Polska","Country":"POL","State":"Woj. Łódzkie","County":"Powiat Pabianicki","City":"Pabianice","District":"Pabianice","Street":"ulica Piękna","HouseNumber":"2","PostalCode":"95-200","AdditionalData":[{"value":"Polska","key":"CountryName"},{"value":"Woj. Łódzkie","key":"StateName"},{"value":"Powiat Pabianicki","key":"CountyName"}]},"MapReference":{"ReferenceId":"595648079","Spot":0.93,"SideOfStreet":"right","CountryId":"20624059","StateId":"20625723","CountyId":"20625866","CityId":"20675061","DistrictId":"20675062","AddressId":"210753981","RoadLinkId":"95435565"}}},{"Relevance":1.0,"Distance":87.3,"MatchLevel":"houseNumber","MatchQuality":{"Country":1.0,"State":1.0,"County":1.0,"City":1.0,"District":1.0,"Street":[1.0],"HouseNumber":1.0,"PostalCode":1.0},"MatchType":"interpolated","Location":{"LocationId":"NT_uyPSqY0t5bsMZsL1uVpWVB_zED","LocationType":"point","DisplayPosition":{"Latitude":51.66091,"Longitude":19.35149},"MapView":{"TopLeft":{"Latitude":51.6620342,"Longitude":19.3496778},"BottomRight":{"Latitude":51.6597858,"Longitude":19.3533022}},"Address":{"Label":"ulica Gabriela Narutowicza 31, 95-200 Pabianice, Polska","Country":"POL","State":"Woj. Łódzkie","County":"Powiat Pabianicki","City":"Pabianice","District":"Pabianice","Street":"ulica Gabriela Narutowicza","HouseNumber":"31","PostalCode":"95-200","AdditionalData":[{"value":"Polska","key":"CountryName"},{"value":"Woj. Łódzkie","key":"StateName"},{"value":"Powiat Pabianicki","key":"CountyName"}]},"MapReference":{"ReferenceId":"595647949","Spot":0.29,"SideOfStreet":"left","CountryId":"20624059","StateId":"20625723","CountyId":"20625866","CityId":"20675061","DistrictId":"20675062","AddressId":"222090988","RoadLinkId":"95823437"}}},{"Relevance":1.0,"Distance":93.2,"MatchLevel":"houseNumber","MatchQuality":{"Country":1.0,"State":1.0,"County":1.0,"City":1.0,"District":1.0,"Street":[1.0],"HouseNumber":1.0,"PostalCode":1.0},"MatchType":"interpolated","Location":{"LocationId":"NT_2I02-vb9Nzb1Gbnm6-Zj1B_l_595647942_L_yID","LocationType":"point","DisplayPosition":{"Latitude":51.66043,"Longitude":19.348987},"MapView":{"TopLeft":{"Latitude":51.6615542,"Longitude":19.3471748},"BottomRight":{"Latitude":51.6593058,"Longitude":19.3507992}},"Address":{"Label":"ulica Stanisława Moniuszki 22, 95-200 Pabianice, Polska","Country":"POL","State":"Woj. Łódzkie","County":"Powiat Pabianicki","City":"Pabianice","District":"Pabianice","Street":"ulica Stanisława Moniuszki","HouseNumber":"22","PostalCode":"95-200","AdditionalData":[{"value":"Polska","key":"CountryName"},{"value":"Woj. Łódzkie","key":"StateName"},{"value":"Powiat Pabianicki","key":"CountyName"}]},"MapReference":{"ReferenceId":"595647942","Spot":0.52,"SideOfStreet":"left","CountryId":"20624059","StateId":"20625723","CountyId":"20625866","CityId":"20675061","DistrictId":"20675062"}}}]}]}}