{"Response":{"MetaInfo":{"Timestamp":"2020-03-28T10:57:29.780+0000","NextPageInformation":"2"},"View":[{"_type":"SearchResultsViewType","ViewId":0,"Result":[{"Relevance":1.0,"Distance":0.0,"Direction":0.0,"MatchLevel":"city","MatchQuality":{"Country":1.0,"State":1.0,"County":1.0,"City":1.0,"PostalCode":1.0},"Location":{"LocationId":"NT_QokEh5d6081rZR2fcp1JzC","LocationType":"point","DisplayPosition":{"Latitude":51.6769252,"Longitude":6.1807538},"MapView":{"TopLeft":{"Latitude":51.74816,"Longitude":6.02611},"BottomRight":{"Latitude":51.61381,"Longitude":6.22931}},"Address":{"Label":"Goch, Nordrhein-Westfalen, Deutschland","Country":"DEU","State":"Nordrhein-Westfalen","County":"Kleve","City":"Goch","PostalCode":"47574","AdditionalData":[{"value":"Deutschland","key":"CountryName"},{"value":"Nordrhein-Westfalen","key":"StateName"},{"value":"Kleve","key":"CountyName"}]},"MapReference":{"ReferenceId":"1195670522","SideOfStreet":"neither","CountryId":"20147700","StateId":"20157369","CountyId":"20157516","CityId":"20157545"}}},{"Relevance":1.0,"Distance":25.5,"MatchLevel":"houseNumber","MatchQuality":{"Country":1.0,"State":1.0,"County":1.0,"City":1.0,"Street":[1.0],"HouseNumber":1.0,"PostalCode":1.0},"MatchType":"interpolated","Location":{"LocationId":"NT_ydzX8b1I7Y.hWYHhCmMK-C_yEjM","LocationType":"point","DisplayPosition":{"Latitude":51.67738,"Longitude":6.18032},"MapView":{"TopLeft":{"Latitude":51.6785042,"Longitude":6.1785071},"BottomRight":{"Latitude":51.6762558,"Longitude":6.1821329}},"Address":{"Label":"Voßheider Straße 212, 47574 Goch, Deutschland","Country":"DEU","State":"Nordrhein-Westfalen","County":"Kleve","City":"Goch","Street":"Voßheider Straße","HouseNumber":"212","PostalCode":"47574","AdditionalData":[{"value":"Deutschland","key":"CountryName"},{"value":"Nordrhein-Westfalen","key":"StateName"},{"value":"Kleve","key":"CountyName"}]},"MapReference":{"ReferenceId":"76208708","Spot":0.38,"SideOfStreet":"right","CountryId":"20147700","StateId":"20157369","CountyId":"20157516","CityId":"20157545","AddressId":"622141206","RoadLinkId":"35325559"}}},{"Relevance":1.0,"Distance":113.0,"MatchLevel":"houseNumber","MatchQuality":{"Country":1.0,"State":1.0,"County":1.0,"City":1.0,"District":1.0,"Street":[1.0],"HouseNumber":1.0,"PostalCode":1.0},"MatchType":"interpolated","Location":{"LocationId":"NT_GxndgIfzYdr1ASUoDv3lbC_0EE","LocationType":"point","DisplayPosition":{"Latitude":51.67577,"Longitude":6.17902},"MapView":{"TopLeft":{"Latitude":51.6768942,"Longitude":6.1772072},"BottomRight":{"Latitude":51.6746458,"Longitude":6.1808328}},"Address":{"Label":"Van-den-Bosch-Straße 4A, 47574 Goch, Deutschland","Country":"DEU","State":"Nordrhein-Westfalen","County":"Kleve","City":"Goch","District":"Goch","Street":"Van-den-Bosch-Straße","HouseNumber":"4A","PostalCode":"47574","AdditionalData":[{"value":"Deutschland","key":"CountryName"},{"value":"Nordrhein-Westfalen","key":"StateName"},{"value":"Kleve","key":"CountyName"}]},"MapReference":{"ReferenceId":"69235078","Spot":0.27,"SideOfStreet":"right","CountryId":"20147700","StateId":"20157369","CountyId":"20157516","CityId":"20157545","DistrictId":"20157552","AddressId":"622133851","RoadLinkId":"34939456"}}},{"Relevance":1.0,"Distance":151.2,"MatchLevel":"houseNumber","MatchQuality":{"Country":1.0,"State":1.0,"County":1.0,"City":1.0,"District":1.0,"Street":[1.0],"HouseNumber":1.0,"PostalCode":1.0},"MatchType":"interpolated","Location":{"LocationId":"NT_rLiDqwZqsBT3vxjGmSi2TC_xETN","LocationType":"point","DisplayPosition":{"Latitude":51.6754,"Longitude":6.18045},"MapView":{"TopLeft":{"Latitude":51.6765242,"Longitude":6.1786372},"BottomRight":{"Latitude":51.6742758,"Longitude":6.1822628}},"Address":{"Label":"Kalbecker Straße 115, 47574 Goch, Deutschland","Country":"DEU","State":"Nordrhein-Westfalen","County":"Kleve","City":"Goch","District":"Goch","Street":"Kalbecker Straße","HouseNumber":"115","PostalCode":"47574","AdditionalData":[{"value":"Deutschland","key":"CountryName"},{"value":"Nordrhein-Westfalen","key":"StateName"},{"value":"Kleve","key":"CountyName"}]},"MapReference":{"ReferenceId":"69235116","Spot":0.57,"SideOfStreet":"left","CountryId":"20147700","StateId":"20157369","CountyId":"20157516","CityId":"20157545","DistrictId":"20157552","AddressId":"192505114","RoadLinkId":"35719221"}}},{"Relevance":1.0,"Distance":169.4,"MatchLevel":"street","MatchQuality":{"Country":1.0,"State":1.0,"County":1.0,"City":1.0,"Street":[1.0],"PostalCode":1.0},"Location":{"LocationId":"NT_1BnP11kmVM8LhERsmT6SMA_l_69235115_L","LocationType":"point","DisplayPosition":{"Latitude":51.67544,"Longitude":6.1813},"MapView":{"TopLeft":{"Latitude":51.67628,"Longitude":6.1813},"BottomRight":{"Latitude":51.67544,"Longitude":6.1849}},"Address":{"Label":"Kalbecker Straße, 47574 Goch, Deutschland","Country":"DEU","State":"Nordrhein-Westfalen","County":"Kleve","City":"Goch","Street":"Kalbecker Straße","PostalCode":"47574","AdditionalData":[{"value":"Deutschland","key":"CountryName"},{"value":"Nordrhein-Westfalen","key":"StateName"},{"value":"Kleve","key":"CountyName"}]},"MapReference":{"ReferenceId":"69235115","Spot":0.0,"SideOfStreet":"left","CountryId":"20147700","StateId":"20157369","CountyId":"20157516","CityId":"20157545"}}},{"Relevance":1.0,"Distance":187.0,"MatchLevel":"houseNumber","MatchQuality":{"Country":1.0,"State":1.0,"County":1.0,"City":1.0,"District":1.0,"Street":[1.0],"HouseNumber":1.0,"PostalCode":1.0},"MatchType":"interpolated","Location":{"LocationId":"NT_Q0y6gy27nVJHsrLnPznbMB_yADM","LocationType":"point","DisplayPosition":{"Latitude":51.67683,"Longitude":6.17796},"MapView":{"TopLeft":{"Latitude":51.6779542,"Longitude":6.1761471},"BottomRight":{"Latitude":51.6757058,"Longitude":6.1797729}},"Address":{"Label":"Voßheider Straße 200, 47574 Goch, Deutschland","Country":"DEU","State":"Nordrhein-Westfalen","County":"Kleve","City":"Goch","District":"Goch","Street":"Voßheider Straße","HouseNumber":"200","PostalCode":"47574","AdditionalData":[{"value":"Deutschland","key":"CountryName"},{"value":"Nordrhein-Westfalen","key":"StateName"},{"value":"Kleve","key":"CountyName"}]},"MapReference":{"ReferenceId":"69235027","Spot":0.78,"SideOfStreet":"right","CountryId":"20147700","StateId":"20157369","CountyId":"20157516","CityId":"20157545","DistrictId":"20157552","AddressId":"193265146","RoadLinkId":"35105646"}}},{"Relevance":1.0,"Distance":204.4,"MatchLevel":"street","MatchQuality":{"Country":1.0,"State":1.0,"County":1.0,"City":1.0,"District":1.0,"Street":[1.0],"PostalCode":1.0},"Location":{"LocationId":"NT_rLiDqwZqsBT3vxjGmSi2TC_l_69235053_L","LocationType":"point","DisplayPosition":{"Latitude":51.67532,"Longitude":6.17931},"MapView":{"TopLeft":{"Latitude":51.67532,"Longitude":6.1787},"BottomRight":{"Latitude":51.67517,"Longitude":6.17931}},"Address":{"Label":"Kalbecker Straße, 47574 Goch, Deutschland","Country":"DEU","State":"Nordrhein-Westfalen","County":"Kleve","City":"Goch","District":"Goch","Street":"Kalbecker Straße","PostalCode":"47574","AdditionalData":[{"value":"Deutschland","key":"CountryName"},{"value":"Nordrhein-Westfalen","key":"StateName"},{"value":"Kleve","key":"CountyName"}]},"MapReference":{"ReferenceId":"69235053","Spot":1.0,"SideOfStreet":"left","CountryId":"20147700","StateId":"20157369","CountyId":"20157516","CityId":"20157545","DistrictId":"20157552"}}},{"Relevance":1.0,"Distance":214.7,"MatchLevel":"houseNumber","MatchQuality":{"Country":1.0,"State":1.0,"County":1.0,"City":1.0,"District":1.0,"Street":[1.0],"HouseNumber":1.0,"PostalCode":1.0},"MatchType":"interpolated","Location":{"LocationId":"NT_q3xQM3oyc11C26x5RV4y2D_xMjN","LocationType":"point","DisplayPosition":{"Latitude":51.675,"Longitude":6.18051},"MapView":{"TopLeft":{"Latitude":51.6761242,"Longitude":6.1786972},"BottomRight":{"Latitude":51.6738758,"Longitude":6.1823228}},"Address":{"Label":"Pannenhofstraße 136, 47574 Goch, Deutschland","Country":"DEU","State":"Nordrhein-Westfalen","County":"Kleve","City":"Goch","District":"Goch","Street":"Pannenhofstraße","HouseNumber":"136","PostalCode":"47574","AdditionalData":[{"value":"Deutschland","key":"CountryName"},{"value":"Nordrhein-Westfalen","key":"StateName"},{"value":"Kleve","key":"CountyName"}]},"MapReference":{"ReferenceId":"69235012","Spot":1.0,"SideOfStreet":"right","CountryId":"20147700","StateId":"20157369","CountyId":"20157516","CityId":"20157545","DistrictId":"20157552","AddressId":"209473903","RoadLinkId":"35737968"}}},{"Relevance":1.0,"Distance":219.1,"MatchLevel":"houseNumber","MatchQuality":{"Country":1.0,"State":1.0,"County":1.0,"City":1.0,"Street":[1.0],"HouseNumber":1.0,"PostalCode":1.0},"MatchType":"interpolated","Location":{"LocationId":"NT_HvSzZgGnpqw-pLV4pZDiGC_0AD","LocationType":"point","DisplayPosition":{"Latitude":51.67876,"Longitude":6.17909},"MapView":{"TopLeft":{"Latitude":51.6798842,"Longitude":6.1772771},"BottomRight":{"Latitude":51.6776358,"Longitude":6.1809029}},"Address":{"Label":"Voßheide 40, 47574 Goch, Deutschland","Country":"DEU","State":"Nordrhein-Westfalen","County":"Kleve","City":"Goch","Street":"Voßheide","HouseNumber":"40","PostalCode":"47574","AdditionalData":[{"value":"Deutschland","key":"CountryName"},{"value":"Nordrhein-Westfalen","key":"StateName"},{"value":"Kleve","key":"CountyName"}]},"MapReference":{"ReferenceId":"75384380","Spot":0.66,"SideOfStreet":"right","CountryId":"20147700","StateId":"20157369","CountyId":"20157516","CityId":"20157545","AddressId":"196311119","RoadLinkId":"35371128"}}},{"Relevance":1.0,"Distance":222.5,"MatchLevel":"houseNumber","MatchQuality":{"Country":1.0,"State":1.0,"County":1.0,"City":1.0,"District":1.0,"Street":[1.0],"HouseNumber":1.0,"PostalCode":1.0},"MatchType":"interpolated","Location":{"LocationId":"NT_q3xQM3oyc11C26x5RV4y2D_xIzM","LocationType":"point","DisplayPosition":{"Latitude":51.6751,"Longitude":6.17943},"MapView":{"TopLeft":{"Latitude":51.6762242,"Longitude":6.1776172},"BottomRight":{"Latitude":51.6739758,"Longitude":6.1812428}},"Address":{"Label":"Pannenhofstraße 123, 47574 Goch, Deutschland","Country":"DEU","State":"Nordrhein-Westfalen","County":"Kleve","City":"Goch","District":"Goch","Street":"Pannenhofstraße","HouseNumber":"123","PostalCode":"47574","AdditionalData":[{"value":"Deutschland","key":"CountryName"},{"value":"Nordrhein-Westfalen","key":"StateName"},{"value":"Kleve","key":"CountyName"}]},"MapReference":{"ReferenceId":"69235025","Spot":0.52,"SideOfStreet":"left","CountryId":"20147700","StateId":"20157369","CountyId":"20157516","CityId":"20157545","DistrictId":"20157552","AddressId":"194737470","RoadLinkId":"35404296"}}}]}]}}