{"Response":{"MetaInfo":{"Timestamp":"2020-03-28T12:00:03.442+0000","NextPageInformation":"2"},"View":[{"_type":"SearchResultsViewType","ViewId":0,"Result":[{"Relevance":1.0,"Distance":0.0,"Direction":0.0,"MatchLevel":"district","MatchQuality":{"Country":1.0,"State":1.0,"County":1.0,"City":1.0,"District":1.0,"PostalCode":1.0},"Location":{"LocationId":"NT_Z8ieKSSckb0k0l3KwNOt-B","LocationType":"point","DisplayPosition":{"Latitude":51.6954557,"Longitude":-0.1773967},"MapView":{"TopLeft":{"Latitude":51.70882,"Longitude":-0.21853},"BottomRight":{"Latitude":51.68462,"Longitude":-0.16313}},"Address":{"Label":"Potters Bar, England, United Kingdom","Country":"GBR","State":"England","County":"Hertfordshire","City":"Potters Bar","District":"Potters Bar","PostalCode":"EN6 5","AdditionalData":[{"value":"United Kingdom","key":"CountryName"},{"value":"England","key":"StateName"},{"value":"Hertfordshire","key":"CountyName"}]},"MapReference":{"ReferenceId":"836001518","SideOfStreet":"neither","StateId":"20248595","CountyId":"20336428","CityId":"20336593","DistrictId":"20336594"}}},{"Relevance":1.0,"Distance":17.1,"MatchLevel":"houseNumber","MatchQuality":{"Country":1.0,"State":1.0,"County":1.0,"City":1.0,"District":1.0,"Street":[1.0],"HouseNumber":1.0,"PostalCode":1.0},"MatchType":"interpolated","Location":{"LocationId":"NT_vHDf-eliY4zHWoArHpe2ZA_l_25518727_L_5QD","LocationType":"point","DisplayPosition":{"Latitude":51.695279,"Longitude":-0.1770371},"MapView":{"TopLeft":{"Latitude":51.6964031,"Longitude":-0.1788507},"BottomRight":{"Latitude":51.6941548,"Longitude":-0.1752235}},"Address":{"Label":"94 High Street, Potters Bar, EN6 5AT, United Kingdom","Country":"GBR","State":"England","County":"Hertfordshire","City":"Potters Bar","District":"Potters Bar","Street":"High Street","HouseNumber":"94","PostalCode":"EN6 5AT","AdditionalData":[{"value":"United Kingdom","key":"CountryName"},{"value":"England","key":"StateName"},{"value":"Hertfordshire","key":"CountyName"}]},"MapReference":{"ReferenceId":"25518727","Spot":0.39,"SideOfStreet":"left","StateId":"20248595","CountyId":"20336428","CityId":"20336593","DistrictId":"20336594"}}},{"Relevance":1.0,"Distance":29.4,"MatchLevel":"postalCode","MatchQuality":{"PostalCode":1.0},"MatchType":"interpolated","Location":{"LocationId":"NT_vHDf-eliY4zHWoArHpe2ZA_l_25518727_L_5QD","LocationType":"point","DisplayPosition":{"Latitude":51.69545,"Longitude":-0.17697},"MapView":{"TopLeft":{"Latitude":51.7044432,"Longitude":-0.1914789},"BottomRight":{"Latitude":51.6864568,"Longitude":-0.1624611}},"Address":{"Label":"EN6 5AT, Potters Bar, England, United Kingdom","Country":"GBR","State":"England","County":"Hertfordshire","City":"Potters Bar","PostalCode":"EN6 5AT","AdditionalData":[{"value":"United Kingdom","key":"CountryName"},{"value":"England","key":"StateName"},{"value":"Hertfordshire","key":"CountyName"}]},"MapReference":{"ReferenceId":"25518727","Spot":0.39,"SideOfStreet":"neither","StateId":"20248595","CountyId":"20336428","CityId":"20336593"}}},{"Relevance":1.0,"Distance":30.2,"MatchLevel":"houseNumber","MatchQuality":{"Country":1.0,"State":1.0,"County":1.0,"City":1.0,"District":1.0,"Street":[1.0],"HouseNumber":1.0,"PostalCode":1.0},"MatchType":"interpolated","Location":{"LocationId":"NT_5PxjYwY7eWJUBVNeJdKIiA_l_565990754_R_xA","LocationType":"point","DisplayPosition":{"Latitude":51.69505,"Longitude":-0.1774401},"MapView":{"TopLeft":{"Latitude":51.6961742,"Longitude":-0.1792537},"BottomRight":{"Latitude":51.6939259,"Longitude":-0.1756265}},"Address":{"Label":"1 The Walk, Potters Bar, EN6 1QL, United Kingdom","Country":"GBR","State":"England","County":"Hertfordshire","City":"Potters Bar","District":"Potters Bar","Street":"The Walk","HouseNumber":"1","PostalCode":"EN6 1QL","AdditionalData":[{"value":"United Kingdom","key":"CountryName"},{"value":"England","key":"StateName"},{"value":"Hertfordshire","key":"CountyName"}]},"MapReference":{"ReferenceId":"565990754","Spot":0.09,"SideOfStreet":"right","StateId":"20248595","CountyId":"20336428","CityId":"20336593","DistrictId":"20336594"}}},{"Relevance":1.0,"Distance":48.7,"MatchLevel":"street","MatchQuality":{"Country":1.0,"State":1.0,"County":1.0,"City":1.0,"District":1.0,"Street":[1.0],"PostalCode":1.0},"Location":{"LocationId":"NT_fR-KQeax1sWVaKrJV8StrB_l_25518731_R","LocationType":"point","DisplayPosition":{"Latitude":51.69503,"Longitude":-0.17723},"MapView":{"TopLeft":{"Latitude":51.69503,"Longitude":-0.17723},"BottomRight":{"Latitude":51.695,"Longitude":-0.17698}},"Address":{"Label":"The Walk, Potters Bar, EN6 5, United Kingdom","Country":"GBR","State":"England","County":"Hertfordshire","City":"Potters Bar","District":"Potters Bar","Street":"The Walk","PostalCode":"EN6 5","AdditionalData":[{"value":"United Kingdom","key":"CountryName"},{"value":"England","key":"StateName"},{"value":"Hertfordshire","key":"CountyName"}]},"MapReference":{"ReferenceId":"25518731","Spot":1.0,"SideOfStreet":"right","StateId":"20248595","CountyId":"20336428","CityId":"20336593","DistrictId":"20336594"}}},{"Relevance":1.0,"Distance":48.9,"MatchLevel":"houseNumber","MatchQuality":{"Country":1.0,"State":1.0,"County":1.0,"City":1.0,"District":1.0,"Street":[1.0],"HouseNumber":1.0,"PostalCode":1.0},"MatchType":"interpolated","Location":{"LocationId":"NT_vHDf-eliY4zHWoArHpe2ZA_l_25518730_R_4kD","LocationType":"point","DisplayPosition":{"Latitude":51.6952401,"Longitude":-0.1767776},"MapView":{"TopLeft":{"Latitude":51.6963642,"Longitude":-0.1785912},"BottomRight":{"Latitude":51.6941159,"Longitude":-0.174964}},"Address":{"Label":"89 High Street, Potters Bar, EN6 5, United Kingdom","Country":"GBR","State":"England","County":"Hertfordshire","City":"Potters Bar","District":"Potters Bar","Street":"High Street","HouseNumber":"89","PostalCode":"EN6 5","AdditionalData":[{"value":"United Kingdom","key":"CountryName"},{"value":"England","key":"StateName"},{"value":"Hertfordshire","key":"CountyName"}]},"MapReference":{"ReferenceId":"25518730","Spot":0.41,"SideOfStreet":"right","StateId":"20248595","CountyId":"20336428","CityId":"20336593","DistrictId":"20336594"}}},{"Relevance":1.0,"Distance":50.6,"MatchLevel":"street","MatchQuality":{"Country":1.0,"State":1.0,"County":1.0,"City":1.0,"District":1.0,"Street":[1.0],"PostalCode":1.0},"Location":{"LocationId":"NT_vHDf-eliY4zHWoArHpe2ZA_l_25518638_L","LocationType":"point","DisplayPosition":{"Latitude":51.69566,"Longitude":-0.17674},"MapView":{"TopLeft":{"Latitude":51.69566,"Longitude":-0.17674},"BottomRight":{"Latitude":51.69559,"Longitude":-0.1765}},"Address":{"Label":"High Street, Potters Bar, EN6 5, United Kingdom","Country":"GBR","State":"England","County":"Hertfordshire","City":"Potters Bar","District":"Potters Bar","Street":"High Street","PostalCode":"EN6 5","AdditionalData":[{"value":"United Kingdom","key":"CountryName"},{"value":"England","key":"StateName"},{"value":"Hertfordshire","key":"CountyName"}]},"MapReference":{"ReferenceId":"25518638","Spot":1.0,"SideOfStreet":"left","StateId":"20248595","CountyId":"20336428","CityId":"20336593","DistrictId":"20336594"}}},{"Relevance":1.0,"Distance":55.2,"MatchLevel":"houseNumber","MatchQuality":{"Country":1.0,"State":1.0,"County":1.0,"City":1.0,"District":1.0,"Street":[1.0],"HouseNumber":1.0,"PostalCode":1.0},"MatchType":"interpolated","Location":{"LocationId":"NT_brmnA2ffYEk4r8kGNwtx6B_l_25518761_L_4QD","LocationType":"point","DisplayPosition":{"Latitude":51.6948624,"Longitude":-0.1770676},"MapView":{"TopLeft":{"Latitude":51.6959865,"Longitude":-0.1788812},"BottomRight":{"Latitude":51.6937382,"Longitude":-0.1752541}},"Address":{"Label":"84 High Street, Potters Bar, EN6 5AB, United Kingdom","Country":"GBR","State":"England","County":"Hertfordshire","City":"Potters Bar","District":"Potters Bar","Street":"High Street","HouseNumber":"84","PostalCode":"EN6 5AB","AdditionalData":[{"value":"United Kingdom","key":"CountryName"},{"value":"England","key":"StateName"},{"value":"Hertfordshire","key":"CountyName"}]},"MapReference":{"ReferenceId":"25518761","Spot":0.53,"SideOfStreet":"left","StateId":"20248595","CountyId":"20336428","CityId":"20336593","DistrictId":"20336594"}}},{"Relevance":1.0,"Distance":63.4,"MatchLevel":"houseNumber","MatchQuality":{"Country":1.0,"State":1.0,"County":1.0,"City":1.0,"District":1.0,"Street":[1.0],"HouseNumber":1.0,"PostalCode":1.0},"MatchType":"interpolated","Location":{"LocationId":"NT_vHDf-eliY4zHWoArHpe2ZA_l_25518628_L_xEDM","LocationType":"point","DisplayPosition":{"Latitude":51.69578,"Longitude":-0.17664},"MapView":{"TopLeft":{"Latitude":51.6969042,"Longitude":-0.1784536},"BottomRight":{"Latitude":51.6946559,"Longitude":-0.1748263}},"Address":{"Label":"110 High Street, Potters Bar, EN6 5AT, United Kingdom","Country":"GBR","State":"England","County":"Hertfordshire","City":"Potters Bar","District":"Potters Bar","Street":"High Street","HouseNumber":"110","PostalCode":"EN6 5AT","AdditionalData":[{"value":"United Kingdom","key":"CountryName"},{"value":"England","key":"StateName"},{"value":"Hertfordshire","key":"CountyName"}]},"MapReference":{"ReferenceId":"25518628","Spot":0.1,"SideOfStreet":"left","StateId":"20248595","CountyId":"20336428","CityId":"20336593","DistrictId":"20336594"}}},{"Relevance":1.0,"Distance":63.6,"MatchLevel":"street","MatchQuality":{"Country":1.0,"State":1.0,"County":1.0,"City":1.0,"District":1.0,"Street":[1.0],"PostalCode":1.0},"Location":{"LocationId":"NT_vHDf-eliY4zHWoArHpe2ZA_l_25518637_L","LocationType":"point","DisplayPosition":{"Latitude":51.69559,"Longitude":-0.1765},"MapView":{"TopLeft":{"Latitude":51.69567,"Longitude":-0.1765},"BottomRight":{"Latitude":51.69559,"Longitude":-0.17644}},"Address":{"Label":"High Street, Potters Bar, EN6 5, United Kingdom","Country":"GBR","State":"England","County":"Hertfordshire","City":"Potters Bar","District":"Potters Bar","Street":"High Street","PostalCode":"EN6 5","AdditionalData":[{"value":"United Kingdom","key":"CountryName"},{"value":"England","key":"StateName"},{"value":"Hertfordshire","key":"CountyName"}]},"MapReference":{"ReferenceId":"25518637","Spot":0.0,"SideOfStreet":"left","StateId":"20248595","CountyId":"20336428","CityId":"20336593","DistrictId":"20336594"}}}]}]}}