{"Response":{"MetaInfo":{"Timestamp":"2020-03-28T11:29:30.113+0000","NextPageInformation":"2"},"View":[{"_type":"SearchResultsViewType","ViewId":0,"Result":[{"Relevance":1.0,"Distance":0.0,"Direction":0.0,"MatchLevel":"district","MatchQuality":{"Country":1.0,"State":1.0,"County":1.0,"City":1.0,"District":1.0,"PostalCode":1.0},"Location":{"LocationId":"NT_eaGY.-jH2n8NnuVweMQBSC","LocationType":"point","DisplayPosition":{"Latitude":51.6594022,"Longitude":19.3531108},"MapView":{"TopLeft":{"Latitude":51.69787,"Longitude":19.30353},"BottomRight":{"Latitude":51.64245,"Longitude":19.41292}},"Address":{"Label":"Pabianice, Woj. Łódzkie, Polska","Country":"POL","State":"Woj. Łódzkie","County":"Powiat Pabianicki","City":"Pabianice","District":"Pabianice","PostalCode":"95-200","AdditionalData":[{"value":"Polska","key":"CountryName"},{"value":"Woj. Łódzkie","key":"StateName"},{"value":"Powiat Pabianicki","key":"CountyName"}]},"MapReference":{"ReferenceId":"1007228663","SideOfStreet":"neither","CountryId":"20624059","StateId":"20625723","CountyId":"20625866","CityId":"20675061","DistrictId":"20675062"}}},{"Relevance":1.0,"Distance":16.8,"MatchLevel":"houseNumber","MatchQuality":{"Country":1.0,"State":1.0,"County":1.0,"City":1.0,"District":1.0,"Street":[1.0],"HouseNumber":1.0,"PostalCode":1.0},"MatchType":"interpolated","Location":{"LocationId":"NT_PK3dNtvZYW40cBtiPOvW9A_zcD","LocationType":"point","DisplayPosition":{"Latitude":51.65955,"Longitude":19.35316},"MapView":{"TopLeft":{"Latitude":51.6606742,"Longitude":19.3513478},"BottomRight":{"Latitude":51.6584258,"Longitude":19.3549722}},"Address":{"Label":"ulica Mariańska 37, 95-200 Pabianice, Polska","Country":"POL","State":"Woj. Łódzkie","County":"Powiat Pabianicki","City":"Pabianice","District":"Pabianice","Street":"ulica Mariańska","HouseNumber":"37","PostalCode":"95-200","AdditionalData":[{"value":"Polska","key":"CountryName"},{"value":"Woj. Łódzkie","key":"StateName"},{"value":"Powiat Pabianicki","key":"CountyName"}]},"MapReference":{"ReferenceId":"595648101","Spot":0.67,"SideOfStreet":"right","CountryId":"20624059","StateId":"20625723","CountyId":"20625866","CityId":"20675061","DistrictId":"20675062","AddressId":"731775868","RoadLinkId":"95581231"}}},{"Relevance":1.0,"Distance":35.7,"MatchLevel":"houseNumber","MatchQuality":{"Country":1.0,"State":1.0,"County":1.0,"City":1.0,"District":1.0,"Street":[1.0],"HouseNumber":1.0,"PostalCode":1.0},"MatchType":"interpolated","Location":{"LocationId":"NT_2I02-vb9Nzb1Gbnm6-Zj1B_0A","LocationType":"point","DisplayPosition":{"Latitude":51.66021,"Longitude":19.35361},"MapView":{"TopLeft":{"Latitude":51.6613342,"Longitude":19.3517978},"BottomRight":{"Latitude":51.6590858,"Longitude":19.3554222}},"Address":{"Label":"ulica Stanisława Moniuszki 4, 95-200 Pabianice, Polska","Country":"POL","State":"Woj. Łódzkie","County":"Powiat Pabianicki","City":"Pabianice","District":"Pabianice","Street":"ulica Stanisława Moniuszki","HouseNumber":"4","PostalCode":"95-200","AdditionalData":[{"value":"Polska","key":"CountryName"},{"value":"Woj. Łódzkie","key":"StateName"},{"value":"Powiat Pabianicki","key":"CountyName"}]},"MapReference":{"ReferenceId":"1007215669","Spot":0.0,"SideOfStreet":"left","CountryId":"20624059","StateId":"20625723","CountyId":"20625866","CityId":"20675061","DistrictId":"20675062","AddressId":"209893353","RoadLinkId":"331940748"}}},{"Relevance":1.0,"Distance":66.8,"MatchLevel":"houseNumber","MatchQuality":{"Country":1.0,"State":1.0,"County":1.0,"City":1.0,"District":1.0,"Street":[1.0],"HouseNumber":1.0,"PostalCode":1.0},"MatchType":"interpolated","Location":{"LocationId":"NT_IyDB4pkm2jQrj.zdXyrMvC_zcD","LocationType":"point","DisplayPosition":{"Latitude":51.65949,"Longitude":19.35466},"MapView":{"TopLeft":{"Latitude":51.6606142,"Longitude":19.3528478},"BottomRight":{"Latitude":51.6583658,"Longitude":19.3564722}},"Address":{"Label":"ulica Jana Kilińskiego 37, 95-200 Pabianice, Polska","Country":"POL","State":"Woj. Łódzkie","County":"Powiat Pabianicki","City":"Pabianice","District":"Pabianice","Street":"ulica Jana Kilińskiego","HouseNumber":"37","PostalCode":"95-200","AdditionalData":[{"value":"Polska","key":"CountryName"},{"value":"Woj. Łódzkie","key":"StateName"},{"value":"Powiat Pabianicki","key":"CountyName"}]},"MapReference":{"ReferenceId":"1007314166","Spot":0.91,"SideOfStreet":"left","CountryId":"20624059","StateId":"20625723","CountyId":"20625866","CityId":"20675061","DistrictId":"20675062","AddressId":"222102909","RoadLinkId":"332043389"}}},{"Relevance":1.0,"Distance":81.3,"MatchLevel":"houseNumber","MatchQuality":{"Country":1.0,"State":1.0,"County":1.0,"City":1.0,"District":1.0,"Street":[1.0],"HouseNumber":1.0,"PostalCode":1.0},"MatchType":"interpolated","Location":{"LocationId":"NT_2I02-vb9Nzb1Gbnm6-Zj1B_2A","LocationType":"point","DisplayPosition":{"Latitude":51.66025,"Longitude":19.35292},"MapView":{"TopLeft":{"Latitude":51.6613742,"Longitude":19.3511078},"BottomRight":{"Latitude":51.6591258,"Longitude":19.3547322}},"Address":{"Label":"ulica Stanisława Moniuszki 6, 95-200 Pabianice, Polska","Country":"POL","State":"Woj. Łódzkie","County":"Powiat Pabianicki","City":"Pabianice","District":"Pabianice","Street":"ulica Stanisława Moniuszki","HouseNumber":"6","PostalCode":"95-200","AdditionalData":[{"value":"Polska","key":"CountryName"},{"value":"Woj. Łódzkie","key":"StateName"},{"value":"Powiat Pabianicki","key":"CountyName"}]},"MapReference":{"ReferenceId":"1007215666","Spot":0.49,"SideOfStreet":"left","CountryId":"20624059","StateId":"20625723","CountyId":"20625866","CityId":"20675061","DistrictId":"20675062","AddressId":"210308218","RoadLinkId":"331940745"}}},{"Relevance":1.0,"Distance":81.6,"MatchLevel":"houseNumber","MatchQuality":{"Country":1.0,"State":1.0,"County":1.0,"City":1.0,"District":1.0,"Street":[1.0],"HouseNumber":1.0,"PostalCode":1.0},"MatchType":"interpolated","Location":{"LocationId":"NT_IyDB4pkm2jQrj.zdXyrMvC_zUD","LocationType":"point","DisplayPosition":{"Latitude":51.65976,"Longitude":19.35448},"MapView":{"TopLeft":{"Latitude":51.6608842,"Longitude":19.3526678},"BottomRight":{"Latitude":51.6586358,"Longitude":19.3562922}},"Address":{"Label":"ulica Jana Kilińskiego 35, 95-200 Pabianice, Polska","Country":"POL","State":"Woj. Łódzkie","County":"Powiat Pabianicki","City":"Pabianice","District":"Pabianice","Street":"ulica Jana Kilińskiego","HouseNumber":"35","PostalCode":"95-200","AdditionalData":[{"value":"Polska","key":"CountryName"},{"value":"Woj. Łódzkie","key":"StateName"},{"value":"Powiat Pabianicki","key":"CountyName"}]},"MapReference":{"ReferenceId":"1007314167","Spot":1.0,"SideOfStreet":"left","CountryId":"20624059","StateId":"20625723","CountyId":"20625866","CityId":"20675061","DistrictId":"20675062","AddressId":"222102904","RoadLinkId":"332043390"}}},{"Relevance":1.0,"Distance":90.4,"MatchLevel":"houseNumber","MatchQuality":{"Country":1.0,"State":1.0,"County":1.0,"City":1.0,"District":1.0,"Street":[1.0],"HouseNumber":1.0,"PostalCode":1.0},"MatchType":"interpolated","Location":{"LocationId":"NT_2I02-vb9Nzb1Gbnm6-Zj1B_4A","LocationType":"point","DisplayPosition":{"Latitude":51.66027,"Longitude":19.35259},"MapView":{"TopLeft":{"Latitude":51.6613942,"Longitude":19.3507778},"BottomRight":{"Latitude":51.6591458,"Longitude":19.3544022}},"Address":{"Label":"ulica Stanisława Moniuszki 8, 95-200 Pabianice, Polska","Country":"POL","State":"Woj. Łódzkie","County":"Powiat Pabianicki","City":"Pabianice","District":"Pabianice","Street":"ulica Stanisława Moniuszki","HouseNumber":"8","PostalCode":"95-200","AdditionalData":[{"value":"Polska","key":"CountryName"},{"value":"Woj. Łódzkie","key":"StateName"},{"value":"Powiat Pabianicki","key":"CountyName"}]},"MapReference":{"ReferenceId":"1007215667","Spot":0.05,"SideOfStreet":"left","CountryId":"20624059","StateId":"20625723","CountyId":"20625866","CityId":"20675061","DistrictId":"20675062","AddressId":"209819499","RoadLinkId":"331940746"}}},{"Relevance":1.0,"Distance":101.9,"MatchLevel":"street","MatchQuality":{"Country":1.0,"State":1.0,"County":1.0,"City":1.0,"District":1.0,"PostalCode":1.0},"Location":{"LocationId":"NT_-fszY.o2uog1X7oaFBwP7C_l_1269105621_L","LocationType":"point","DisplayPosition":{"Latitude":51.66006,"Longitude":19.35414},"MapView":{"TopLeft":{"Latitude":51.66013,"Longitude":19.35411},"BottomRight":{"Latitude":51.66,"Longitude":19.35432}},"Address":{"Label":"95-200 Pabianice, Polska","Country":"POL","State":"Woj. Łódzkie","County":"Powiat Pabianicki","City":"Pabianice","District":"Pabianice","PostalCode":"95-200","AdditionalData":[{"value":"Polska","key":"CountryName"},{"value":"Woj. Łódzkie","key":"StateName"},{"value":"Powiat Pabianicki","key":"CountyName"}]},"MapReference":{"ReferenceId":"1269105621","Spot":0.72,"SideOfStreet":"left","CountryId":"20624059","StateId":"20625723","CountyId":"20625866","CityId":"20675061","DistrictId":"20675062"}}},{"Relevance":1.0,"Distance":102.0,"MatchLevel":"houseNumber","MatchQuality":{"Country":1.0,"State":1.0,"County":1.0,"City":1.0,"District":1.0,"Street":[1.0],"HouseNumber":1.0,"PostalCode":1.0},"MatchType":"interpolated","Location":{"LocationId":"NT_2I02-vb9Nzb1Gbnm6-Zj1B_xA","LocationType":"point","DisplayPosition":{"Latitude":51.66021,"Longitude":19.35381},"MapView":{"TopLeft":{"Latitude":51.6613342,"Longitude":19.3519978},"BottomRight":{"Latitude":51.6590858,"Longitude":19.3556222}},"Address":{"Label":"ulica Stanisława Moniuszki 1, 95-200 Pabianice, Polska","Country":"POL","State":"Woj. Łódzkie","County":"Powiat Pabianicki","City":"Pabianice","District":"Pabianice","Street":"ulica Stanisława Moniuszki","HouseNumber":"1","PostalCode":"95-200","AdditionalData":[{"value":"Polska","key":"CountryName"},{"value":"Woj. Łódzkie","key":"StateName"},{"value":"Powiat Pabianicki","key":"CountyName"}]},"MapReference":{"ReferenceId":"1007215668","Spot":0.0,"SideOfStreet":"right","CountryId":"20624059","StateId":"20625723","CountyId":"20625866","CityId":"20675061","DistrictId":"20675062","AddressId":"732109541","RoadLinkId":"331940747"}}},{"Relevance":1.0,"Distance":102.0,"MatchLevel":"street","MatchQuality":{"Country":1.0,"State":1.0,"County":1.0,"City":1.0,"District":1.0,"Street":[1.0],"PostalCode":1.0},"Location":{"LocationId":"NT_2I02-vb9Nzb1Gbnm6-Zj1B_l_1269105625_L","LocationType":"point","DisplayPosition":{"Latitude":51.66021,"Longitude":19.35381},"MapView":{"TopLeft":{"Latitude":51.66022,"Longitude":19.35381},"BottomRight":{"Latitude":51.6602,"Longitude":19.35414}},"Address":{"Label":"ulica Stanisława Moniuszki, 95-200 Pabianice, Polska","Country":"POL","State":"Woj. Łódzkie","County":"Powiat Pabianicki","City":"Pabianice","District":"Pabianice","Street":"ulica Stanisława Moniuszki","PostalCode":"95-200","AdditionalData":[{"value":"Polska","key":"CountryName"},{"value":"Woj. Łódzkie","key":"StateName"},{"value":"Powiat Pabianicki","key":"CountyName"}]},"MapReference":{"ReferenceId":"1269105625","Spot":1.0,"SideOfStreet":"left","CountryId":"20624059","StateId":"20625723","CountyId":"20625866","CityId":"20675061","DistrictId":"20675062"}}}]}]}}