{"Response":{"MetaInfo":{"Timestamp":"2020-03-28T10:23:18.605+0000","NextPageInformation":"2"},"View":[{"_type":"SearchResultsViewType","ViewId":0,"Result":[{"Relevance":1.0,"Distance":0.0,"Direction":0.0,"MatchLevel":"city","MatchQuality":{"Country":1.0,"State":1.0,"County":1.0,"City":1.0,"PostalCode":1.0},"Location":{"LocationId":"NT_4Wv1aMSekmanO7wFoUazTB","LocationType":"point","DisplayPosition":{"Latitude":51.693009,"Longitude":6.8695736},"MapView":{"TopLeft":{"Latitude":51.74881,"Longitude":6.69967},"BottomRight":{"Latitude":51.63111,"Longitude":6.94058}},"Address":{"Label":"Schermbeck, Nordrhein-Westfalen, Deutschland","Country":"DEU","State":"Nordrhein-Westfalen","County":"Wesel","City":"Schermbeck","PostalCode":"46514","AdditionalData":[{"value":"Deutschland","key":"CountryName"},{"value":"Nordrhein-Westfalen","key":"StateName"},{"value":"Wesel","key":"CountyName"}]},"MapReference":{"ReferenceId":"51355764","SideOfStreet":"neither","CountryId":"20147700","StateId":"20157369","CountyId":"20157875","CityId":"20157938"}}},{"Relevance":1.0,"Distance":22.4,"MatchLevel":"houseNumber","MatchQuality":{"Country":1.0,"State":1.0,"County":1.0,"City":1.0,"District":1.0,"Street":[1.0],"HouseNumber":1.0,"PostalCode":1.0},"MatchType":"interpolated","Location":{"LocationId":"NT_M05e-stPeIq66XyqRlSrkC_0A","LocationType":"point","DisplayPosition":{"Latitude":51.69279,"Longitude":6.86975},"MapView":{"TopLeft":{"Latitude":51.6939142,"Longitude":6.8679365},"BottomRight":{"Latitude":51.6916658,"Longitude":6.8715635}},"Address":{"Label":"Burgstraße 4, 46514 Schermbeck, Deutschland","Country":"DEU","State":"Nordrhein-Westfalen","County":"Wesel","City":"Schermbeck","District":"Schermbeck","Street":"Burgstraße","HouseNumber":"4","PostalCode":"46514","AdditionalData":[{"value":"Deutschland","key":"CountryName"},{"value":"Nordrhein-Westfalen","key":"StateName"},{"value":"Wesel","key":"CountyName"}]},"MapReference":{"ReferenceId":"51355373","Spot":0.43,"SideOfStreet":"left","CountryId":"20147700","StateId":"20157369","CountyId":"20157875","CityId":"20157938","DistrictId":"20157945","AddressId":"194985826","RoadLinkId":"34965752"}}},{"Relevance":1.0,"Distance":31.9,"MatchLevel":"street","MatchQuality":{"Country":1.0,"State":1.0,"County":1.0,"City":1.0,"District":1.0,"Street":[1.0],"PostalCode":1.0},"Location":{"LocationId":"NT_QevqI41eZA8xX7Tt39oLgD_l_51356134_L","LocationType":"point","DisplayPosition":{"Latitude":51.6928286,"Longitude":6.8699343},"MapView":{"TopLeft":{"Latitude":51.69298,"Longitude":6.86992},"BottomRight":{"Latitude":51.6928,"Longitude":6.87005}},"Address":{"Label":"Steintorstraße, 46514 Schermbeck, Deutschland","Country":"DEU","State":"Nordrhein-Westfalen","County":"Wesel","City":"Schermbeck","District":"Schermbeck","Street":"Steintorstraße","PostalCode":"46514","AdditionalData":[{"value":"Deutschland","key":"CountryName"},{"value":"Nordrhein-Westfalen","key":"StateName"},{"value":"Wesel","key":"CountyName"}]},"MapReference":{"ReferenceId":"51356134","Spot":0.14,"SideOfStreet":"left","CountryId":"20147700","StateId":"20157369","CountyId":"20157875","CityId":"20157938","DistrictId":"20157945"}}},{"Relevance":1.0,"Distance":32.0,"MatchLevel":"houseNumber","MatchQuality":{"Country":1.0,"State":1.0,"County":1.0,"City":1.0,"District":1.0,"Street":[1.0],"HouseNumber":1.0,"PostalCode":1.0},"MatchType":"interpolated","Location":{"LocationId":"NT_KJirAkAectFlOI-inp.NVB_yA","LocationType":"point","DisplayPosition":{"Latitude":51.69321,"Longitude":6.87},"MapView":{"TopLeft":{"Latitude":51.6943342,"Longitude":6.8681865},"BottomRight":{"Latitude":51.6920858,"Longitude":6.8718135}},"Address":{"Label":"Zum Bleichwall 2, 46514 Schermbeck, Deutschland","Country":"DEU","State":"Nordrhein-Westfalen","County":"Wesel","City":"Schermbeck","District":"Schermbeck","Street":"Zum Bleichwall","HouseNumber":"2","PostalCode":"46514","AdditionalData":[{"value":"Deutschland","key":"CountryName"},{"value":"Nordrhein-Westfalen","key":"StateName"},{"value":"Wesel","key":"CountyName"}]},"MapReference":{"ReferenceId":"51355922","Spot":0.16,"SideOfStreet":"left","CountryId":"20147700","StateId":"20157369","CountyId":"20157875","CityId":"20157938","DistrictId":"20157945","AddressId":"196159776","RoadLinkId":"34996978"}}},{"Relevance":1.0,"Distance":34.2,"MatchLevel":"houseNumber","MatchQuality":{"Country":1.0,"State":1.0,"County":1.0,"City":1.0,"District":1.0,"Street":[1.0],"HouseNumber":1.0,"PostalCode":1.0},"MatchType":"interpolated","Location":{"LocationId":"NT_QevqI41eZA8xX7Tt39oLgD_xcD","LocationType":"point","DisplayPosition":{"Latitude":51.69301,"Longitude":6.87007},"MapView":{"TopLeft":{"Latitude":51.6941342,"Longitude":6.8682565},"BottomRight":{"Latitude":51.6918858,"Longitude":6.8718835}},"Address":{"Label":"Steintorstraße 17, 46514 Schermbeck, Deutschland","Country":"DEU","State":"Nordrhein-Westfalen","County":"Wesel","City":"Schermbeck","District":"Schermbeck","Street":"Steintorstraße","HouseNumber":"17","PostalCode":"46514","AdditionalData":[{"value":"Deutschland","key":"CountryName"},{"value":"Nordrhein-Westfalen","key":"StateName"},{"value":"Wesel","key":"CountyName"}]},"MapReference":{"ReferenceId":"51356133","Spot":0.31,"SideOfStreet":"right","CountryId":"20147700","StateId":"20157369","CountyId":"20157875","CityId":"20157938","DistrictId":"20157945","AddressId":"192807954","RoadLinkId":"35610100"}}},{"Relevance":1.0,"Distance":43.4,"MatchLevel":"houseNumber","MatchQuality":{"Country":1.0,"State":1.0,"County":1.0,"City":1.0,"District":1.0,"Street":[1.0],"HouseNumber":1.0,"PostalCode":1.0},"MatchType":"interpolated","Location":{"LocationId":"NT_M05e-stPeIq66XyqRlSrkC_yA","LocationType":"point","DisplayPosition":{"Latitude":51.69274,"Longitude":6.87003},"MapView":{"TopLeft":{"Latitude":51.6938642,"Longitude":6.8682165},"BottomRight":{"Latitude":51.6916158,"Longitude":6.8718435}},"Address":{"Label":"Burgstraße 2, 46514 Schermbeck, Deutschland","Country":"DEU","State":"Nordrhein-Westfalen","County":"Wesel","City":"Schermbeck","District":"Schermbeck","Street":"Burgstraße","HouseNumber":"2","PostalCode":"46514","AdditionalData":[{"value":"Deutschland","key":"CountryName"},{"value":"Nordrhein-Westfalen","key":"StateName"},{"value":"Wesel","key":"CountyName"}]},"MapReference":{"ReferenceId":"51355372","Spot":0.69,"SideOfStreet":"right","CountryId":"20147700","StateId":"20157369","CountyId":"20157875","CityId":"20157938","DistrictId":"20157945","AddressId":"194538830","RoadLinkId":"35342030"}}},{"Relevance":1.0,"Distance":48.6,"MatchLevel":"houseNumber","MatchQuality":{"Country":1.0,"State":1.0,"County":1.0,"City":1.0,"District":1.0,"Street":[1.0],"HouseNumber":1.0,"PostalCode":1.0},"MatchType":"interpolated","Location":{"LocationId":"NT_QevqI41eZA8xX7Tt39oLgD_yYD","LocationType":"point","DisplayPosition":{"Latitude":51.69322,"Longitude":6.87023},"MapView":{"TopLeft":{"Latitude":51.6943442,"Longitude":6.8684165},"BottomRight":{"Latitude":51.6920958,"Longitude":6.8720435}},"Address":{"Label":"Steintorstraße 26, 46514 Schermbeck, Deutschland","Country":"DEU","State":"Nordrhein-Westfalen","County":"Wesel","City":"Schermbeck","District":"Schermbeck","Street":"Steintorstraße","HouseNumber":"26","PostalCode":"46514","AdditionalData":[{"value":"Deutschland","key":"CountryName"},{"value":"Nordrhein-Westfalen","key":"StateName"},{"value":"Wesel","key":"CountyName"}]},"MapReference":{"ReferenceId":"51356136","Spot":0.45,"SideOfStreet":"left","CountryId":"20147700","StateId":"20157369","CountyId":"20157875","CityId":"20157938","DistrictId":"20157945","AddressId":"249459925","RoadLinkId":"35651463"}}},{"Relevance":1.0,"Distance":50.0,"MatchLevel":"houseNumber","MatchQuality":{"Country":1.0,"State":1.0,"County":1.0,"City":1.0,"District":1.0,"Street":[1.0],"HouseNumber":1.0,"PostalCode":1.0},"MatchType":"interpolated","Location":{"LocationId":"NT_M05e-stPeIq66XyqRlSrkC_xAD","LocationType":"point","DisplayPosition":{"Latitude":51.69279,"Longitude":6.86894},"MapView":{"TopLeft":{"Latitude":51.6939142,"Longitude":6.8671265},"BottomRight":{"Latitude":51.6916658,"Longitude":6.8707535}},"Address":{"Label":"Burgstraße 10, 46514 Schermbeck, Deutschland","Country":"DEU","State":"Nordrhein-Westfalen","County":"Wesel","City":"Schermbeck","District":"Schermbeck","Street":"Burgstraße","HouseNumber":"10","PostalCode":"46514","AdditionalData":[{"value":"Deutschland","key":"CountryName"},{"value":"Nordrhein-Westfalen","key":"StateName"},{"value":"Wesel","key":"CountyName"}]},"MapReference":{"ReferenceId":"51355374","Spot":0.0,"SideOfStreet":"left","CountryId":"20147700","StateId":"20157369","CountyId":"20157875","CityId":"20157938","DistrictId":"20157945","AddressId":"249349027","RoadLinkId":"35719534"}}},{"Relevance":1.0,"Distance":50.0,"MatchLevel":"street","MatchQuality":{"Country":1.0,"State":1.0,"County":1.0,"City":1.0,"District":1.0,"Street":[1.0],"PostalCode":1.0},"Location":{"LocationId":"NT_v.pC6GNf-y9Vqgwbpxtp7C_l_51490190_R","LocationType":"point","DisplayPosition":{"Latitude":51.69279,"Longitude":6.86894},"MapView":{"TopLeft":{"Latitude":51.69279,"Longitude":6.86845},"BottomRight":{"Latitude":51.69231,"Longitude":6.86894}},"Address":{"Label":"Mühlentor, 46514 Schermbeck, Deutschland","Country":"DEU","State":"Nordrhein-Westfalen","County":"Wesel","City":"Schermbeck","District":"Schermbeck","Street":"Mühlentor","PostalCode":"46514","AdditionalData":[{"value":"Deutschland","key":"CountryName"},{"value":"Nordrhein-Westfalen","key":"StateName"},{"value":"Wesel","key":"CountyName"}]},"MapReference":{"ReferenceId":"51490190","Spot":1.0,"SideOfStreet":"right","CountryId":"20147700","StateId":"20157369","CountyId":"20157875","CityId":"20157938","DistrictId":"20157945"}}},{"Relevance":1.0,"Distance":57.4,"MatchLevel":"houseNumber","MatchQuality":{"Country":1.0,"State":1.0,"County":1.0,"City":1.0,"District":1.0,"Street":[1.0],"HouseNumber":1.0,"PostalCode":1.0},"MatchType":"interpolated","Location":{"LocationId":"NT_TKU2hYUSjd-jIenAmU54OB_1A","LocationType":"point","DisplayPosition":{"Latitude":51.69251,"Longitude":6.86936},"MapView":{"TopLeft":{"Latitude":51.6936342,"Longitude":6.8675465},"BottomRight":{"Latitude":51.6913858,"Longitude":6.8711735}},"Address":{"Label":"Hogen Mai 5, 46514 Schermbeck, Deutschland","Country":"DEU","State":"Nordrhein-Westfalen","County":"Wesel","City":"Schermbeck","District":"Schermbeck","Street":"Hogen Mai","HouseNumber":"5","PostalCode":"46514","AdditionalData":[{"value":"Deutschland","key":"CountryName"},{"value":"Nordrhein-Westfalen","key":"StateName"},{"value":"Wesel","key":"CountyName"}]},"MapReference":{"ReferenceId":"51355555","Spot":0.61,"SideOfStreet":"left","CountryId":"20147700","StateId":"20157369","CountyId":"20157875","CityId":"20157938","DistrictId":"20157945","AddressId":"194657599","RoadLinkId":"35645286"}}}]}]}}