{"Response":{"MetaInfo":{"Timestamp":"2020-03-28T10:55:49.676+0000","NextPageInformation":"2"},"View":[{"_type":"SearchResultsViewType","ViewId":0,"Result":[{"Relevance":1.0,"Distance":0.0,"Direction":0.0,"MatchLevel":"district","MatchQuality":{"Country":1.0,"State":1.0,"County":1.0,"City":1.0,"District":1.0,"PostalCode":1.0},"Location":{"LocationId":"NT_BdCxq2bbeiUmb-HJpWvi0A","LocationType":"point","DisplayPosition":{"Latitude":51.6739698,"Longitude":8.33892},"MapView":{"TopLeft":{"Latitude":51.69397,"Longitude":8.29789},"BottomRight":{"Latitude":51.64875,"Longitude":8.3827}},"Address":{"Label":"Lippstadt, Nordrhein-Westfalen, Deutschland","Country":"DEU","State":"Nordrhein-Westfalen","County":"Soest","City":"Lippstadt","District":"Lippstadt","PostalCode":"59557","AdditionalData":[{"value":"Deutschland","key":"CountryName"},{"value":"Nordrhein-Westfalen","key":"StateName"},{"value":"Soest","key":"CountyName"}]},"MapReference":{"ReferenceId":"1203937653","SideOfStreet":"neither","CountryId":"20147700","StateId":"20157369","CountyId":"20160789","CityId":"20160837","DistrictId":"20160839"}}},{"Relevance":1.0,"Distance":12.3,"MatchLevel":"houseNumber","MatchQuality":{"Country":1.0,"State":1.0,"County":1.0,"City":1.0,"District":1.0,"Street":[1.0],"HouseNumber":1.0,"PostalCode":1.0},"MatchType":"interpolated","Location":{"LocationId":"NT_RU8JRzrnnZZ-naFp3SepOB_zcTQ","LocationType":"point","DisplayPosition":{"Latitude":51.67408,"Longitude":8.33893},"MapView":{"TopLeft":{"Latitude":51.6752042,"Longitude":8.3371172},"BottomRight":{"Latitude":51.6729558,"Longitude":8.3407428}},"Address":{"Label":"Soeststraße 37A, 59555 Lippstadt, Deutschland","Country":"DEU","State":"Nordrhein-Westfalen","County":"Soest","City":"Lippstadt","District":"Lippstadt","Street":"Soeststraße","HouseNumber":"37A","PostalCode":"59555","AdditionalData":[{"value":"Deutschland","key":"CountryName"},{"value":"Nordrhein-Westfalen","key":"StateName"},{"value":"Soest","key":"CountyName"}]},"MapReference":{"ReferenceId":"75367135","Spot":0.94,"SideOfStreet":"left","CountryId":"20147700","StateId":"20157369","CountyId":"20160789","CityId":"20160837","DistrictId":"20160839","AddressId":"194041118","RoadLinkId":"35543440"}}},{"Relevance":1.0,"Distance":24.8,"MatchLevel":"houseNumber","MatchQuality":{"Country":1.0,"State":1.0,"County":1.0,"City":1.0,"District":1.0,"Street":[1.0],"HouseNumber":1.0,"PostalCode":1.0},"MatchType":"interpolated","Location":{"LocationId":"NT_WRhU0C1Vk3wgFtmHMlby6B_xA","LocationType":"point","DisplayPosition":{"Latitude":51.67383,"Longitude":8.3392},"MapView":{"TopLeft":{"Latitude":51.6749542,"Longitude":8.3373873},"BottomRight":{"Latitude":51.6727058,"Longitude":8.3410127}},"Address":{"Label":"Weihenstraße 1, 59555 Lippstadt, Deutschland","Country":"DEU","State":"Nordrhein-Westfalen","County":"Soest","City":"Lippstadt","District":"Lippstadt","Street":"Weihenstraße","HouseNumber":"1","PostalCode":"59555","AdditionalData":[{"value":"Deutschland","key":"CountryName"},{"value":"Nordrhein-Westfalen","key":"StateName"},{"value":"Soest","key":"CountyName"}]},"MapReference":{"ReferenceId":"75367146","Spot":0.65,"SideOfStreet":"right","CountryId":"20147700","StateId":"20157369","CountyId":"20160789","CityId":"20160837","DistrictId":"20160839","AddressId":"195014235","RoadLinkId":"35758747"}}},{"Relevance":1.0,"Distance":25.6,"MatchLevel":"houseNumber","MatchQuality":{"Country":1.0,"State":1.0,"County":1.0,"City":1.0,"District":1.0,"Street":[1.0],"HouseNumber":1.0,"PostalCode":1.0},"MatchType":"interpolated","Location":{"LocationId":"NT_RU8JRzrnnZZ-naFp3SepOB_zQD","LocationType":"point","DisplayPosition":{"Latitude":51.67414,"Longitude":8.33917},"MapView":{"TopLeft":{"Latitude":51.6752642,"Longitude":8.3373572},"BottomRight":{"Latitude":51.6730158,"Longitude":8.3409828}},"Address":{"Label":"Soeststraße 34, 59555 Lippstadt, Deutschland","Country":"DEU","State":"Nordrhein-Westfalen","County":"Soest","City":"Lippstadt","District":"Lippstadt","Street":"Soeststraße","HouseNumber":"34","PostalCode":"59555","AdditionalData":[{"value":"Deutschland","key":"CountryName"},{"value":"Nordrhein-Westfalen","key":"StateName"},{"value":"Soest","key":"CountyName"}]},"MapReference":{"ReferenceId":"759385777","Spot":0.55,"SideOfStreet":"right","CountryId":"20147700","StateId":"20157369","CountyId":"20160789","CityId":"20160837","DistrictId":"20160839","AddressId":"194428576","RoadLinkId":"153976091"}}},{"Relevance":1.0,"Distance":38.5,"MatchLevel":"houseNumber","MatchQuality":{"Country":1.0,"State":1.0,"County":1.0,"City":1.0,"District":1.0,"Street":[1.0],"HouseNumber":1.0,"PostalCode":1.0},"MatchType":"interpolated","Location":{"LocationId":"NT_RU8JRzrnnZZ-naFp3SepOB_zID","LocationType":"point","DisplayPosition":{"Latitude":51.67419,"Longitude":8.33935},"MapView":{"TopLeft":{"Latitude":51.6753142,"Longitude":8.3375372},"BottomRight":{"Latitude":51.6730658,"Longitude":8.3411628}},"Address":{"Label":"Soeststraße 32, 59555 Lippstadt, Deutschland","Country":"DEU","State":"Nordrhein-Westfalen","County":"Soest","City":"Lippstadt","District":"Lippstadt","Street":"Soeststraße","HouseNumber":"32","PostalCode":"59555","AdditionalData":[{"value":"Deutschland","key":"CountryName"},{"value":"Nordrhein-Westfalen","key":"StateName"},{"value":"Soest","key":"CountyName"}]},"MapReference":{"ReferenceId":"759385778","Spot":0.15,"SideOfStreet":"right","CountryId":"20147700","StateId":"20157369","CountyId":"20160789","CityId":"20160837","DistrictId":"20160839","AddressId":"196701130","RoadLinkId":"153976092"}}},{"Relevance":1.0,"Distance":60.5,"MatchLevel":"street","MatchQuality":{"Country":1.0,"State":1.0,"County":1.0,"City":1.0,"District":1.0,"Street":[1.0],"PostalCode":1.0},"Location":{"LocationId":"NT_ua0o7v-Lejs9cXuhHjSmmA_l_75369943_L","LocationType":"point","DisplayPosition":{"Latitude":51.6743946,"Longitude":8.3394678},"MapView":{"TopLeft":{"Latitude":51.67486,"Longitude":8.3392},"BottomRight":{"Latitude":51.67425,"Longitude":8.33958}},"Address":{"Label":"Stiftsfreiheit, 59555 Lippstadt, Deutschland","Country":"DEU","State":"Nordrhein-Westfalen","County":"Soest","City":"Lippstadt","District":"Lippstadt","Street":"Stiftsfreiheit","PostalCode":"59555","AdditionalData":[{"value":"Deutschland","key":"CountryName"},{"value":"Nordrhein-Westfalen","key":"StateName"},{"value":"Soest","key":"CountyName"}]},"MapReference":{"ReferenceId":"75369943","Spot":0.21,"SideOfStreet":"left","CountryId":"20147700","StateId":"20157369","CountyId":"20160789","CityId":"20160837","DistrictId":"20160839"}}},{"Relevance":1.0,"Distance":64.5,"MatchLevel":"houseNumber","MatchQuality":{"Country":1.0,"State":1.0,"County":1.0,"City":1.0,"District":1.0,"Street":[1.0],"HouseNumber":1.0,"PostalCode":1.0},"MatchType":"interpolated","Location":{"LocationId":"NT_RU8JRzrnnZZ-naFp3SepOB_ygD","LocationType":"point","DisplayPosition":{"Latitude":51.67428,"Longitude":8.33971},"MapView":{"TopLeft":{"Latitude":51.6754042,"Longitude":8.3378972},"BottomRight":{"Latitude":51.6731558,"Longitude":8.3415228}},"Address":{"Label":"Soeststraße 28, 59555 Lippstadt, Deutschland","Country":"DEU","State":"Nordrhein-Westfalen","County":"Soest","City":"Lippstadt","District":"Lippstadt","Street":"Soeststraße","HouseNumber":"28","PostalCode":"59555","AdditionalData":[{"value":"Deutschland","key":"CountryName"},{"value":"Nordrhein-Westfalen","key":"StateName"},{"value":"Soest","key":"CountyName"}]},"MapReference":{"ReferenceId":"888038286","Spot":0.81,"SideOfStreet":"right","CountryId":"20147700","StateId":"20157369","CountyId":"20160789","CityId":"20160837","DistrictId":"20160839","AddressId":"194860008","RoadLinkId":"254166948"}}},{"Relevance":1.0,"Distance":80.3,"MatchLevel":"houseNumber","MatchQuality":{"Country":1.0,"State":1.0,"County":1.0,"City":1.0,"District":1.0,"Street":[1.0],"HouseNumber":1.0,"PostalCode":1.0},"MatchType":"interpolated","Location":{"LocationId":"NT_Rp0KHT0f9.Vj9xCX7U5q4B_zAD","LocationType":"point","DisplayPosition":{"Latitude":51.6734,"Longitude":8.33981},"MapView":{"TopLeft":{"Latitude":51.6745242,"Longitude":8.3379973},"BottomRight":{"Latitude":51.6722758,"Longitude":8.3416227}},"Address":{"Label":"Kolpingstraße 30, 59555 Lippstadt, Deutschland","Country":"DEU","State":"Nordrhein-Westfalen","County":"Soest","City":"Lippstadt","District":"Lippstadt","Street":"Kolpingstraße","HouseNumber":"30","PostalCode":"59555","AdditionalData":[{"value":"Deutschland","key":"CountryName"},{"value":"Nordrhein-Westfalen","key":"StateName"},{"value":"Soest","key":"CountyName"}]},"MapReference":{"ReferenceId":"75372023","Spot":0.2,"SideOfStreet":"left","CountryId":"20147700","StateId":"20157369","CountyId":"20160789","CityId":"20160837","DistrictId":"20160839","AddressId":"195373933","RoadLinkId":"35680069"}}},{"Relevance":1.0,"Distance":85.6,"MatchLevel":"houseNumber","MatchQuality":{"Country":1.0,"State":1.0,"County":1.0,"City":1.0,"District":1.0,"Street":[1.0],"HouseNumber":1.0,"PostalCode":1.0},"MatchType":"interpolated","Location":{"LocationId":"NT_RU8JRzrnnZZ-naFp3SepOB_yYD","LocationType":"point","DisplayPosition":{"Latitude":51.67435,"Longitude":8.34},"MapView":{"TopLeft":{"Latitude":51.6754742,"Longitude":8.3381872},"BottomRight":{"Latitude":51.6732258,"Longitude":8.3418128}},"Address":{"Label":"Soeststraße 26, 59555 Lippstadt, Deutschland","Country":"DEU","State":"Nordrhein-Westfalen","County":"Soest","City":"Lippstadt","District":"Lippstadt","Street":"Soeststraße","HouseNumber":"26","PostalCode":"59555","AdditionalData":[{"value":"Deutschland","key":"CountryName"},{"value":"Nordrhein-Westfalen","key":"StateName"},{"value":"Soest","key":"CountyName"}]},"MapReference":{"ReferenceId":"888038287","Spot":0.14,"SideOfStreet":"right","CountryId":"20147700","StateId":"20157369","CountyId":"20160789","CityId":"20160837","DistrictId":"20160839","AddressId":"192804118","RoadLinkId":"254166949"}}},{"Relevance":1.0,"Distance":104.6,"MatchLevel":"street","MatchQuality":{"Country":1.0,"State":1.0,"County":1.0,"City":1.0,"District":1.0,"Street":[1.0],"PostalCode":1.0},"Location":{"LocationId":"NT_ua0o7v-Lejs9cXuhHjSmmA_l_75369945_L","LocationType":"point","DisplayPosition":{"Latitude":51.67486,"Longitude":8.33941},"MapView":{"TopLeft":{"Latitude":51.67499,"Longitude":8.33931},"BottomRight":{"Latitude":51.67486,"Longitude":8.33941}},"Address":{"Label":"Stiftsfreiheit, 59555 Lippstadt, Deutschland","Country":"DEU","State":"Nordrhein-Westfalen","County":"Soest","City":"Lippstadt","District":"Lippstadt","Street":"Stiftsfreiheit","PostalCode":"59555","AdditionalData":[{"value":"Deutschland","key":"CountryName"},{"value":"Nordrhein-Westfalen","key":"StateName"},{"value":"Soest","key":"CountyName"}]},"MapReference":{"ReferenceId":"75369945","Spot":0.0,"SideOfStreet":"left","CountryId":"20147700","StateId":"20157369","CountyId":"20160789","CityId":"20160837","DistrictId":"20160839"}}}]}]}}