{"Response":{"MetaInfo":{"Timestamp":"2020-03-28T10:31:43.717+0000","NextPageInformation":"2"},"View":[{"_type":"SearchResultsViewType","ViewId":0,"Result":[{"Relevance":1.0,"Distance":0.0,"Direction":0.0,"MatchLevel":"district","MatchQuality":{"Country":1.0,"State":1.0,"County":1.0,"City":1.0,"District":1.0,"PostalCode":1.0},"Location":{"LocationId":"NT_tdTtUxjtBBqV1Vm9mwTIzB","LocationType":"point","DisplayPosition":{"Latitude":51.6749937,"Longitude":-0.6039494},"MapView":{"TopLeft":{"Latitude":51.69251,"Longitude":-0.6344},"BottomRight":{"Latitude":51.65244,"Longitude":-0.57653}},"Address":{"Label":"Amersham, England, United Kingdom","Country":"GBR","State":"England","County":"Buckinghamshire","City":"Amersham","District":"Amersham","PostalCode":"HP6 6","AdditionalData":[{"value":"United Kingdom","key":"CountryName"},{"value":"England","key":"StateName"},{"value":"Buckinghamshire","key":"CountyName"}]},"MapReference":{"ReferenceId":"743596041","SideOfStreet":"neither","StateId":"20248595","CountyId":"20334714","CityId":"20334715","DistrictId":"20334716"}}},{"Relevance":1.0,"Distance":25.9,"MatchLevel":"postalCode","MatchQuality":{"PostalCode":1.0},"MatchType":"interpolated","Location":{"LocationId":"NT_1c5LeV-gOMBmb-MgJgXlRD_l_25797087_L_3A","LocationType":"point","DisplayPosition":{"Latitude":51.67506,"Longitude":-0.60431},"MapView":{"TopLeft":{"Latitude":51.6840532,"Longitude":-0.6188124},"BottomRight":{"Latitude":51.6660668,"Longitude":-0.5898076}},"Address":{"Label":"HP6 5AL, Amersham, England, United Kingdom","Country":"GBR","State":"England","County":"Buckinghamshire","City":"Amersham","PostalCode":"HP6 5AL","AdditionalData":[{"value":"United Kingdom","key":"CountryName"},{"value":"England","key":"StateName"},{"value":"Buckinghamshire","key":"CountyName"}]},"MapReference":{"ReferenceId":"25797087","Spot":0.5,"SideOfStreet":"neither","StateId":"20248595","CountyId":"20334714","CityId":"20334715"}}},{"Relevance":1.0,"Distance":29.7,"MatchLevel":"houseNumber","MatchQuality":{"Country":1.0,"State":1.0,"County":1.0,"City":1.0,"District":1.0,"Street":[1.0],"HouseNumber":1.0,"PostalCode":1.0},"MatchType":"interpolated","Location":{"LocationId":"NT_1c5LeV-gOMBmb-MgJgXlRD_l_25797087_L_3A","LocationType":"point","DisplayPosition":{"Latitude":51.675177,"Longitude":-0.6042632},"MapView":{"TopLeft":{"Latitude":51.6763012,"Longitude":-0.606076},"BottomRight":{"Latitude":51.6740529,"Longitude":-0.6024504}},"Address":{"Label":"7 Chiltern Avenue, Amersham, HP6 5, United Kingdom","Country":"GBR","State":"England","County":"Buckinghamshire","City":"Amersham","District":"Amersham","Street":"Chiltern Avenue","HouseNumber":"7","PostalCode":"HP6 5","AdditionalData":[{"value":"United Kingdom","key":"CountryName"},{"value":"England","key":"StateName"},{"value":"Buckinghamshire","key":"CountyName"}]},"MapReference":{"ReferenceId":"25797087","Spot":0.5,"SideOfStreet":"left","StateId":"20248595","CountyId":"20334714","CityId":"20334715","DistrictId":"20334716"}}},{"Relevance":1.0,"Distance":73.7,"MatchLevel":"postalCode","MatchQuality":{"PostalCode":1.0},"MatchType":"interpolated","Location":{"LocationId":"NT_fTLemXC2bLPeOI4bgPRbpC_l_25797066_R_zA","LocationType":"point","DisplayPosition":{"Latitude":51.6755,"Longitude":-0.60326},"MapView":{"TopLeft":{"Latitude":51.6844932,"Longitude":-0.6177625},"BottomRight":{"Latitude":51.6665068,"Longitude":-0.5887575}},"Address":{"Label":"HP6 5BN, Amersham, England, United Kingdom","Country":"GBR","State":"England","County":"Buckinghamshire","City":"Amersham","PostalCode":"HP6 5BN","AdditionalData":[{"value":"United Kingdom","key":"CountryName"},{"value":"England","key":"StateName"},{"value":"Buckinghamshire","key":"CountyName"}]},"MapReference":{"ReferenceId":"25797066","Spot":0.5,"SideOfStreet":"neither","StateId":"20248595","CountyId":"20334714","CityId":"20334715"}}},{"Relevance":1.0,"Distance":77.0,"MatchLevel":"street","MatchQuality":{"Country":1.0,"State":1.0,"County":1.0,"City":1.0,"District":1.0,"Street":[1.0],"PostalCode":1.0},"Location":{"LocationId":"NT_1c5LeV-gOMBmb-MgJgXlRD_l_25797120_R","LocationType":"point","DisplayPosition":{"Latitude":51.67463,"Longitude":-0.6049},"MapView":{"TopLeft":{"Latitude":51.67463,"Longitude":-0.60612},"BottomRight":{"Latitude":51.67438,"Longitude":-0.6049}},"Address":{"Label":"Chiltern Avenue, Amersham, HP6 5, United Kingdom","Country":"GBR","State":"England","County":"Buckinghamshire","City":"Amersham","District":"Amersham","Street":"Chiltern Avenue","PostalCode":"HP6 5","AdditionalData":[{"value":"United Kingdom","key":"CountryName"},{"value":"England","key":"StateName"},{"value":"Buckinghamshire","key":"CountyName"}]},"MapReference":{"ReferenceId":"25797120","Spot":1.0,"SideOfStreet":"right","StateId":"20248595","CountyId":"20334714","CityId":"20334715","DistrictId":"20334716"}}},{"Relevance":1.0,"Distance":82.6,"MatchLevel":"street","MatchQuality":{"Country":1.0,"State":1.0,"County":1.0,"City":1.0,"District":1.0,"Street":[1.0],"PostalCode":1.0},"Location":{"LocationId":"NT_fTLemXC2bLPeOI4bgPRbpC_l_25797177_R","LocationType":"point","DisplayPosition":{"Latitude":51.6742621,"Longitude":-0.6041569},"MapView":{"TopLeft":{"Latitude":51.67463,"Longitude":-0.6049},"BottomRight":{"Latitude":51.6739,"Longitude":-0.60288}},"Address":{"Label":"King George V Road, Amersham, HP6 5, United Kingdom","Country":"GBR","State":"England","County":"Buckinghamshire","City":"Amersham","District":"Amersham","Street":"King George V Road","PostalCode":"HP6 5","AdditionalData":[{"value":"United Kingdom","key":"CountryName"},{"value":"England","key":"StateName"},{"value":"Buckinghamshire","key":"CountyName"}]},"MapReference":{"ReferenceId":"25797177","Spot":0.61,"SideOfStreet":"right","StateId":"20248595","CountyId":"20334714","CityId":"20334715","DistrictId":"20334716"}}},{"Relevance":1.0,"Distance":86.3,"MatchLevel":"street","MatchQuality":{"Country":1.0,"State":1.0,"County":1.0,"City":1.0,"District":1.0,"Street":[1.0],"PostalCode":1.0},"Location":{"LocationId":"NT_sa26rkt0LEzyqiqGhiX5mA_l_25796954_L","LocationType":"point","DisplayPosition":{"Latitude":51.67575,"Longitude":-0.60367},"MapView":{"TopLeft":{"Latitude":51.67606,"Longitude":-0.60386},"BottomRight":{"Latitude":51.67575,"Longitude":-0.60365}},"Address":{"Label":"Woodside Close, Amersham, HP6 5, United Kingdom","Country":"GBR","State":"England","County":"Buckinghamshire","City":"Amersham","District":"Amersham","Street":"Woodside Close","PostalCode":"HP6 5","AdditionalData":[{"value":"United Kingdom","key":"CountryName"},{"value":"England","key":"StateName"},{"value":"Buckinghamshire","key":"CountyName"}]},"MapReference":{"ReferenceId":"25796954","Spot":0.0,"SideOfStreet":"left","StateId":"20248595","CountyId":"20334714","CityId":"20334715","DistrictId":"20334716"}}},{"Relevance":1.0,"Distance":96.4,"MatchLevel":"houseNumber","MatchQuality":{"Country":1.0,"State":1.0,"County":1.0,"City":1.0,"District":1.0,"Street":[1.0],"HouseNumber":1.0,"PostalCode":1.0},"MatchType":"interpolated","Location":{"LocationId":"NT_sN4wODydPac1bmcr0VEDXC_l_25797045_R_xcD","LocationType":"point","DisplayPosition":{"Latitude":51.6752171,"Longitude":-0.6054357},"MapView":{"TopLeft":{"Latitude":51.6763413,"Longitude":-0.6072485},"BottomRight":{"Latitude":51.674093,"Longitude":-0.6036229}},"Address":{"Label":"17 Elm Close, Amersham, HP6 5DD, United Kingdom","Country":"GBR","State":"England","County":"Buckinghamshire","City":"Amersham","District":"Amersham","Street":"Elm Close","HouseNumber":"17","PostalCode":"HP6 5DD","AdditionalData":[{"value":"United Kingdom","key":"CountryName"},{"value":"England","key":"StateName"},{"value":"Buckinghamshire","key":"CountyName"}]},"MapReference":{"ReferenceId":"25797045","Spot":0.51,"SideOfStreet":"right","StateId":"20248595","CountyId":"20334714","CityId":"20334715","DistrictId":"20334716"}}},{"Relevance":1.0,"Distance":104.9,"MatchLevel":"houseNumber","MatchQuality":{"Country":1.0,"State":1.0,"County":1.0,"City":1.0,"District":1.0,"Street":[1.0],"HouseNumber":1.0,"PostalCode":1.0},"MatchType":"interpolated","Location":{"LocationId":"NT_fTLemXC2bLPeOI4bgPRbpC_l_25797066_R_zA","LocationType":"point","DisplayPosition":{"Latitude":51.675244,"Longitude":-0.6024831},"MapView":{"TopLeft":{"Latitude":51.6763682,"Longitude":-0.6042959},"BottomRight":{"Latitude":51.6741199,"Longitude":-0.6006703}},"Address":{"Label":"3 King George V Road, Amersham, HP6 5AQ, United Kingdom","Country":"GBR","State":"England","County":"Buckinghamshire","City":"Amersham","District":"Amersham","Street":"King George V Road","HouseNumber":"3","PostalCode":"HP6 5AQ","AdditionalData":[{"value":"United Kingdom","key":"CountryName"},{"value":"England","key":"StateName"},{"value":"Buckinghamshire","key":"CountyName"}]},"MapReference":{"ReferenceId":"25797066","Spot":0.5,"SideOfStreet":"right","StateId":"20248595","CountyId":"20334714","CityId":"20334715","DistrictId":"20334716"}}},{"Relevance":1.0,"Distance":107.6,"MatchLevel":"houseNumber","MatchQuality":{"Country":1.0,"State":1.0,"County":1.0,"City":1.0,"District":1.0,"Street":[1.0],"HouseNumber":1.0,"PostalCode":1.0},"MatchType":"interpolated","Location":{"LocationId":"NT_1c5LeV-gOMBmb-MgJgXlRD_l_25796953_L_xED","LocationType":"point","DisplayPosition":{"Latitude":51.6759167,"Longitude":-0.6034819},"MapView":{"TopLeft":{"Latitude":51.6770409,"Longitude":-0.6052948},"BottomRight":{"Latitude":51.6747926,"Longitude":-0.6016691}},"Address":{"Label":"11 Chiltern Avenue, Amersham, HP6 5AE, United Kingdom","Country":"GBR","State":"England","County":"Buckinghamshire","City":"Amersham","District":"Amersham","Street":"Chiltern Avenue","HouseNumber":"11","PostalCode":"HP6 5AE","AdditionalData":[{"value":"United Kingdom","key":"CountryName"},{"value":"England","key":"StateName"},{"value":"Buckinghamshire","key":"CountyName"}]},"MapReference":{"ReferenceId":"25796953","Spot":0.52,"SideOfStreet":"left","StateId":"20248595","CountyId":"20334714","CityId":"20334715","DistrictId":"20334716"}}}]}]}}