{"Response":{"MetaInfo":{"Timestamp":"2020-03-28T11:42:08.683+0000","NextPageInformation":"2"},"View":[{"_type":"SearchResultsViewType","ViewId":0,"Result":[{"Relevance":1.0,"Distance":0.0,"Direction":0.0,"MatchLevel":"district","MatchQuality":{"Country":1.0,"State":1.0,"County":1.0,"City":1.0,"District":1.0,"PostalCode":1.0},"Location":{"LocationId":"NT_Fa1Jq806U2D0LljS87IT4D","LocationType":"point","DisplayPosition":{"Latitude":51.6130446,"Longitude":7.119704},"MapView":{"TopLeft":{"Latitude":51.62654,"Longitude":7.10327},"BottomRight":{"Latitude":51.56385,"Longitude":7.17148}},"Address":{"Label":"Herten, Nordrhein-Westfalen, Deutschland","Country":"DEU","State":"Nordrhein-Westfalen","County":"Recklinghausen","City":"Herten","District":"Herten","PostalCode":"45699","AdditionalData":[{"value":"Deutschland","key":"CountryName"},{"value":"Nordrhein-Westfalen","key":"StateName"},{"value":"Recklinghausen","key":"CountyName"}]},"MapReference":{"ReferenceId":"891687592","SideOfStreet":"neither","CountryId":"20147700","StateId":"20157369","CountyId":"20159272","CityId":"20159323","DistrictId":"20159326"}}},{"Relevance":1.0,"Distance":9.4,"MatchLevel":"houseNumber","MatchQuality":{"Country":1.0,"State":1.0,"County":1.0,"City":1.0,"District":1.0,"Street":[1.0],"HouseNumber":1.0,"PostalCode":1.0},"MatchType":"interpolated","Location":{"LocationId":"NT_85zEVdSBx-mSzfi2iUTfYA_xkDM","LocationType":"point","DisplayPosition":{"Latitude":51.61306,"Longitude":7.11957},"MapView":{"TopLeft":{"Latitude":51.6141842,"Longitude":7.1177597},"BottomRight":{"Latitude":51.6119358,"Longitude":7.1213803}},"Address":{"Label":"Langenbochumer Straße 190, 45701 Herten, Deutschland","Country":"DEU","State":"Nordrhein-Westfalen","County":"Recklinghausen","City":"Herten","District":"Herten","Street":"Langenbochumer Straße","HouseNumber":"190","PostalCode":"45701","AdditionalData":[{"value":"Deutschland","key":"CountryName"},{"value":"Nordrhein-Westfalen","key":"StateName"},{"value":"Recklinghausen","key":"CountyName"}]},"MapReference":{"ReferenceId":"51313411","Spot":0.25,"SideOfStreet":"right","CountryId":"20147700","StateId":"20157369","CountyId":"20159272","CityId":"20159323","DistrictId":"20159326","AddressId":"194924381","RoadLinkId":"35630998"}}},{"Relevance":1.0,"Distance":16.0,"MatchLevel":"street","MatchQuality":{"Country":1.0,"State":1.0,"County":1.0,"City":1.0,"District":1.0,"Street":[1.0],"PostalCode":1.0},"Location":{"LocationId":"NT_85zEVdSBx-mSzfi2iUTfYA_l_859695322_R","LocationType":"point","DisplayPosition":{"Latitude":51.61291,"Longitude":7.1196233},"MapView":{"TopLeft":{"Latitude":51.61293,"Longitude":7.11959},"BottomRight":{"Latitude":51.61284,"Longitude":7.11974}},"Address":{"Label":"Langenbochumer Straße, 45701 Herten, Deutschland","Country":"DEU","State":"Nordrhein-Westfalen","County":"Recklinghausen","City":"Herten","District":"Herten","Street":"Langenbochumer Straße","PostalCode":"45701","AdditionalData":[{"value":"Deutschland","key":"CountryName"},{"value":"Nordrhein-Westfalen","key":"StateName"},{"value":"Recklinghausen","key":"CountyName"}]},"MapReference":{"ReferenceId":"859695322","Spot":0.78,"SideOfStreet":"right","CountryId":"20147700","StateId":"20157369","CountyId":"20159272","CityId":"20159323","DistrictId":"20159326"}}},{"Relevance":1.0,"Distance":22.6,"MatchLevel":"houseNumber","MatchQuality":{"Country":1.0,"State":1.0,"County":1.0,"City":1.0,"District":1.0,"Street":[1.0],"HouseNumber":1.0,"PostalCode":1.0},"MatchType":"interpolated","Location":{"LocationId":"NT_85zEVdSBx-mSzfi2iUTfYA_xgTNBB","LocationType":"point","DisplayPosition":{"Latitude":51.61285,"Longitude":7.1198},"MapView":{"TopLeft":{"Latitude":51.6139742,"Longitude":7.1179897},"BottomRight":{"Latitude":51.6117258,"Longitude":7.1216103}},"Address":{"Label":"Langenbochumer Straße 185A, 45701 Herten, Deutschland","Country":"DEU","State":"Nordrhein-Westfalen","County":"Recklinghausen","City":"Herten","District":"Herten","Street":"Langenbochumer Straße","HouseNumber":"185A","PostalCode":"45701","AdditionalData":[{"value":"Deutschland","key":"CountryName"},{"value":"Nordrhein-Westfalen","key":"StateName"},{"value":"Recklinghausen","key":"CountyName"}]},"MapReference":{"ReferenceId":"891688284","Spot":0.4,"SideOfStreet":"right","CountryId":"20147700","StateId":"20157369","CountyId":"20159272","CityId":"20159323","DistrictId":"20159326","AddressId":"192808032","RoadLinkId":"255580120"}}},{"Relevance":1.0,"Distance":25.0,"MatchLevel":"houseNumber","MatchQuality":{"Country":1.0,"State":1.0,"County":1.0,"City":1.0,"District":1.0,"Street":[1.0],"HouseNumber":1.0,"PostalCode":1.0},"MatchType":"interpolated","Location":{"LocationId":"NT_85zEVdSBx-mSzfi2iUTfYA_xgzN","LocationType":"point","DisplayPosition":{"Latitude":51.61282,"Longitude":7.1197},"MapView":{"TopLeft":{"Latitude":51.6139442,"Longitude":7.1178897},"BottomRight":{"Latitude":51.6116958,"Longitude":7.1215103}},"Address":{"Label":"Langenbochumer Straße 187, 45701 Herten, Deutschland","Country":"DEU","State":"Nordrhein-Westfalen","County":"Recklinghausen","City":"Herten","District":"Herten","Street":"Langenbochumer Straße","HouseNumber":"187","PostalCode":"45701","AdditionalData":[{"value":"Deutschland","key":"CountryName"},{"value":"Nordrhein-Westfalen","key":"StateName"},{"value":"Recklinghausen","key":"CountyName"}]},"MapReference":{"ReferenceId":"1199080964","Spot":0.89,"SideOfStreet":"right","CountryId":"20147700","StateId":"20157369","CountyId":"20159272","CityId":"20159323","DistrictId":"20159326","AddressId":"195250460","RoadLinkId":"510679114"}}},{"Relevance":1.0,"Distance":25.8,"MatchLevel":"houseNumber","MatchQuality":{"Country":1.0,"State":1.0,"County":1.0,"City":1.0,"District":1.0,"Street":[1.0],"HouseNumber":1.0,"PostalCode":1.0},"MatchType":"interpolated","Location":{"LocationId":"NT_85zEVdSBx-mSzfi2iUTfYA_xkTM","LocationType":"point","DisplayPosition":{"Latitude":51.61294,"Longitude":7.11937},"MapView":{"TopLeft":{"Latitude":51.6140642,"Longitude":7.1175597},"BottomRight":{"Latitude":51.6118158,"Longitude":7.1211803}},"Address":{"Label":"Langenbochumer Straße 191, 45701 Herten, Deutschland","Country":"DEU","State":"Nordrhein-Westfalen","County":"Recklinghausen","City":"Herten","District":"Herten","Street":"Langenbochumer Straße","HouseNumber":"191","PostalCode":"45701","AdditionalData":[{"value":"Deutschland","key":"CountryName"},{"value":"Nordrhein-Westfalen","key":"StateName"},{"value":"Recklinghausen","key":"CountyName"}]},"MapReference":{"ReferenceId":"1122866746","Spot":0.59,"SideOfStreet":"left","CountryId":"20147700","StateId":"20157369","CountyId":"20159272","CityId":"20159323","DistrictId":"20159326","AddressId":"193526670","RoadLinkId":"433130526"}}},{"Relevance":1.0,"Distance":32.5,"MatchLevel":"street","MatchQuality":{"Country":1.0,"State":1.0,"County":1.0,"City":1.0,"District":1.0,"PostalCode":1.0},"Location":{"LocationId":"NT_jhKZAccpL7taNQnZQIj5AB_l_1122866750_R","LocationType":"point","DisplayPosition":{"Latitude":51.6131268,"Longitude":7.1192521},"MapView":{"TopLeft":{"Latitude":51.61358,"Longitude":7.11911},"BottomRight":{"Latitude":51.61295,"Longitude":7.11932}},"Address":{"Label":"45701 Herten, Deutschland","Country":"DEU","State":"Nordrhein-Westfalen","County":"Recklinghausen","City":"Herten","District":"Herten","PostalCode":"45701","AdditionalData":[{"value":"Deutschland","key":"CountryName"},{"value":"Nordrhein-Westfalen","key":"StateName"},{"value":"Recklinghausen","key":"CountyName"}]},"MapReference":{"ReferenceId":"1122866750","Spot":0.23,"SideOfStreet":"right","CountryId":"20147700","StateId":"20157369","CountyId":"20159272","CityId":"20159323","DistrictId":"20159326"}}},{"Relevance":1.0,"Distance":35.5,"MatchLevel":"houseNumber","MatchQuality":{"Country":1.0,"State":1.0,"County":1.0,"City":1.0,"District":1.0,"Street":[1.0],"HouseNumber":1.0,"PostalCode":1.0},"MatchType":"interpolated","Location":{"LocationId":"NT_85zEVdSBx-mSzfi2iUTfYA_xgDO","LocationType":"point","DisplayPosition":{"Latitude":51.6129,"Longitude":7.12021},"MapView":{"TopLeft":{"Latitude":51.6140242,"Longitude":7.1183997},"BottomRight":{"Latitude":51.6117758,"Longitude":7.1220203}},"Address":{"Label":"Langenbochumer Straße 188, 45701 Herten, Deutschland","Country":"DEU","State":"Nordrhein-Westfalen","County":"Recklinghausen","City":"Herten","District":"Herten","Street":"Langenbochumer Straße","HouseNumber":"188","PostalCode":"45701","AdditionalData":[{"value":"Deutschland","key":"CountryName"},{"value":"Nordrhein-Westfalen","key":"StateName"},{"value":"Recklinghausen","key":"CountyName"}]},"MapReference":{"ReferenceId":"1122867640","Spot":0.43,"SideOfStreet":"left","CountryId":"20147700","StateId":"20157369","CountyId":"20159272","CityId":"20159323","DistrictId":"20159326","AddressId":"194851176","RoadLinkId":"433131767"}}},{"Relevance":1.0,"Distance":48.4,"MatchLevel":"houseNumber","MatchQuality":{"Country":1.0,"State":1.0,"County":1.0,"City":1.0,"District":1.0,"Street":[1.0],"HouseNumber":1.0,"PostalCode":1.0},"MatchType":"interpolated","Location":{"LocationId":"NT_nPJ8gK9acfiBP-Mwy98-CC_3cD","LocationType":"point","DisplayPosition":{"Latitude":51.61352,"Longitude":7.12003},"MapView":{"TopLeft":{"Latitude":51.6146442,"Longitude":7.1182197},"BottomRight":{"Latitude":51.6123958,"Longitude":7.1218403}},"Address":{"Label":"Kronstädter Straße 77, 45701 Herten, Deutschland","Country":"DEU","State":"Nordrhein-Westfalen","County":"Recklinghausen","City":"Herten","District":"Herten","Street":"Kronstädter Straße","HouseNumber":"77","PostalCode":"45701","AdditionalData":[{"value":"Deutschland","key":"CountryName"},{"value":"Nordrhein-Westfalen","key":"StateName"},{"value":"Recklinghausen","key":"CountyName"}]},"MapReference":{"ReferenceId":"51313393","Spot":0.01,"SideOfStreet":"right","CountryId":"20147700","StateId":"20157369","CountyId":"20159272","CityId":"20159323","DistrictId":"20159326","AddressId":"209612079","RoadLinkId":"35341668"}}},{"Relevance":1.0,"Distance":57.1,"MatchLevel":"houseNumber","MatchQuality":{"Country":1.0,"State":1.0,"County":1.0,"City":1.0,"District":1.0,"Street":[1.0],"HouseNumber":1.0,"PostalCode":1.0},"MatchType":"interpolated","Location":{"LocationId":"NT_85zEVdSBx-mSzfi2iUTfYA_xgTM","LocationType":"point","DisplayPosition":{"Latitude":51.61259,"Longitude":7.12063},"MapView":{"TopLeft":{"Latitude":51.6137142,"Longitude":7.1188197},"BottomRight":{"Latitude":51.6114658,"Longitude":7.1224403}},"Address":{"Label":"Langenbochumer Straße 181, 45701 Herten, Deutschland","Country":"DEU","State":"Nordrhein-Westfalen","County":"Recklinghausen","City":"Herten","District":"Herten","Street":"Langenbochumer Straße","HouseNumber":"181","PostalCode":"45701","AdditionalData":[{"value":"Deutschland","key":"CountryName"},{"value":"Nordrhein-Westfalen","key":"StateName"},{"value":"Recklinghausen","key":"CountyName"}]},"MapReference":{"ReferenceId":"1122867642","Spot":0.77,"SideOfStreet":"left","CountryId":"20147700","StateId":"20157369","CountyId":"20159272","CityId":"20159323","DistrictId":"20159326","AddressId":"194347649","RoadLinkId":"593030633"}}}]}]}}