{"Response":{"MetaInfo":{"Timestamp":"2020-03-28T11:18:52.731+0000","NextPageInformation":"2"},"View":[{"_type":"SearchResultsViewType","ViewId":0,"Result":[{"Relevance":1.0,"Distance":0.0,"Direction":0.0,"MatchLevel":"postalCode","MatchQuality":{"Country":1.0,"State":1.0,"County":1.0,"PostalCode":1.0},"Location":{"LocationId":"NT_HTKAfbquVEou80WZXdrniC","LocationType":"point","DisplayPosition":{"Latitude":51.6191003,"Longitude":-1.1306668},"MapView":{"TopLeft":{"Latitude":52.16848,"Longitude":-1.71733},"BottomRight":{"Latitude":51.45941,"Longitude":-0.87007}},"Address":{"Label":"OX10 8, England, United Kingdom","Country":"GBR","State":"England","County":"Oxfordshire","PostalCode":"OX10 8","AdditionalData":[{"value":"United Kingdom","key":"CountryName"},{"value":"England","key":"StateName"},{"value":"Oxfordshire","key":"CountyName"}]},"MapReference":{"ReferenceId":"887962864","SideOfStreet":"neither","StateId":"20248595","CountyId":"20337811"}}},{"Relevance":1.0,"Distance":89.4,"MatchLevel":"street","MatchQuality":{"Country":1.0,"State":1.0,"County":1.0,"City":1.0,"District":1.0,"PostalCode":1.0},"Location":{"LocationId":"NT_JO.LTUqUcG.p4hNpn9dFJD_l_851006419_R","LocationType":"point","DisplayPosition":{"Latitude":51.6198779,"Longitude":-1.1309962},"MapView":{"TopLeft":{"Latitude":51.62058,"Longitude":-1.13288},"BottomRight":{"Latitude":51.61908,"Longitude":-1.12764}},"Address":{"Label":"Wallingford, OX10 8, United Kingdom","Country":"GBR","State":"England","County":"Oxfordshire","City":"Wallingford","District":"Wallingford","PostalCode":"OX10 8","AdditionalData":[{"value":"United Kingdom","key":"CountryName"},{"value":"England","key":"StateName"},{"value":"Oxfordshire","key":"CountyName"}]},"MapReference":{"ReferenceId":"851006419","Spot":0.35,"SideOfStreet":"right","StateId":"20248595","CountyId":"20337811","CityId":"20338218","DistrictId":"20338219"}}},{"Relevance":1.0,"Distance":135.3,"MatchLevel":"street","MatchQuality":{"Country":1.0,"State":1.0,"County":1.0,"City":1.0,"District":1.0,"Street":[1.0],"PostalCode":1.0},"Location":{"LocationId":"NT_9W0TB1OMxDWB7BkeWZgQ7D_l_737240931_R","LocationType":"point","DisplayPosition":{"Latitude":51.6180843,"Longitude":-1.1317464},"MapView":{"TopLeft":{"Latitude":51.61908,"Longitude":-1.13288},"BottomRight":{"Latitude":51.61795,"Longitude":-1.13162}},"Address":{"Label":"Shillingford Road, Wallingford, OX10 8, United Kingdom","Country":"GBR","State":"England","County":"Oxfordshire","City":"Wallingford","District":"Wallingford","Street":"Shillingford Road","PostalCode":"OX10 8","AdditionalData":[{"value":"United Kingdom","key":"CountryName"},{"value":"England","key":"StateName"},{"value":"Oxfordshire","key":"CountyName"}]},"MapReference":{"ReferenceId":"737240931","Spot":0.11,"SideOfStreet":"right","StateId":"20248595","CountyId":"20337811","CityId":"20338218","DistrictId":"20338219"}}},{"Relevance":1.0,"Distance":143.8,"MatchLevel":"street","MatchQuality":{"Country":1.0,"State":1.0,"County":1.0,"City":1.0,"District":1.0,"Street":[1.0],"PostalCode":1.0},"Location":{"LocationId":"NT_9W0TB1OMxDWB7BkeWZgQ7D_l_850638717_R","LocationType":"point","DisplayPosition":{"Latitude":51.61795,"Longitude":-1.13162},"MapView":{"TopLeft":{"Latitude":51.61795,"Longitude":-1.13162},"BottomRight":{"Latitude":51.61778,"Longitude":-1.13147}},"Address":{"Label":"Shillingford Road, Wallingford, OX10 8, United Kingdom","Country":"GBR","State":"England","County":"Oxfordshire","City":"Wallingford","District":"Wallingford","Street":"Shillingford Road","PostalCode":"OX10 8","AdditionalData":[{"value":"United Kingdom","key":"CountryName"},{"value":"England","key":"StateName"},{"value":"Oxfordshire","key":"CountyName"}]},"MapReference":{"ReferenceId":"850638717","Spot":1.0,"SideOfStreet":"right","StateId":"20248595","CountyId":"20337811","CityId":"20338218","DistrictId":"20338219"}}},{"Relevance":1.0,"Distance":143.8,"MatchLevel":"street","MatchQuality":{"Country":1.0,"State":1.0,"County":1.0,"City":1.0,"District":1.0,"Street":[1.0],"PostalCode":1.0},"Location":{"LocationId":"NT_zk2VOeh7ynN.AL67OHgBzD_l_737240932_L","LocationType":"point","DisplayPosition":{"Latitude":51.61795,"Longitude":-1.13162},"MapView":{"TopLeft":{"Latitude":51.61795,"Longitude":-1.13397},"BottomRight":{"Latitude":51.61755,"Longitude":-1.13162}},"Address":{"Label":"Severalls Farm, Wallingford, OX10 8, United Kingdom","Country":"GBR","State":"England","County":"Oxfordshire","City":"Wallingford","District":"Wallingford","Street":"Severalls Farm","PostalCode":"OX10 8","AdditionalData":[{"value":"United Kingdom","key":"CountryName"},{"value":"England","key":"StateName"},{"value":"Oxfordshire","key":"CountyName"}]},"MapReference":{"ReferenceId":"737240932","Spot":1.0,"SideOfStreet":"left","StateId":"20248595","CountyId":"20337811","CityId":"20338218","DistrictId":"20338219"}}},{"Relevance":1.0,"Distance":152.8,"MatchLevel":"street","MatchQuality":{"Country":1.0,"State":1.0,"County":1.0,"City":1.0,"District":1.0,"PostalCode":1.0},"Location":{"LocationId":"NT_JO.LTUqUcG.p4hNpn9dFJD_l_850624648_R","LocationType":"point","DisplayPosition":{"Latitude":51.61908,"Longitude":-1.13288},"MapView":{"TopLeft":{"Latitude":51.61908,"Longitude":-1.13832},"BottomRight":{"Latitude":51.61773,"Longitude":-1.13288}},"Address":{"Label":"Wallingford, OX10 8, United Kingdom","Country":"GBR","State":"England","County":"Oxfordshire","City":"Wallingford","District":"Wallingford","PostalCode":"OX10 8","AdditionalData":[{"value":"United Kingdom","key":"CountryName"},{"value":"England","key":"StateName"},{"value":"Oxfordshire","key":"CountyName"}]},"MapReference":{"ReferenceId":"850624648","Spot":1.0,"SideOfStreet":"right","StateId":"20248595","CountyId":"20337811","CityId":"20338218","DistrictId":"20338219"}}},{"Relevance":1.0,"Distance":152.8,"MatchLevel":"street","MatchQuality":{"Country":1.0,"State":1.0,"County":1.0,"City":1.0,"District":1.0,"PostalCode":1.0},"Location":{"LocationId":"NT_JO.LTUqUcG.p4hNpn9dFJD_l_566020775_R","LocationType":"point","DisplayPosition":{"Latitude":51.61908,"Longitude":-1.13288},"MapView":{"TopLeft":{"Latitude":51.6207,"Longitude":-1.13548},"BottomRight":{"Latitude":51.61908,"Longitude":-1.13288}},"Address":{"Label":"Wallingford, OX10 8, United Kingdom","Country":"GBR","State":"England","County":"Oxfordshire","City":"Wallingford","District":"Wallingford","PostalCode":"OX10 8","AdditionalData":[{"value":"United Kingdom","key":"CountryName"},{"value":"England","key":"StateName"},{"value":"Oxfordshire","key":"CountyName"}]},"MapReference":{"ReferenceId":"566020775","Spot":0.0,"SideOfStreet":"right","StateId":"20248595","CountyId":"20337811","CityId":"20338218","DistrictId":"20338219"}}},{"Relevance":1.0,"Distance":156.9,"MatchLevel":"street","MatchQuality":{"Country":1.0,"State":1.0,"County":1.0,"City":1.0,"District":1.0,"Street":[1.0],"PostalCode":1.0},"Location":{"LocationId":"NT_9W0TB1OMxDWB7BkeWZgQ7D_l_850638716_R","LocationType":"point","DisplayPosition":{"Latitude":51.61778,"Longitude":-1.13147},"MapView":{"TopLeft":{"Latitude":51.61778,"Longitude":-1.13147},"BottomRight":{"Latitude":51.61238,"Longitude":-1.12697}},"Address":{"Label":"Shillingford Road, Wallingford, OX10 8, United Kingdom","Country":"GBR","State":"England","County":"Oxfordshire","City":"Wallingford","District":"Wallingford","Street":"Shillingford Road","PostalCode":"OX10 8","AdditionalData":[{"value":"United Kingdom","key":"CountryName"},{"value":"England","key":"StateName"},{"value":"Oxfordshire","key":"CountyName"}]},"MapReference":{"ReferenceId":"850638716","Spot":1.0,"SideOfStreet":"right","StateId":"20248595","CountyId":"20337811","CityId":"20338218","DistrictId":"20338219"}}},{"Relevance":1.0,"Distance":172.9,"MatchLevel":"postalCode","MatchQuality":{"PostalCode":1.0},"Location":{"LocationId":"NT_JO.LTUqUcG.p4hNpn9dFJD_l_851006419_R","LocationType":"point","DisplayPosition":{"Latitude":51.62015,"Longitude":-1.12882},"MapView":{"TopLeft":{"Latitude":51.6291432,"Longitude":-1.1433048},"BottomRight":{"Latitude":51.6111568,"Longitude":-1.1143352}},"Address":{"Label":"OX10 8LL, Wallingford, England, United Kingdom","Country":"GBR","State":"England","County":"Oxfordshire","City":"Wallingford","PostalCode":"OX10 8LL","AdditionalData":[{"value":"United Kingdom","key":"CountryName"},{"value":"England","key":"StateName"},{"value":"Oxfordshire","key":"CountyName"}]},"MapReference":{"ReferenceId":"851006419","Spot":0.35,"SideOfStreet":"neither","StateId":"20248595","CountyId":"20337811","CityId":"20338218"}}},{"Relevance":1.0,"Distance":376.9,"MatchLevel":"street","MatchQuality":{"Country":1.0,"State":1.0,"County":1.0,"City":1.0,"District":1.0,"PostalCode":1.0},"Location":{"LocationId":"NT_JO.LTUqUcG.p4hNpn9dFJD_l_566020776_R","LocationType":"point","DisplayPosition":{"Latitude":51.6207,"Longitude":-1.13548},"MapView":{"TopLeft":{"Latitude":51.62109,"Longitude":-1.13606},"BottomRight":{"Latitude":51.6207,"Longitude":-1.13548}},"Address":{"Label":"Wallingford, OX10 8, United Kingdom","Country":"GBR","State":"England","County":"Oxfordshire","City":"Wallingford","District":"Wallingford","PostalCode":"OX10 8","AdditionalData":[{"value":"United Kingdom","key":"CountryName"},{"value":"England","key":"StateName"},{"value":"Oxfordshire","key":"CountyName"}]},"MapReference":{"ReferenceId":"566020776","Spot":0.0,"SideOfStreet":"right","StateId":"20248595","CountyId":"20337811","CityId":"20338218","DistrictId":"20338219"}}}]}]}}