{"Response":{"MetaInfo":{"Timestamp":"2020-03-28T12:06:03.330+0000","NextPageInformation":"2"},"View":[{"_type":"SearchResultsViewType","ViewId":0,"Result":[{"Relevance":1.0,"Distance":0.0,"Direction":0.0,"MatchLevel":"district","MatchQuality":{"Country":1.0,"State":1.0,"County":1.0,"City":1.0,"District":1.0,"PostalCode":1.0},"Location":{"LocationId":"NT_RXDLwji6wQMjlswUiu8wbD","LocationType":"point","DisplayPosition":{"Latitude":51.6083481,"Longitude":18.9453543},"MapView":{"TopLeft":{"Latitude":51.62889,"Longitude":18.90878},"BottomRight":{"Latitude":51.56389,"Longitude":19.02332}},"Address":{"Label":"Zduńska Wola, Woj. Łódzkie, Polska","Country":"POL","State":"Woj. Łódzkie","County":"Powiat Zduńskowolski","City":"Zduńska Wola","District":"Zduńska Wola","PostalCode":"98-220","AdditionalData":[{"value":"Polska","key":"CountryName"},{"value":"Woj. Łódzkie","key":"StateName"},{"value":"Powiat Zduńskowolski","key":"CountyName"}]},"MapReference":{"ReferenceId":"801500605","SideOfStreet":"neither","CountryId":"20624059","StateId":"20625723","CountyId":"20626089","CityId":"20683413","DistrictId":"20683414"}}},{"Relevance":1.0,"Distance":11.7,"MatchLevel":"houseNumber","MatchQuality":{"Country":1.0,"State":1.0,"County":1.0,"City":1.0,"District":1.0,"Street":[1.0],"HouseNumber":1.0,"PostalCode":1.0},"MatchType":"interpolated","Location":{"LocationId":"NT_slq8C2jMu32s5mMfN6umlD_ykD","LocationType":"point","DisplayPosition":{"Latitude":51.60813,"Longitude":18.94533},"MapView":{"TopLeft":{"Latitude":51.6092542,"Longitude":18.9435199},"BottomRight":{"Latitude":51.6070058,"Longitude":18.9471401}},"Address":{"Label":"ulica Szadkowska 29, 98-220 Zduńska Wola, Polska","Country":"POL","State":"Woj. Łódzkie","County":"Powiat Zduńskowolski","City":"Zduńska Wola","District":"Zduńska Wola","Street":"ulica Szadkowska","HouseNumber":"29","PostalCode":"98-220","AdditionalData":[{"value":"Polska","key":"CountryName"},{"value":"Woj. Łódzkie","key":"StateName"},{"value":"Powiat Zduńskowolski","key":"CountyName"}]},"MapReference":{"ReferenceId":"1052013389","Spot":0.0,"SideOfStreet":"left","CountryId":"20624059","StateId":"20625723","CountyId":"20626089","CityId":"20683413","DistrictId":"20683414","AddressId":"701708334","RoadLinkId":"371651500"}}},{"Relevance":1.0,"Distance":15.8,"MatchLevel":"houseNumber","MatchQuality":{"Country":1.0,"State":1.0,"County":1.0,"City":1.0,"District":1.0,"Street":[1.0],"HouseNumber":1.0,"PostalCode":1.0},"MatchType":"interpolated","Location":{"LocationId":"NT_sGIivZOCEcaTb-429MZRTC_xEE","LocationType":"point","DisplayPosition":{"Latitude":51.6085,"Longitude":18.9455},"MapView":{"TopLeft":{"Latitude":51.6096242,"Longitude":18.9436899},"BottomRight":{"Latitude":51.6073758,"Longitude":18.9473101}},"Address":{"Label":"ulica Marii Skłodowskiej-Curie 1A, 98-220 Zduńska Wola, Polska","Country":"POL","State":"Woj. Łódzkie","County":"Powiat Zduńskowolski","City":"Zduńska Wola","District":"Zduńska Wola","Street":"ulica Marii Skłodowskiej-Curie","HouseNumber":"1A","PostalCode":"98-220","AdditionalData":[{"value":"Polska","key":"CountryName"},{"value":"Woj. Łódzkie","key":"StateName"},{"value":"Powiat Zduńskowolski","key":"CountyName"}]},"MapReference":{"ReferenceId":"595723469","Spot":0.13,"SideOfStreet":"left","CountryId":"20624059","StateId":"20625723","CountyId":"20626089","CityId":"20683413","DistrictId":"20683414","AddressId":"701681483","RoadLinkId":"95633118"}}},{"Relevance":1.0,"Distance":30.7,"MatchLevel":"houseNumber","MatchQuality":{"Country":1.0,"State":1.0,"County":1.0,"City":1.0,"District":1.0,"Street":[1.0],"HouseNumber":1.0,"PostalCode":1.0},"MatchType":"interpolated","Location":{"LocationId":"NT_slq8C2jMu32s5mMfN6umlD_yQjQ","LocationType":"point","DisplayPosition":{"Latitude":51.60825,"Longitude":18.94577},"MapView":{"TopLeft":{"Latitude":51.6093742,"Longitude":18.9439599},"BottomRight":{"Latitude":51.6071258,"Longitude":18.9475801}},"Address":{"Label":"ulica Szadkowska 24B, 98-220 Zduńska Wola, Polska","Country":"POL","State":"Woj. Łódzkie","County":"Powiat Zduńskowolski","City":"Zduńska Wola","District":"Zduńska Wola","Street":"ulica Szadkowska","HouseNumber":"24B","PostalCode":"98-220","AdditionalData":[{"value":"Polska","key":"CountryName"},{"value":"Woj. Łódzkie","key":"StateName"},{"value":"Powiat Zduńskowolski","key":"CountyName"}]},"MapReference":{"ReferenceId":"843990136","Spot":0.47,"SideOfStreet":"right","CountryId":"20624059","StateId":"20625723","CountyId":"20626089","CityId":"20683413","DistrictId":"20683414","AddressId":"210987088","RoadLinkId":"225444320"}}},{"Relevance":1.0,"Distance":40.0,"MatchLevel":"houseNumber","MatchQuality":{"Country":1.0,"State":1.0,"County":1.0,"City":1.0,"District":1.0,"Street":[1.0],"HouseNumber":1.0,"PostalCode":1.0},"MatchType":"interpolated","Location":{"LocationId":"NT_slq8C2jMu32s5mMfN6umlD_ycDR","LocationType":"point","DisplayPosition":{"Latitude":51.60805,"Longitude":18.94503},"MapView":{"TopLeft":{"Latitude":51.6091742,"Longitude":18.9432199},"BottomRight":{"Latitude":51.6069258,"Longitude":18.9468401}},"Address":{"Label":"ulica Szadkowska 27D, 98-220 Zduńska Wola, Polska","Country":"POL","State":"Woj. Łódzkie","County":"Powiat Zduńskowolski","City":"Zduńska Wola","District":"Zduńska Wola","Street":"ulica Szadkowska","HouseNumber":"27D","PostalCode":"98-220","AdditionalData":[{"value":"Polska","key":"CountryName"},{"value":"Woj. Łódzkie","key":"StateName"},{"value":"Powiat Zduńskowolski","key":"CountyName"}]},"MapReference":{"ReferenceId":"1052013388","Spot":0.67,"SideOfStreet":"left","CountryId":"20624059","StateId":"20625723","CountyId":"20626089","CityId":"20683413","DistrictId":"20683414","AddressId":"701708330","RoadLinkId":"371651499"}}},{"Relevance":1.0,"Distance":46.1,"MatchLevel":"street","MatchQuality":{"Country":1.0,"State":1.0,"County":1.0,"City":1.0,"District":1.0,"Street":[1.0],"PostalCode":1.0},"Location":{"LocationId":"NT_slq8C2jMu32s5mMfN6umlD_l_1052013390_L","LocationType":"point","DisplayPosition":{"Latitude":51.60832,"Longitude":18.94602},"MapView":{"TopLeft":{"Latitude":51.60845,"Longitude":18.94602},"BottomRight":{"Latitude":51.60832,"Longitude":18.94651}},"Address":{"Label":"ulica Szadkowska, 98-220 Zduńska Wola, Polska","Country":"POL","State":"Woj. Łódzkie","County":"Powiat Zduńskowolski","City":"Zduńska Wola","District":"Zduńska Wola","Street":"ulica Szadkowska","PostalCode":"98-220","AdditionalData":[{"value":"Polska","key":"CountryName"},{"value":"Woj. Łódzkie","key":"StateName"},{"value":"Powiat Zduńskowolski","key":"CountyName"}]},"MapReference":{"ReferenceId":"1052013390","Spot":0.0,"SideOfStreet":"left","CountryId":"20624059","StateId":"20625723","CountyId":"20626089","CityId":"20683413","DistrictId":"20683414"}}},{"Relevance":1.0,"Distance":46.1,"MatchLevel":"street","MatchQuality":{"Country":1.0,"State":1.0,"County":1.0,"City":1.0,"District":1.0,"PostalCode":1.0},"Location":{"LocationId":"NT_oF-s5olTT0QN33kidqZxkA_l_843990138_L","LocationType":"point","DisplayPosition":{"Latitude":51.60832,"Longitude":18.94602},"MapView":{"TopLeft":{"Latitude":51.60832,"Longitude":18.94602},"BottomRight":{"Latitude":51.60764,"Longitude":18.9462}},"Address":{"Label":"98-220 Zduńska Wola, Polska","Country":"POL","State":"Woj. Łódzkie","County":"Powiat Zduńskowolski","City":"Zduńska Wola","District":"Zduńska Wola","PostalCode":"98-220","AdditionalData":[{"value":"Polska","key":"CountryName"},{"value":"Woj. Łódzkie","key":"StateName"},{"value":"Powiat Zduńskowolski","key":"CountyName"}]},"MapReference":{"ReferenceId":"843990138","Spot":1.0,"SideOfStreet":"left","CountryId":"20624059","StateId":"20625723","CountyId":"20626089","CityId":"20683413","DistrictId":"20683414"}}},{"Relevance":1.0,"Distance":58.2,"MatchLevel":"street","MatchQuality":{"Country":1.0,"State":1.0,"County":1.0,"City":1.0,"District":1.0,"PostalCode":1.0},"Location":{"LocationId":"NT_oF-s5olTT0QN33kidqZxkA_l_956652103_L","LocationType":"point","DisplayPosition":{"Latitude":51.60788,"Longitude":18.94573},"MapView":{"TopLeft":{"Latitude":51.60788,"Longitude":18.94557},"BottomRight":{"Latitude":51.60722,"Longitude":18.94573}},"Address":{"Label":"98-220 Zduńska Wola, Polska","Country":"POL","State":"Woj. Łódzkie","County":"Powiat Zduńskowolski","City":"Zduńska Wola","District":"Zduńska Wola","PostalCode":"98-220","AdditionalData":[{"value":"Polska","key":"CountryName"},{"value":"Woj. Łódzkie","key":"StateName"},{"value":"Powiat Zduńskowolski","key":"CountyName"}]},"MapReference":{"ReferenceId":"956652103","Spot":1.0,"SideOfStreet":"left","CountryId":"20624059","StateId":"20625723","CountyId":"20626089","CityId":"20683413","DistrictId":"20683414"}}},{"Relevance":1.0,"Distance":91.2,"MatchLevel":"houseNumber","MatchQuality":{"Country":1.0,"State":1.0,"County":1.0,"City":1.0,"District":1.0,"Street":[1.0],"HouseNumber":1.0,"PostalCode":1.0},"MatchType":"interpolated","Location":{"LocationId":"NT_slq8C2jMu32s5mMfN6umlD_yYD","LocationType":"point","DisplayPosition":{"Latitude":51.60785,"Longitude":18.94679},"MapView":{"TopLeft":{"Latitude":51.6089742,"Longitude":18.9449799},"BottomRight":{"Latitude":51.6067258,"Longitude":18.9486001}},"Address":{"Label":"ulica Szadkowska 26, 98-220 Zduńska Wola, Polska","Country":"POL","State":"Woj. Łódzkie","County":"Powiat Zduńskowolski","City":"Zduńska Wola","District":"Zduńska Wola","Street":"ulica Szadkowska","HouseNumber":"26","PostalCode":"98-220","AdditionalData":[{"value":"Polska","key":"CountryName"},{"value":"Woj. Łódzkie","key":"StateName"},{"value":"Powiat Zduńskowolski","key":"CountyName"}]},"MapReference":{"ReferenceId":"956652114","Spot":0.56,"SideOfStreet":"left","CountryId":"20624059","StateId":"20625723","CountyId":"20626089","CityId":"20683413","DistrictId":"20683414","AddressId":"701702227","RoadLinkId":"299606588"}}},{"Relevance":1.0,"Distance":92.9,"MatchLevel":"houseNumber","MatchQuality":{"Country":1.0,"State":1.0,"County":1.0,"City":1.0,"District":1.0,"Street":[1.0],"HouseNumber":1.0,"PostalCode":1.0},"MatchType":"interpolated","Location":{"LocationId":"NT_slq8C2jMu32s5mMfN6umlD_yATQ","LocationType":"point","DisplayPosition":{"Latitude":51.60754,"Longitude":18.94501},"MapView":{"TopLeft":{"Latitude":51.6086642,"Longitude":18.9431999},"BottomRight":{"Latitude":51.6064158,"Longitude":18.9468201}},"Address":{"Label":"ulica Szadkowska 20A, 98-220 Zduńska Wola, Polska","Country":"POL","State":"Woj. Łódzkie","County":"Powiat Zduńskowolski","City":"Zduńska Wola","District":"Zduńska Wola","Street":"ulica Szadkowska","HouseNumber":"20A","PostalCode":"98-220","AdditionalData":[{"value":"Polska","key":"CountryName"},{"value":"Woj. Łódzkie","key":"StateName"},{"value":"Powiat Zduńskowolski","key":"CountyName"}]},"MapReference":{"ReferenceId":"956652101","Spot":0.96,"SideOfStreet":"left","CountryId":"20624059","StateId":"20625723","CountyId":"20626089","CityId":"20683413","DistrictId":"20683414","AddressId":"211359246","RoadLinkId":"299606567"}}}]}]}}