{"Response":{"MetaInfo":{"Timestamp":"2020-03-28T10:20:21.498+0000","NextPageInformation":"2"},"View":[{"_type":"SearchResultsViewType","ViewId":0,"Result":[{"Relevance":1.0,"Distance":0.0,"Direction":0.0,"MatchLevel":"district","MatchQuality":{"Country":1.0,"State":1.0,"County":1.0,"City":1.0,"District":1.0,"PostalCode":1.0},"Location":{"LocationId":"NT_o6jk4q2m24bIwg8XkMZdoA","LocationType":"point","DisplayPosition":{"Latitude":51.642356,"Longitude":8.507554},"MapView":{"TopLeft":{"Latitude":51.65453,"Longitude":8.48487},"BottomRight":{"Latitude":51.62479,"Longitude":8.53122}},"Address":{"Label":"Geseke, Nordrhein-Westfalen, Deutschland","Country":"DEU","State":"Nordrhein-Westfalen","County":"Soest","City":"Geseke","District":"Geseke","PostalCode":"59590","AdditionalData":[{"value":"Deutschland","key":"CountryName"},{"value":"Nordrhein-Westfalen","key":"StateName"},{"value":"Soest","key":"CountyName"}]},"MapReference":{"ReferenceId":"841074179","SideOfStreet":"neither","CountryId":"20147700","StateId":"20157369","CountyId":"20160789","CityId":"20160822","DistrictId":"20160824"}}},{"Relevance":1.0,"Distance":11.3,"MatchLevel":"houseNumber","MatchQuality":{"Country":1.0,"State":1.0,"County":1.0,"City":1.0,"District":1.0,"Street":[1.0],"HouseNumber":1.0,"PostalCode":1.0},"MatchType":"interpolated","Location":{"LocationId":"NT_zbTsAnWh4.P9MFtfDRMTRB_zA","LocationType":"point","DisplayPosition":{"Latitude":51.64223,"Longitude":8.50739},"MapView":{"TopLeft":{"Latitude":51.6433542,"Longitude":8.5055785},"BottomRight":{"Latitude":51.6411058,"Longitude":8.5092015}},"Address":{"Label":"Marktstraße 3, 59590 Geseke, Deutschland","Country":"DEU","State":"Nordrhein-Westfalen","County":"Soest","City":"Geseke","District":"Geseke","Street":"Marktstraße","HouseNumber":"3","PostalCode":"59590","AdditionalData":[{"value":"Deutschland","key":"CountryName"},{"value":"Nordrhein-Westfalen","key":"StateName"},{"value":"Soest","key":"CountyName"}]},"MapReference":{"ReferenceId":"75008320","Spot":0.75,"SideOfStreet":"right","CountryId":"20147700","StateId":"20157369","CountyId":"20160789","CityId":"20160822","DistrictId":"20160824","AddressId":"194557229","RoadLinkId":"35237431"}}},{"Relevance":1.0,"Distance":36.8,"MatchLevel":"houseNumber","MatchQuality":{"Country":1.0,"State":1.0,"County":1.0,"City":1.0,"District":1.0,"Street":[1.0],"HouseNumber":1.0,"PostalCode":1.0},"MatchType":"interpolated","Location":{"LocationId":"NT_NEc8h3NqQleKMnGMGFpG6A_xYD","LocationType":"point","DisplayPosition":{"Latitude":51.64276,"Longitude":8.50774},"MapView":{"TopLeft":{"Latitude":51.6438842,"Longitude":8.5059285},"BottomRight":{"Latitude":51.6416358,"Longitude":8.5095515}},"Address":{"Label":"Viehstraße 16, 59590 Geseke, Deutschland","Country":"DEU","State":"Nordrhein-Westfalen","County":"Soest","City":"Geseke","District":"Geseke","Street":"Viehstraße","HouseNumber":"16","PostalCode":"59590","AdditionalData":[{"value":"Deutschland","key":"CountryName"},{"value":"Nordrhein-Westfalen","key":"StateName"},{"value":"Soest","key":"CountyName"}]},"MapReference":{"ReferenceId":"74999939","Spot":0.17,"SideOfStreet":"left","CountryId":"20147700","StateId":"20157369","CountyId":"20160789","CityId":"20160822","DistrictId":"20160824","AddressId":"192962273","RoadLinkId":"35710035"}}},{"Relevance":1.0,"Distance":37.3,"MatchLevel":"houseNumber","MatchQuality":{"Country":1.0,"State":1.0,"County":1.0,"City":1.0,"District":1.0,"Street":[1.0],"HouseNumber":1.0,"PostalCode":1.0},"MatchType":"interpolated","Location":{"LocationId":"NT_NEc8h3NqQleKMnGMGFpG6A_xQD","LocationType":"point","DisplayPosition":{"Latitude":51.64265,"Longitude":8.50805},"MapView":{"TopLeft":{"Latitude":51.6437742,"Longitude":8.5062385},"BottomRight":{"Latitude":51.6415258,"Longitude":8.5098615}},"Address":{"Label":"Viehstraße 14, 59590 Geseke, Deutschland","Country":"DEU","State":"Nordrhein-Westfalen","County":"Soest","City":"Geseke","District":"Geseke","Street":"Viehstraße","HouseNumber":"14","PostalCode":"59590","AdditionalData":[{"value":"Deutschland","key":"CountryName"},{"value":"Nordrhein-Westfalen","key":"StateName"},{"value":"Soest","key":"CountyName"}]},"MapReference":{"ReferenceId":"74999960","Spot":0.91,"SideOfStreet":"left","CountryId":"20147700","StateId":"20157369","CountyId":"20160789","CityId":"20160822","DistrictId":"20160824","AddressId":"194541055","RoadLinkId":"35254864"}}},{"Relevance":1.0,"Distance":51.5,"MatchLevel":"houseNumber","MatchQuality":{"Country":1.0,"State":1.0,"County":1.0,"City":1.0,"District":1.0,"Street":[1.0],"HouseNumber":1.0,"PostalCode":1.0},"MatchType":"interpolated","Location":{"LocationId":"NT_DWP6fKrEM6bYUMRlvsZJJA_ygD","LocationType":"point","DisplayPosition":{"Latitude":51.64263,"Longitude":8.50682},"MapView":{"TopLeft":{"Latitude":51.6437542,"Longitude":8.5050085},"BottomRight":{"Latitude":51.6415058,"Longitude":8.5086315}},"Address":{"Label":"Calenhof 28, 59590 Geseke, Deutschland","Country":"DEU","State":"Nordrhein-Westfalen","County":"Soest","City":"Geseke","District":"Geseke","Street":"Calenhof","HouseNumber":"28","PostalCode":"59590","AdditionalData":[{"value":"Deutschland","key":"CountryName"},{"value":"Nordrhein-Westfalen","key":"StateName"},{"value":"Soest","key":"CountyName"}]},"MapReference":{"ReferenceId":"75364125","Spot":0.38,"SideOfStreet":"right","CountryId":"20147700","StateId":"20157369","CountyId":"20160789","CityId":"20160822","DistrictId":"20160824","AddressId":"193809941","RoadLinkId":"35319377"}}},{"Relevance":1.0,"Distance":59.2,"MatchLevel":"street","MatchQuality":{"Country":1.0,"State":1.0,"County":1.0,"City":1.0,"District":1.0,"Street":[1.0],"PostalCode":1.0},"Location":{"LocationId":"NT_DWP6fKrEM6bYUMRlvsZJJA_l_75364124_R","LocationType":"point","DisplayPosition":{"Latitude":51.64241,"Longitude":8.5067},"MapView":{"TopLeft":{"Latitude":51.64241,"Longitude":8.50666},"BottomRight":{"Latitude":51.64234,"Longitude":8.5067}},"Address":{"Label":"Calenhof, 59590 Geseke, Deutschland","Country":"DEU","State":"Nordrhein-Westfalen","County":"Soest","City":"Geseke","District":"Geseke","Street":"Calenhof","PostalCode":"59590","AdditionalData":[{"value":"Deutschland","key":"CountryName"},{"value":"Nordrhein-Westfalen","key":"StateName"},{"value":"Soest","key":"CountyName"}]},"MapReference":{"ReferenceId":"75364124","Spot":1.0,"SideOfStreet":"right","CountryId":"20147700","StateId":"20157369","CountyId":"20160789","CityId":"20160822","DistrictId":"20160824"}}},{"Relevance":1.0,"Distance":81.7,"MatchLevel":"houseNumber","MatchQuality":{"Country":1.0,"State":1.0,"County":1.0,"City":1.0,"District":1.0,"Street":[1.0],"HouseNumber":1.0,"PostalCode":1.0},"MatchType":"interpolated","Location":{"LocationId":"NT_DWP6fKrEM6bYUMRlvsZJJA_yYD","LocationType":"point","DisplayPosition":{"Latitude":51.64198,"Longitude":8.50641},"MapView":{"TopLeft":{"Latitude":51.6431042,"Longitude":8.5045985},"BottomRight":{"Latitude":51.6408558,"Longitude":8.5082215}},"Address":{"Label":"Calenhof 26, 59590 Geseke, Deutschland","Country":"DEU","State":"Nordrhein-Westfalen","County":"Soest","City":"Geseke","District":"Geseke","Street":"Calenhof","HouseNumber":"26","PostalCode":"59590","AdditionalData":[{"value":"Deutschland","key":"CountryName"},{"value":"Nordrhein-Westfalen","key":"StateName"},{"value":"Soest","key":"CountyName"}]},"MapReference":{"ReferenceId":"74999908","Spot":0.47,"SideOfStreet":"right","CountryId":"20147700","StateId":"20157369","CountyId":"20160789","CityId":"20160822","DistrictId":"20160824","AddressId":"193987236","RoadLinkId":"35027896"}}},{"Relevance":1.0,"Distance":96.2,"MatchLevel":"houseNumber","MatchQuality":{"Country":1.0,"State":1.0,"County":1.0,"City":1.0,"District":1.0,"Street":[1.0],"HouseNumber":1.0,"PostalCode":1.0},"MatchType":"interpolated","Location":{"LocationId":"NT_L.RYmrnjGpvBD-XPLJffFC_yA","LocationType":"point","DisplayPosition":{"Latitude":51.64314,"Longitude":8.50817},"MapView":{"TopLeft":{"Latitude":51.6442642,"Longitude":8.5063585},"BottomRight":{"Latitude":51.6420158,"Longitude":8.5099815}},"Address":{"Label":"Krämergasse 2, 59590 Geseke, Deutschland","Country":"DEU","State":"Nordrhein-Westfalen","County":"Soest","City":"Geseke","District":"Geseke","Street":"Krämergasse","HouseNumber":"2","PostalCode":"59590","AdditionalData":[{"value":"Deutschland","key":"CountryName"},{"value":"Nordrhein-Westfalen","key":"StateName"},{"value":"Soest","key":"CountyName"}]},"MapReference":{"ReferenceId":"74999932","Spot":0.44,"SideOfStreet":"left","CountryId":"20147700","StateId":"20157369","CountyId":"20160789","CityId":"20160822","DistrictId":"20160824","AddressId":"194645363","RoadLinkId":"35256316"}}},{"Relevance":1.0,"Distance":96.3,"MatchLevel":"houseNumber","MatchQuality":{"Country":1.0,"State":1.0,"County":1.0,"City":1.0,"District":1.0,"Street":[1.0],"HouseNumber":1.0,"PostalCode":1.0},"MatchType":"interpolated","Location":{"LocationId":"NT_DWP6fKrEM6bYUMRlvsZJJA_zID","LocationType":"point","DisplayPosition":{"Latitude":51.64325,"Longitude":8.50709},"MapView":{"TopLeft":{"Latitude":51.6443742,"Longitude":8.5052785},"BottomRight":{"Latitude":51.6421258,"Longitude":8.5089015}},"Address":{"Label":"Calenhof 32, 59590 Geseke, Deutschland","Country":"DEU","State":"Nordrhein-Westfalen","County":"Soest","City":"Geseke","District":"Geseke","Street":"Calenhof","HouseNumber":"32","PostalCode":"59590","AdditionalData":[{"value":"Deutschland","key":"CountryName"},{"value":"Nordrhein-Westfalen","key":"StateName"},{"value":"Soest","key":"CountyName"}]},"MapReference":{"ReferenceId":"74999969","Spot":0.65,"SideOfStreet":"right","CountryId":"20147700","StateId":"20157369","CountyId":"20160789","CityId":"20160822","DistrictId":"20160824","AddressId":"195412966","RoadLinkId":"34968415"}}},{"Relevance":1.0,"Distance":104.4,"MatchLevel":"houseNumber","MatchQuality":{"Country":1.0,"State":1.0,"County":1.0,"City":1.0,"District":1.0,"Street":[1.0],"HouseNumber":1.0,"PostalCode":1.0},"MatchType":"interpolated","Location":{"LocationId":"NT_vq1j7toljuHsZoN3O0FKkD_yA","LocationType":"point","DisplayPosition":{"Latitude":51.64309,"Longitude":8.50661},"MapView":{"TopLeft":{"Latitude":51.6442142,"Longitude":8.5047985},"BottomRight":{"Latitude":51.6419658,"Longitude":8.5084215}},"Address":{"Label":"Westmauer 2, 59590 Geseke, Deutschland","Country":"DEU","State":"Nordrhein-Westfalen","County":"Soest","City":"Geseke","District":"Geseke","Street":"Westmauer","HouseNumber":"2","PostalCode":"59590","AdditionalData":[{"value":"Deutschland","key":"CountryName"},{"value":"Nordrhein-Westfalen","key":"StateName"},{"value":"Soest","key":"CountyName"}]},"MapReference":{"ReferenceId":"74999905","Spot":0.57,"SideOfStreet":"left","CountryId":"20147700","StateId":"20157369","CountyId":"20160789","CityId":"20160822","DistrictId":"20160824","AddressId":"195450050","RoadLinkId":"35429205"}}}]}]}}