{"Response":{"MetaInfo":{"Timestamp":"2020-03-28T12:01:32.509+0000","NextPageInformation":"2"},"View":[{"_type":"SearchResultsViewType","ViewId":0,"Result":[{"Relevance":1.0,"Distance":0.0,"Direction":0.0,"MatchLevel":"district","MatchQuality":{"Country":1.0,"State":1.0,"County":1.0,"City":1.0,"District":1.0,"PostalCode":1.0},"Location":{"LocationId":"NT_7YPz7f1Iz4yrSyrmW5OxgC","LocationType":"point","DisplayPosition":{"Latitude":51.618021,"Longitude":-3.9864459},"MapView":{"TopLeft":{"Latitude":51.62305,"Longitude":-4.008},"BottomRight":{"Latitude":51.61227,"Longitude":-3.9781}},"Address":{"Label":"Sketty, Swansea, Wales, United Kingdom","Country":"GBR","State":"Wales","County":"West Glamorgan","City":"Swansea","District":"Sketty","PostalCode":"SA2 0","AdditionalData":[{"value":"United Kingdom","key":"CountryName"},{"value":"Wales","key":"StateName"},{"value":"West Glamorgan","key":"CountyName"}]},"MapReference":{"ReferenceId":"907937912","SideOfStreet":"neither","StateId":"20287683","CountyId":"20343011","CityId":"20343062","DistrictId":"20343141"}}},{"Relevance":1.0,"Distance":5.9,"MatchLevel":"houseNumber","MatchQuality":{"Country":1.0,"State":1.0,"County":1.0,"City":1.0,"District":1.0,"Street":[1.0],"HouseNumber":1.0,"PostalCode":1.0},"MatchType":"interpolated","Location":{"LocationId":"NT_hbFTOs5imzauWU6eHVTZqC_l_759456817_R_zA","LocationType":"point","DisplayPosition":{"Latitude":51.61813,"Longitude":-3.98649},"MapView":{"TopLeft":{"Latitude":51.6192542,"Longitude":-3.9883005},"BottomRight":{"Latitude":51.6170059,"Longitude":-3.9846795}},"Address":{"Label":"3 Dillwyn Road, Swansea, SA2 9AQ, United Kingdom","Country":"GBR","State":"Wales","County":"West Glamorgan","City":"Swansea","District":"Sketty","Street":"Dillwyn Road","HouseNumber":"3","PostalCode":"SA2 9AQ","AdditionalData":[{"value":"United Kingdom","key":"CountryName"},{"value":"Wales","key":"StateName"},{"value":"West Glamorgan","key":"CountyName"}]},"MapReference":{"ReferenceId":"759456817","Spot":0.0,"SideOfStreet":"right","StateId":"20287683","CountyId":"20343011","CityId":"20343062","DistrictId":"20343141"}}},{"Relevance":1.0,"Distance":17.8,"MatchLevel":"houseNumber","MatchQuality":{"Country":1.0,"State":1.0,"County":1.0,"City":1.0,"District":1.0,"Street":[1.0],"HouseNumber":1.0,"PostalCode":1.0},"MatchType":"interpolated","Location":{"LocationId":"NT_hbFTOs5imzauWU6eHVTZqC_l_759456816_R_1A","LocationType":"point","DisplayPosition":{"Latitude":51.6179904,"Longitude":-3.9866994},"MapView":{"TopLeft":{"Latitude":51.6191145,"Longitude":-3.9885099},"BottomRight":{"Latitude":51.6168662,"Longitude":-3.9848889}},"Address":{"Label":"5 Dillwyn Road, Swansea, SA2 9AQ, United Kingdom","Country":"GBR","State":"Wales","County":"West Glamorgan","City":"Swansea","District":"Sketty","Street":"Dillwyn Road","HouseNumber":"5","PostalCode":"SA2 9AQ","AdditionalData":[{"value":"United Kingdom","key":"CountryName"},{"value":"Wales","key":"StateName"},{"value":"West Glamorgan","key":"CountyName"}]},"MapReference":{"ReferenceId":"759456816","Spot":0.71,"SideOfStreet":"right","StateId":"20287683","CountyId":"20343011","CityId":"20343062","DistrictId":"20343141"}}},{"Relevance":1.0,"Distance":18.6,"MatchLevel":"houseNumber","MatchQuality":{"Country":1.0,"State":1.0,"County":1.0,"City":1.0,"District":1.0,"Street":[1.0],"HouseNumber":1.0,"PostalCode":1.0},"MatchType":"interpolated","Location":{"LocationId":"NT_EndAHz5JCbIMjmaecz9rMA_l_17379986_L_0UD","LocationType":"point","DisplayPosition":{"Latitude":51.6182375,"Longitude":-3.98617},"MapView":{"TopLeft":{"Latitude":51.6193617,"Longitude":-3.9879805},"BottomRight":{"Latitude":51.6171134,"Longitude":-3.9843595}},"Address":{"Label":"45 Gower Road, Swansea, SA2 9BX, United Kingdom","Country":"GBR","State":"Wales","County":"West Glamorgan","City":"Swansea","District":"Sketty","Street":"Gower Road","HouseNumber":"45","PostalCode":"SA2 9BX","AdditionalData":[{"value":"United Kingdom","key":"CountryName"},{"value":"Wales","key":"StateName"},{"value":"West Glamorgan","key":"CountyName"}]},"MapReference":{"ReferenceId":"17379986","Spot":0.75,"SideOfStreet":"left","StateId":"20287683","CountyId":"20343011","CityId":"20343062","DistrictId":"20343141"}}},{"Relevance":1.0,"Distance":18.6,"MatchLevel":"houseNumber","MatchQuality":{"Country":1.0,"State":1.0,"County":1.0,"City":1.0,"District":1.0,"Street":[1.0],"HouseNumber":1.0,"PostalCode":1.0},"MatchType":"interpolated","Location":{"LocationId":"NT_hbFTOs5imzauWU6eHVTZqC_l_907928260_L_yA","LocationType":"point","DisplayPosition":{"Latitude":51.6181462,"Longitude":-3.9866251},"MapView":{"TopLeft":{"Latitude":51.6192703,"Longitude":-3.9884356},"BottomRight":{"Latitude":51.617022,"Longitude":-3.9848146}},"Address":{"Label":"2 Dillwyn Road, Swansea, SA2 9, United Kingdom","Country":"GBR","State":"Wales","County":"West Glamorgan","City":"Swansea","District":"Sketty","Street":"Dillwyn Road","HouseNumber":"2","PostalCode":"SA2 9","AdditionalData":[{"value":"United Kingdom","key":"CountryName"},{"value":"Wales","key":"StateName"},{"value":"West Glamorgan","key":"CountyName"}]},"MapReference":{"ReferenceId":"907928260","Spot":0.64,"SideOfStreet":"left","StateId":"20287683","CountyId":"20343011","CityId":"20343062","DistrictId":"20343141"}}},{"Relevance":1.0,"Distance":23.1,"MatchLevel":"houseNumber","MatchQuality":{"Country":1.0,"State":1.0,"County":1.0,"City":1.0,"District":1.0,"Street":[1.0],"HouseNumber":1.0,"PostalCode":1.0},"MatchType":"interpolated","Location":{"LocationId":"NT_04QZbLkNrNC8JCysyG90FB_l_907937911_R_xAD","LocationType":"point","DisplayPosition":{"Latitude":51.61831,"Longitude":-3.98639},"MapView":{"TopLeft":{"Latitude":51.6194342,"Longitude":-3.9882005},"BottomRight":{"Latitude":51.6171859,"Longitude":-3.9845795}},"Address":{"Label":"10 Vivian Road, Swansea, SA2 0UH, United Kingdom","Country":"GBR","State":"Wales","County":"West Glamorgan","City":"Swansea","District":"Sketty","Street":"Vivian Road","HouseNumber":"10","PostalCode":"SA2 0UH","AdditionalData":[{"value":"United Kingdom","key":"CountryName"},{"value":"Wales","key":"StateName"},{"value":"West Glamorgan","key":"CountyName"}]},"MapReference":{"ReferenceId":"907937911","Spot":0.0,"SideOfStreet":"right","StateId":"20287683","CountyId":"20343011","CityId":"20343062","DistrictId":"20343141"}}},{"Relevance":1.0,"Distance":25.8,"MatchLevel":"houseNumber","MatchQuality":{"Country":1.0,"State":1.0,"County":1.0,"City":1.0,"District":1.0,"Street":[1.0],"HouseNumber":1.0,"PostalCode":1.0},"MatchType":"interpolated","Location":{"LocationId":"NT_EndAHz5JCbIMjmaecz9rMA_l_17379922_L_0cD","LocationType":"point","DisplayPosition":{"Latitude":51.6183601,"Longitude":-3.9865802},"MapView":{"TopLeft":{"Latitude":51.6194842,"Longitude":-3.9883908},"BottomRight":{"Latitude":51.6172359,"Longitude":-3.9847697}},"Address":{"Label":"47 Gower Road, Swansea, SA2 9BH, United Kingdom","Country":"GBR","State":"Wales","County":"West Glamorgan","City":"Swansea","District":"Sketty","Street":"Gower Road","HouseNumber":"47","PostalCode":"SA2 9BH","AdditionalData":[{"value":"United Kingdom","key":"CountryName"},{"value":"Wales","key":"StateName"},{"value":"West Glamorgan","key":"CountyName"}]},"MapReference":{"ReferenceId":"17379922","Spot":0.08,"SideOfStreet":"left","StateId":"20287683","CountyId":"20343011","CityId":"20343062","DistrictId":"20343141"}}},{"Relevance":1.0,"Distance":29.0,"MatchLevel":"postalCode","MatchQuality":{"PostalCode":1.0},"MatchType":"interpolated","Location":{"LocationId":"NT_hbFTOs5imzauWU6eHVTZqC_l_759456816_R_1A","LocationType":"point","DisplayPosition":{"Latitude":51.61788,"Longitude":-3.9868},"MapView":{"TopLeft":{"Latitude":51.6268732,"Longitude":-4.0012841},"BottomRight":{"Latitude":51.6088868,"Longitude":-3.9723159}},"Address":{"Label":"SA2 9AQ, Swansea, Wales, United Kingdom","Country":"GBR","State":"Wales","County":"West Glamorgan","City":"Swansea","PostalCode":"SA2 9AQ","AdditionalData":[{"value":"United Kingdom","key":"CountryName"},{"value":"Wales","key":"StateName"},{"value":"West Glamorgan","key":"CountyName"}]},"MapReference":{"ReferenceId":"759456816","Spot":0.71,"SideOfStreet":"neither","StateId":"20287683","CountyId":"20343011","CityId":"20343062"}}},{"Relevance":1.0,"Distance":31.1,"MatchLevel":"houseNumber","MatchQuality":{"Country":1.0,"State":1.0,"County":1.0,"City":1.0,"District":1.0,"Street":[1.0],"HouseNumber":1.0,"PostalCode":1.0},"MatchType":"interpolated","Location":{"LocationId":"NT_EndAHz5JCbIMjmaecz9rMA_l_17379939_R_xADN","LocationType":"point","DisplayPosition":{"Latitude":51.618293,"Longitude":-3.986339},"MapView":{"TopLeft":{"Latitude":51.6194171,"Longitude":-3.9881495},"BottomRight":{"Latitude":51.6171688,"Longitude":-3.9845284}},"Address":{"Label":"104 Gower Road, Swansea, SA2 9BZ, United Kingdom","Country":"GBR","State":"Wales","County":"West Glamorgan","City":"Swansea","District":"Sketty","Street":"Gower Road","HouseNumber":"104","PostalCode":"SA2 9BZ","AdditionalData":[{"value":"United Kingdom","key":"CountryName"},{"value":"Wales","key":"StateName"},{"value":"West Glamorgan","key":"CountyName"}]},"MapReference":{"ReferenceId":"17379939","Spot":0.57,"SideOfStreet":"right","StateId":"20287683","CountyId":"20343011","CityId":"20343062","DistrictId":"20343141"}}},{"Relevance":1.0,"Distance":51.5,"MatchLevel":"postalCode","MatchQuality":{"PostalCode":1.0},"MatchType":"interpolated","Location":{"LocationId":"NT_UUqVXiH6mvn85kMOOFsXAD_l_565709438_L_zcD","LocationType":"point","DisplayPosition":{"Latitude":51.61804,"Longitude":-3.9857},"MapView":{"TopLeft":{"Latitude":51.6270332,"Longitude":-4.0001841},"BottomRight":{"Latitude":51.6090468,"Longitude":-3.9712159}},"Address":{"Label":"SA2 9BX, Swansea, Wales, United Kingdom","Country":"GBR","State":"Wales","County":"West Glamorgan","City":"Swansea","PostalCode":"SA2 9BX","AdditionalData":[{"value":"United Kingdom","key":"CountryName"},{"value":"Wales","key":"StateName"},{"value":"West Glamorgan","key":"CountyName"}]},"MapReference":{"ReferenceId":"565709438","Spot":0.7,"SideOfStreet":"neither","StateId":"20287683","CountyId":"20343011","CityId":"20343062"}}}]}]}}