{"Response":{"MetaInfo":{"Timestamp":"2020-03-28T10:55:49.913+0000","NextPageInformation":"2"},"View":[{"_type":"SearchResultsViewType","ViewId":0,"Result":[{"Relevance":1.0,"Distance":0.0,"Direction":0.0,"MatchLevel":"district","MatchQuality":{"Country":1.0,"State":1.0,"County":1.0,"City":1.0,"District":1.0,"PostalCode":1.0},"Location":{"LocationId":"NT_BdCxq2bbeiUmb-HJpWvi0A","LocationType":"point","DisplayPosition":{"Latitude":51.6736523,"Longitude":8.3376649},"MapView":{"TopLeft":{"Latitude":51.69397,"Longitude":8.29789},"BottomRight":{"Latitude":51.64875,"Longitude":8.3827}},"Address":{"Label":"Lippstadt, Nordrhein-Westfalen, Deutschland","Country":"DEU","State":"Nordrhein-Westfalen","County":"Soest","City":"Lippstadt","District":"Lippstadt","PostalCode":"59557","AdditionalData":[{"value":"Deutschland","key":"CountryName"},{"value":"Nordrhein-Westfalen","key":"StateName"},{"value":"Soest","key":"CountyName"}]},"MapReference":{"ReferenceId":"1203937653","SideOfStreet":"neither","CountryId":"20147700","StateId":"20157369","CountyId":"20160789","CityId":"20160837","DistrictId":"20160839"}}},{"Relevance":1.0,"Distance":13.1,"MatchLevel":"houseNumber","MatchQuality":{"Country":1.0,"State":1.0,"County":1.0,"City":1.0,"District":1.0,"Street":[1.0],"HouseNumber":1.0,"PostalCode":1.0},"MatchType":"interpolated","Location":{"LocationId":"NT_nxXAmO8m.hafvdJyzlbzlA_0A","LocationType":"point","DisplayPosition":{"Latitude":51.67371,"Longitude":8.3375},"MapView":{"TopLeft":{"Latitude":51.6748342,"Longitude":8.3356873},"BottomRight":{"Latitude":51.6725858,"Longitude":8.3393127}},"Address":{"Label":"Soesttor 4, 59555 Lippstadt, Deutschland","Country":"DEU","State":"Nordrhein-Westfalen","County":"Soest","City":"Lippstadt","District":"Lippstadt","Street":"Soesttor","HouseNumber":"4","PostalCode":"59555","AdditionalData":[{"value":"Deutschland","key":"CountryName"},{"value":"Nordrhein-Westfalen","key":"StateName"},{"value":"Soest","key":"CountyName"}]},"MapReference":{"ReferenceId":"75367138","Spot":0.6,"SideOfStreet":"left","CountryId":"20147700","StateId":"20157369","CountyId":"20160789","CityId":"20160837","DistrictId":"20160839","AddressId":"754896336","RoadLinkId":"35335583"}}},{"Relevance":1.0,"Distance":28.7,"MatchLevel":"houseNumber","MatchQuality":{"Country":1.0,"State":1.0,"County":1.0,"City":1.0,"District":1.0,"Street":[1.0],"HouseNumber":1.0,"PostalCode":1.0},"MatchType":"interpolated","Location":{"LocationId":"NT_6arLYiHOXxWUBvxa5Cx9oB_4QD","LocationType":"point","DisplayPosition":{"Latitude":51.67392,"Longitude":8.33778},"MapView":{"TopLeft":{"Latitude":51.6750442,"Longitude":8.3359672},"BottomRight":{"Latitude":51.6727958,"Longitude":8.3395928}},"Address":{"Label":"Burgstraße 84, 59555 Lippstadt, Deutschland","Country":"DEU","State":"Nordrhein-Westfalen","County":"Soest","City":"Lippstadt","District":"Lippstadt","Street":"Burgstraße","HouseNumber":"84","PostalCode":"59555","AdditionalData":[{"value":"Deutschland","key":"CountryName"},{"value":"Nordrhein-Westfalen","key":"StateName"},{"value":"Soest","key":"CountyName"}]},"MapReference":{"ReferenceId":"75367136","Spot":0.03,"SideOfStreet":"left","CountryId":"20147700","StateId":"20157369","CountyId":"20160789","CityId":"20160837","DistrictId":"20160839","AddressId":"194004836","RoadLinkId":"35342749"}}},{"Relevance":1.0,"Distance":34.7,"MatchLevel":"houseNumber","MatchQuality":{"Country":1.0,"State":1.0,"County":1.0,"City":1.0,"District":1.0,"Street":[1.0],"HouseNumber":1.0,"PostalCode":1.0},"MatchType":"interpolated","Location":{"LocationId":"NT_RU8JRzrnnZZ-naFp3SepOB_0UD","LocationType":"point","DisplayPosition":{"Latitude":51.67386,"Longitude":8.33804},"MapView":{"TopLeft":{"Latitude":51.6749842,"Longitude":8.3362273},"BottomRight":{"Latitude":51.6727358,"Longitude":8.3398527}},"Address":{"Label":"Soeststraße 45, 59555 Lippstadt, Deutschland","Country":"DEU","State":"Nordrhein-Westfalen","County":"Soest","City":"Lippstadt","District":"Lippstadt","Street":"Soeststraße","HouseNumber":"45","PostalCode":"59555","AdditionalData":[{"value":"Deutschland","key":"CountryName"},{"value":"Nordrhein-Westfalen","key":"StateName"},{"value":"Soest","key":"CountyName"}]},"MapReference":{"ReferenceId":"75367135","Spot":0.19,"SideOfStreet":"left","CountryId":"20147700","StateId":"20157369","CountyId":"20160789","CityId":"20160837","DistrictId":"20160839","AddressId":"194416692","RoadLinkId":"35543440"}}},{"Relevance":1.0,"Distance":44.6,"MatchLevel":"street","MatchQuality":{"Country":1.0,"State":1.0,"County":1.0,"City":1.0,"District":1.0,"Street":[1.0],"PostalCode":1.0},"Location":{"LocationId":"NT_Y4sPIzV0sjV8alIbX8hcFC_l_1223035976_R","LocationType":"point","DisplayPosition":{"Latitude":51.67362,"Longitude":8.33702},"MapView":{"TopLeft":{"Latitude":51.67368,"Longitude":8.3364},"BottomRight":{"Latitude":51.67362,"Longitude":8.33702}},"Address":{"Label":"Bückeburger Straße, 59555 Lippstadt, Deutschland","Country":"DEU","State":"Nordrhein-Westfalen","County":"Soest","City":"Lippstadt","District":"Lippstadt","Street":"Bückeburger Straße","PostalCode":"59555","AdditionalData":[{"value":"Deutschland","key":"CountryName"},{"value":"Nordrhein-Westfalen","key":"StateName"},{"value":"Soest","key":"CountyName"}]},"MapReference":{"ReferenceId":"1223035976","Spot":0.0,"SideOfStreet":"right","CountryId":"20147700","StateId":"20157369","CountyId":"20160789","CityId":"20160837","DistrictId":"20160839"}}},{"Relevance":1.0,"Distance":50.0,"MatchLevel":"houseNumber","MatchQuality":{"Country":1.0,"State":1.0,"County":1.0,"City":1.0,"District":1.0,"Street":[1.0],"HouseNumber":1.0,"PostalCode":1.0},"MatchType":"interpolated","Location":{"LocationId":"NT_JFyYrMVsjZ7M1vXLfnjB-A_xA","LocationType":"point","DisplayPosition":{"Latitude":51.6739,"Longitude":8.33698},"MapView":{"TopLeft":{"Latitude":51.6750242,"Longitude":8.3351673},"BottomRight":{"Latitude":51.6727758,"Longitude":8.3387927}},"Address":{"Label":"Lagerplatz 1, 59555 Lippstadt, Deutschland","Country":"DEU","State":"Nordrhein-Westfalen","County":"Soest","City":"Lippstadt","District":"Lippstadt","Street":"Lagerplatz","HouseNumber":"1","PostalCode":"59555","AdditionalData":[{"value":"Deutschland","key":"CountryName"},{"value":"Nordrhein-Westfalen","key":"StateName"},{"value":"Soest","key":"CountyName"}]},"MapReference":{"ReferenceId":"75368249","Spot":0.34,"SideOfStreet":"right","CountryId":"20147700","StateId":"20157369","CountyId":"20160789","CityId":"20160837","DistrictId":"20160839","AddressId":"192995334","RoadLinkId":"34993809"}}},{"Relevance":1.0,"Distance":60.2,"MatchLevel":"houseNumber","MatchQuality":{"Country":1.0,"State":1.0,"County":1.0,"City":1.0,"District":1.0,"Street":[1.0],"HouseNumber":1.0,"PostalCode":1.0},"MatchType":"interpolated","Location":{"LocationId":"NT_nxXAmO8m.hafvdJyzlbzlA_xID","LocationType":"point","DisplayPosition":{"Latitude":51.67336,"Longitude":8.33693},"MapView":{"TopLeft":{"Latitude":51.6744842,"Longitude":8.3351173},"BottomRight":{"Latitude":51.6722358,"Longitude":8.3387427}},"Address":{"Label":"Soesttor 12, 59555 Lippstadt, Deutschland","Country":"DEU","State":"Nordrhein-Westfalen","County":"Soest","City":"Lippstadt","District":"Lippstadt","Street":"Soesttor","HouseNumber":"12","PostalCode":"59555","AdditionalData":[{"value":"Deutschland","key":"CountryName"},{"value":"Nordrhein-Westfalen","key":"StateName"},{"value":"Soest","key":"CountyName"}]},"MapReference":{"ReferenceId":"1204434696","Spot":0.55,"SideOfStreet":"left","CountryId":"20147700","StateId":"20157369","CountyId":"20160789","CityId":"20160837","DistrictId":"20160839","AddressId":"195519960","RoadLinkId":"517711718"}}},{"Relevance":1.0,"Distance":87.3,"MatchLevel":"street","MatchQuality":{"Country":1.0,"State":1.0,"County":1.0,"City":1.0,"District":1.0,"Street":[1.0],"PostalCode":1.0},"Location":{"LocationId":"NT_Y4sPIzV0sjV8alIbX8hcFC_l_1223035977_R","LocationType":"point","DisplayPosition":{"Latitude":51.67368,"Longitude":8.3364},"MapView":{"TopLeft":{"Latitude":51.67379,"Longitude":8.33575},"BottomRight":{"Latitude":51.67368,"Longitude":8.3364}},"Address":{"Label":"Bückeburger Straße, 59555 Lippstadt, Deutschland","Country":"DEU","State":"Nordrhein-Westfalen","County":"Soest","City":"Lippstadt","District":"Lippstadt","Street":"Bückeburger Straße","PostalCode":"59555","AdditionalData":[{"value":"Deutschland","key":"CountryName"},{"value":"Nordrhein-Westfalen","key":"StateName"},{"value":"Soest","key":"CountyName"}]},"MapReference":{"ReferenceId":"1223035977","Spot":0.0,"SideOfStreet":"right","CountryId":"20147700","StateId":"20157369","CountyId":"20160789","CityId":"20160837","DistrictId":"20160839"}}},{"Relevance":1.0,"Distance":92.9,"MatchLevel":"houseNumber","MatchQuality":{"Country":1.0,"State":1.0,"County":1.0,"City":1.0,"District":1.0,"Street":[1.0],"HouseNumber":1.0,"PostalCode":1.0},"MatchType":"interpolated","Location":{"LocationId":"NT_nxXAmO8m.hafvdJyzlbzlA_xYD","LocationType":"point","DisplayPosition":{"Latitude":51.67296,"Longitude":8.33691},"MapView":{"TopLeft":{"Latitude":51.6740842,"Longitude":8.3350973},"BottomRight":{"Latitude":51.6718358,"Longitude":8.3387227}},"Address":{"Label":"Soesttor 16, 59555 Lippstadt, Deutschland","Country":"DEU","State":"Nordrhein-Westfalen","County":"Soest","City":"Lippstadt","District":"Lippstadt","Street":"Soesttor","HouseNumber":"16","PostalCode":"59555","AdditionalData":[{"value":"Deutschland","key":"CountryName"},{"value":"Nordrhein-Westfalen","key":"StateName"},{"value":"Soest","key":"CountyName"}]},"MapReference":{"ReferenceId":"1204434695","Spot":0.96,"SideOfStreet":"left","CountryId":"20147700","StateId":"20157369","CountyId":"20160789","CityId":"20160837","DistrictId":"20160839","AddressId":"194539369","RoadLinkId":"517711717"}}},{"Relevance":1.0,"Distance":100.5,"MatchLevel":"landmark","MatchQuality":{"Country":1.0,"State":1.0,"Name":1.0},"Location":{"LocationId":"NT_3yLFcpwNAKHpPxz8wxSkIB","LocationType":"river","Name":"Lippe","DisplayPosition":{"Latitude":51.69853,"Longitude":8.47381},"MapView":{"TopLeft":{"Latitude":51.78218,"Longitude":7.7005},"BottomRight":{"Latitude":51.65809,"Longitude":8.8226}},"Address":{"Label":"Deutschland","Country":"DEU","State":"Nordrhein-Westfalen","AdditionalData":[{"value":"Deutschland","key":"CountryName"},{"value":"Nordrhein-Westfalen","key":"StateName"}]},"MapReference":{"CountryId":"20147700","StateId":"20157369","PlaceId":"750397815"}}}]}]}}