{"Response":{"MetaInfo":{"Timestamp":"2020-03-28T11:00:26.596+0000","NextPageInformation":"2"},"View":[{"_type":"SearchResultsViewType","ViewId":0,"Result":[{"Relevance":1.0,"Distance":0.0,"Direction":0.0,"MatchLevel":"district","MatchQuality":{"Country":1.0,"State":1.0,"County":1.0,"City":1.0,"District":1.0,"PostalCode":1.0},"Location":{"LocationId":"NT_BdCxq2bbeiUmb-HJpWvi0A","LocationType":"point","DisplayPosition":{"Latitude":51.6740231,"Longitude":8.3415379},"MapView":{"TopLeft":{"Latitude":51.69397,"Longitude":8.29789},"BottomRight":{"Latitude":51.64875,"Longitude":8.3827}},"Address":{"Label":"Lippstadt, Nordrhein-Westfalen, Deutschland","Country":"DEU","State":"Nordrhein-Westfalen","County":"Soest","City":"Lippstadt","District":"Lippstadt","PostalCode":"59557","AdditionalData":[{"value":"Deutschland","key":"CountryName"},{"value":"Nordrhein-Westfalen","key":"StateName"},{"value":"Soest","key":"CountyName"}]},"MapReference":{"ReferenceId":"1203937653","SideOfStreet":"neither","CountryId":"20147700","StateId":"20157369","CountyId":"20160789","CityId":"20160837","DistrictId":"20160839"}}},{"Relevance":1.0,"Distance":14.7,"MatchLevel":"houseNumber","MatchQuality":{"Country":1.0,"State":1.0,"County":1.0,"City":1.0,"District":1.0,"Street":[1.0],"HouseNumber":1.0,"PostalCode":1.0},"MatchType":"interpolated","Location":{"LocationId":"NT_Rp0KHT0f9.Vj9xCX7U5q4B_xMD","LocationType":"point","DisplayPosition":{"Latitude":51.67383,"Longitude":8.3415},"MapView":{"TopLeft":{"Latitude":51.6749542,"Longitude":8.3396873},"BottomRight":{"Latitude":51.6727058,"Longitude":8.3433127}},"Address":{"Label":"Kolpingstraße 13, 59555 Lippstadt, Deutschland","Country":"DEU","State":"Nordrhein-Westfalen","County":"Soest","City":"Lippstadt","District":"Lippstadt","Street":"Kolpingstraße","HouseNumber":"13","PostalCode":"59555","AdditionalData":[{"value":"Deutschland","key":"CountryName"},{"value":"Nordrhein-Westfalen","key":"StateName"},{"value":"Soest","key":"CountyName"}]},"MapReference":{"ReferenceId":"1159226415","Spot":0.69,"SideOfStreet":"left","CountryId":"20147700","StateId":"20157369","CountyId":"20160789","CityId":"20160837","DistrictId":"20160839","AddressId":"196689727","RoadLinkId":"465852018"}}},{"Relevance":1.0,"Distance":17.9,"MatchLevel":"street","MatchQuality":{"Country":1.0,"State":1.0,"County":1.0,"City":1.0,"District":1.0,"Street":[1.0],"PostalCode":1.0},"Location":{"LocationId":"NT_lfBveDOvDWQv81StOI2omB_l_1159234653_L","LocationType":"point","DisplayPosition":{"Latitude":51.6741157,"Longitude":8.3417503},"MapView":{"TopLeft":{"Latitude":51.67442,"Longitude":8.34167},"BottomRight":{"Latitude":51.67391,"Longitude":8.34184}},"Address":{"Label":"Carl-Laumanns-Weg, 59555 Lippstadt, Deutschland","Country":"DEU","State":"Nordrhein-Westfalen","County":"Soest","City":"Lippstadt","District":"Lippstadt","Street":"Carl-Laumanns-Weg","PostalCode":"59555","AdditionalData":[{"value":"Deutschland","key":"CountryName"},{"value":"Nordrhein-Westfalen","key":"StateName"},{"value":"Soest","key":"CountyName"}]},"MapReference":{"ReferenceId":"1159234653","Spot":0.38,"SideOfStreet":"left","CountryId":"20147700","StateId":"20157369","CountyId":"20160789","CityId":"20160837","DistrictId":"20160839"}}},{"Relevance":1.0,"Distance":24.3,"MatchLevel":"street","MatchQuality":{"Country":1.0,"State":1.0,"County":1.0,"City":1.0,"District":1.0,"Street":[1.0],"PostalCode":1.0},"Location":{"LocationId":"NT_Rp0KHT0f9.Vj9xCX7U5q4B_l_1159226416_L","LocationType":"point","DisplayPosition":{"Latitude":51.67391,"Longitude":8.34184},"MapView":{"TopLeft":{"Latitude":51.67394,"Longitude":8.34184},"BottomRight":{"Latitude":51.67391,"Longitude":8.34197}},"Address":{"Label":"Kolpingstraße, 59555 Lippstadt, Deutschland","Country":"DEU","State":"Nordrhein-Westfalen","County":"Soest","City":"Lippstadt","District":"Lippstadt","Street":"Kolpingstraße","PostalCode":"59555","AdditionalData":[{"value":"Deutschland","key":"CountryName"},{"value":"Nordrhein-Westfalen","key":"StateName"},{"value":"Soest","key":"CountyName"}]},"MapReference":{"ReferenceId":"1159226416","Spot":0.0,"SideOfStreet":"left","CountryId":"20147700","StateId":"20157369","CountyId":"20160789","CityId":"20160837","DistrictId":"20160839"}}},{"Relevance":1.0,"Distance":32.4,"MatchLevel":"houseNumber","MatchQuality":{"Country":1.0,"State":1.0,"County":1.0,"City":1.0,"District":1.0,"Street":[1.0],"HouseNumber":1.0,"PostalCode":1.0},"MatchType":"interpolated","Location":{"LocationId":"NT_zDalEqTAI18aEQwVuAClcC_yEE","LocationType":"point","DisplayPosition":{"Latitude":51.67385,"Longitude":8.34201},"MapView":{"TopLeft":{"Latitude":51.6749742,"Longitude":8.3401973},"BottomRight":{"Latitude":51.6727258,"Longitude":8.3438227}},"Address":{"Label":"Lichtenbergstraße 2A, 59555 Lippstadt, Deutschland","Country":"DEU","State":"Nordrhein-Westfalen","County":"Soest","City":"Lippstadt","District":"Lippstadt","Street":"Lichtenbergstraße","HouseNumber":"2A","PostalCode":"59555","AdditionalData":[{"value":"Deutschland","key":"CountryName"},{"value":"Nordrhein-Westfalen","key":"StateName"},{"value":"Soest","key":"CountyName"}]},"MapReference":{"ReferenceId":"75368343","Spot":0.89,"SideOfStreet":"left","CountryId":"20147700","StateId":"20157369","CountyId":"20160789","CityId":"20160837","DistrictId":"20160839","AddressId":"743375544","RoadLinkId":"35087584"}}},{"Relevance":1.0,"Distance":32.6,"MatchLevel":"houseNumber","MatchQuality":{"Country":1.0,"State":1.0,"County":1.0,"City":1.0,"District":1.0,"Street":[1.0],"HouseNumber":1.0,"PostalCode":1.0},"MatchType":"interpolated","Location":{"LocationId":"NT_Rp0KHT0f9.Vj9xCX7U5q4B_3A","LocationType":"point","DisplayPosition":{"Latitude":51.67395,"Longitude":8.34204},"MapView":{"TopLeft":{"Latitude":51.6750742,"Longitude":8.3402272},"BottomRight":{"Latitude":51.6728258,"Longitude":8.3438528}},"Address":{"Label":"Kolpingstraße 7, 59555 Lippstadt, Deutschland","Country":"DEU","State":"Nordrhein-Westfalen","County":"Soest","City":"Lippstadt","District":"Lippstadt","Street":"Kolpingstraße","HouseNumber":"7","PostalCode":"59555","AdditionalData":[{"value":"Deutschland","key":"CountryName"},{"value":"Nordrhein-Westfalen","key":"StateName"},{"value":"Soest","key":"CountyName"}]},"MapReference":{"ReferenceId":"75368349","Spot":0.07,"SideOfStreet":"left","CountryId":"20147700","StateId":"20157369","CountyId":"20160789","CityId":"20160837","DistrictId":"20160839","AddressId":"195852263","RoadLinkId":"34932619"}}},{"Relevance":1.0,"Distance":47.4,"MatchLevel":"street","MatchQuality":{"Country":1.0,"State":1.0,"County":1.0,"City":1.0,"District":1.0,"Street":[1.0],"PostalCode":1.0},"Location":{"LocationId":"NT_lfBveDOvDWQv81StOI2omB_l_1159358447_L","LocationType":"point","DisplayPosition":{"Latitude":51.67442,"Longitude":8.34179},"MapView":{"TopLeft":{"Latitude":51.67472,"Longitude":8.34164},"BottomRight":{"Latitude":51.67442,"Longitude":8.34179}},"Address":{"Label":"Carl-Laumanns-Weg, 59555 Lippstadt, Deutschland","Country":"DEU","State":"Nordrhein-Westfalen","County":"Soest","City":"Lippstadt","District":"Lippstadt","Street":"Carl-Laumanns-Weg","PostalCode":"59555","AdditionalData":[{"value":"Deutschland","key":"CountryName"},{"value":"Nordrhein-Westfalen","key":"StateName"},{"value":"Soest","key":"CountyName"}]},"MapReference":{"ReferenceId":"1159358447","Spot":0.0,"SideOfStreet":"left","CountryId":"20147700","StateId":"20157369","CountyId":"20160789","CityId":"20160837","DistrictId":"20160839"}}},{"Relevance":1.0,"Distance":53.2,"MatchLevel":"houseNumber","MatchQuality":{"Country":1.0,"State":1.0,"County":1.0,"City":1.0,"District":1.0,"Street":[1.0],"HouseNumber":1.0,"PostalCode":1.0},"MatchType":"interpolated","Location":{"LocationId":"NT_RU8JRzrnnZZ-naFp3SepOB_xAD","LocationType":"point","DisplayPosition":{"Latitude":51.67465,"Longitude":8.34128},"MapView":{"TopLeft":{"Latitude":51.6757742,"Longitude":8.3394672},"BottomRight":{"Latitude":51.6735258,"Longitude":8.3430928}},"Address":{"Label":"Soeststraße 10, 59555 Lippstadt, Deutschland","Country":"DEU","State":"Nordrhein-Westfalen","County":"Soest","City":"Lippstadt","District":"Lippstadt","Street":"Soeststraße","HouseNumber":"10","PostalCode":"59555","AdditionalData":[{"value":"Deutschland","key":"CountryName"},{"value":"Nordrhein-Westfalen","key":"StateName"},{"value":"Soest","key":"CountyName"}]},"MapReference":{"ReferenceId":"888038287","Spot":0.85,"SideOfStreet":"right","CountryId":"20147700","StateId":"20157369","CountyId":"20160789","CityId":"20160837","DistrictId":"20160839","AddressId":"193551741","RoadLinkId":"254166949"}}},{"Relevance":1.0,"Distance":75.8,"MatchLevel":"houseNumber","MatchQuality":{"Country":1.0,"State":1.0,"County":1.0,"City":1.0,"District":1.0,"Street":[1.0],"HouseNumber":1.0,"PostalCode":1.0},"MatchType":"interpolated","Location":{"LocationId":"NT_Rp0KHT0f9.Vj9xCX7U5q4B_yMD","LocationType":"point","DisplayPosition":{"Latitude":51.67363,"Longitude":8.34064},"MapView":{"TopLeft":{"Latitude":51.6747542,"Longitude":8.3388273},"BottomRight":{"Latitude":51.6725058,"Longitude":8.3424527}},"Address":{"Label":"Kolpingstraße 23, 59555 Lippstadt, Deutschland","Country":"DEU","State":"Nordrhein-Westfalen","County":"Soest","City":"Lippstadt","District":"Lippstadt","Street":"Kolpingstraße","HouseNumber":"23","PostalCode":"59555","AdditionalData":[{"value":"Deutschland","key":"CountryName"},{"value":"Nordrhein-Westfalen","key":"StateName"},{"value":"Soest","key":"CountyName"}]},"MapReference":{"ReferenceId":"75372023","Spot":0.91,"SideOfStreet":"left","CountryId":"20147700","StateId":"20157369","CountyId":"20160789","CityId":"20160837","DistrictId":"20160839","AddressId":"193603024","RoadLinkId":"35680069"}}},{"Relevance":1.0,"Distance":76.4,"MatchLevel":"street","MatchQuality":{"Country":1.0,"State":1.0,"County":1.0,"City":1.0,"District":1.0,"Street":[1.0],"PostalCode":1.0},"Location":{"LocationId":"NT_RU8JRzrnnZZ-naFp3SepOB_l_1159358445_R","LocationType":"point","DisplayPosition":{"Latitude":51.67471,"Longitude":8.34156},"MapView":{"TopLeft":{"Latitude":51.67472,"Longitude":8.34156},"BottomRight":{"Latitude":51.67471,"Longitude":8.34164}},"Address":{"Label":"Soeststraße, 59555 Lippstadt, Deutschland","Country":"DEU","State":"Nordrhein-Westfalen","County":"Soest","City":"Lippstadt","District":"Lippstadt","Street":"Soeststraße","PostalCode":"59555","AdditionalData":[{"value":"Deutschland","key":"CountryName"},{"value":"Nordrhein-Westfalen","key":"StateName"},{"value":"Soest","key":"CountyName"}]},"MapReference":{"ReferenceId":"1159358445","Spot":0.0,"SideOfStreet":"right","CountryId":"20147700","StateId":"20157369","CountyId":"20160789","CityId":"20160837","DistrictId":"20160839"}}}]}]}}