{"Response":{"MetaInfo":{"Timestamp":"2020-03-28T09:57:33.985+0000","NextPageInformation":"2"},"View":[{"_type":"SearchResultsViewType","ViewId":0,"Result":[{"Relevance":1.0,"Distance":0.0,"Direction":0.0,"MatchLevel":"district","MatchQuality":{"Country":1.0,"State":1.0,"County":1.0,"City":1.0,"District":1.0,"PostalCode":1.0},"Location":{"LocationId":"NT_N-ctGhe0zK.oEhVvwjYH4B","LocationType":"point","DisplayPosition":{"Latitude":51.6538456,"Longitude":16.098765},"MapView":{"TopLeft":{"Latitude":51.67617,"Longitude":16.03442},"BottomRight":{"Latitude":51.63785,"Longitude":16.14885}},"Address":{"Label":"Głogów, Woj. Dolnośląskie, Polska","Country":"POL","State":"Woj. Dolnośląskie","County":"Powiat Głogowski","City":"Głogów","District":"Głogów","PostalCode":"67-200","AdditionalData":[{"value":"Polska","key":"CountryName"},{"value":"Woj. Dolnośląskie","key":"StateName"},{"value":"Powiat Głogowski","key":"CountyName"}]},"MapReference":{"ReferenceId":"906954851","SideOfStreet":"neither","CountryId":"20624059","StateId":"20625002","CountyId":"20625037","CityId":"20680061","DistrictId":"20680062"}}},{"Relevance":1.0,"Distance":6.7,"MatchLevel":"houseNumber","MatchQuality":{"Country":1.0,"State":1.0,"County":1.0,"City":1.0,"District":1.0,"Street":[1.0],"HouseNumber":1.0,"PostalCode":1.0},"MatchType":"interpolated","Location":{"LocationId":"NT_p3F59dJkaYUvnOV9DI.BbC_xIE","LocationType":"point","DisplayPosition":{"Latitude":51.65369,"Longitude":16.09887},"MapView":{"TopLeft":{"Latitude":51.6548142,"Longitude":16.0970581},"BottomRight":{"Latitude":51.6525658,"Longitude":16.1006819}},"Address":{"Label":"ulica Sportowa 1B, 67-200 Głogów, Polska","Country":"POL","State":"Woj. Dolnośląskie","County":"Powiat Głogowski","City":"Głogów","District":"Głogów","Street":"ulica Sportowa","HouseNumber":"1B","PostalCode":"67-200","AdditionalData":[{"value":"Polska","key":"CountryName"},{"value":"Woj. Dolnośląskie","key":"StateName"},{"value":"Powiat Głogowski","key":"CountyName"}]},"MapReference":{"ReferenceId":"594138643","Spot":0.53,"SideOfStreet":"left","CountryId":"20624059","StateId":"20625002","CountyId":"20625037","CityId":"20680061","DistrictId":"20680062","AddressId":"701631380","RoadLinkId":"96158981"}}},{"Relevance":1.0,"Distance":42.3,"MatchLevel":"houseNumber","MatchQuality":{"Country":1.0,"State":1.0,"County":1.0,"City":1.0,"District":1.0,"Street":[1.0],"HouseNumber":1.0,"PostalCode":1.0},"MatchType":"interpolated","Location":{"LocationId":"NT_Js5J-O7xQ2INDfJadwkHPD_xA","LocationType":"point","DisplayPosition":{"Latitude":51.65354,"Longitude":16.09818},"MapView":{"TopLeft":{"Latitude":51.6546642,"Longitude":16.0963681},"BottomRight":{"Latitude":51.6524158,"Longitude":16.0999919}},"Address":{"Label":"ulica Żeglarska 1, 67-200 Głogów, Polska","Country":"POL","State":"Woj. Dolnośląskie","County":"Powiat Głogowski","City":"Głogów","District":"Głogów","Street":"ulica Żeglarska","HouseNumber":"1","PostalCode":"67-200","AdditionalData":[{"value":"Polska","key":"CountryName"},{"value":"Woj. Dolnośląskie","key":"StateName"},{"value":"Powiat Głogowski","key":"CountyName"}]},"MapReference":{"ReferenceId":"594138696","Spot":0.82,"SideOfStreet":"right","CountryId":"20624059","StateId":"20625002","CountyId":"20625037","CityId":"20680061","DistrictId":"20680062","AddressId":"210806351","RoadLinkId":"96082251"}}},{"Relevance":1.0,"Distance":61.2,"MatchLevel":"houseNumber","MatchQuality":{"Country":1.0,"State":1.0,"County":1.0,"City":1.0,"District":1.0,"Street":[1.0],"HouseNumber":1.0,"PostalCode":1.0},"MatchType":"interpolated","Location":{"LocationId":"NT_C7tFgWibXU4CRRXaSI3KzC_yA","LocationType":"point","DisplayPosition":{"Latitude":51.65336,"Longitude":16.09952},"MapView":{"TopLeft":{"Latitude":51.6544842,"Longitude":16.0977081},"BottomRight":{"Latitude":51.6522358,"Longitude":16.1013319}},"Address":{"Label":"ulica Olimpijska 2, 67-200 Głogów, Polska","Country":"POL","State":"Woj. Dolnośląskie","County":"Powiat Głogowski","City":"Głogów","District":"Głogów","Street":"ulica Olimpijska","HouseNumber":"2","PostalCode":"67-200","AdditionalData":[{"value":"Polska","key":"CountryName"},{"value":"Woj. Dolnośląskie","key":"StateName"},{"value":"Powiat Głogowski","key":"CountyName"}]},"MapReference":{"ReferenceId":"594138701","Spot":0.52,"SideOfStreet":"left","CountryId":"20624059","StateId":"20625002","CountyId":"20625037","CityId":"20680061","DistrictId":"20680062","AddressId":"210127897","RoadLinkId":"96510289"}}},{"Relevance":1.0,"Distance":82.0,"MatchLevel":"houseNumber","MatchQuality":{"Country":1.0,"State":1.0,"County":1.0,"City":1.0,"District":1.0,"Street":[1.0],"HouseNumber":1.0,"PostalCode":1.0},"MatchType":"interpolated","Location":{"LocationId":"NT_p3F59dJkaYUvnOV9DI.BbC_zEE","LocationType":"point","DisplayPosition":{"Latitude":51.65367,"Longitude":16.09761},"MapView":{"TopLeft":{"Latitude":51.6547942,"Longitude":16.0957981},"BottomRight":{"Latitude":51.6525458,"Longitude":16.0994219}},"Address":{"Label":"ulica Sportowa 3A, 67-200 Głogów, Polska","Country":"POL","State":"Woj. Dolnośląskie","County":"Powiat Głogowski","City":"Głogów","District":"Głogów","Street":"ulica Sportowa","HouseNumber":"3A","PostalCode":"67-200","AdditionalData":[{"value":"Polska","key":"CountryName"},{"value":"Woj. Dolnośląskie","key":"StateName"},{"value":"Powiat Głogowski","key":"CountyName"}]},"MapReference":{"ReferenceId":"594138641","Spot":0.4,"SideOfStreet":"right","CountryId":"20624059","StateId":"20625002","CountyId":"20625037","CityId":"20680061","DistrictId":"20680062","AddressId":"701631377","RoadLinkId":"96131822"}}},{"Relevance":1.0,"Distance":104.8,"MatchLevel":"houseNumber","MatchQuality":{"Country":1.0,"State":1.0,"County":1.0,"City":1.0,"District":1.0,"Street":[1.0],"HouseNumber":1.0,"PostalCode":1.0},"MatchType":"interpolated","Location":{"LocationId":"NT_p3F59dJkaYUvnOV9DI.BbC_xEE","LocationType":"point","DisplayPosition":{"Latitude":51.65372,"Longitude":16.10027},"MapView":{"TopLeft":{"Latitude":51.6548442,"Longitude":16.0984581},"BottomRight":{"Latitude":51.6525958,"Longitude":16.1020819}},"Address":{"Label":"ulica Sportowa 1A, 67-200 Głogów, Polska","Country":"POL","State":"Woj. Dolnośląskie","County":"Powiat Głogowski","City":"Głogów","District":"Głogów","Street":"ulica Sportowa","HouseNumber":"1A","PostalCode":"67-200","AdditionalData":[{"value":"Polska","key":"CountryName"},{"value":"Woj. Dolnośląskie","key":"StateName"},{"value":"Powiat Głogowski","key":"CountyName"}]},"MapReference":{"ReferenceId":"594138647","Spot":0.35,"SideOfStreet":"left","CountryId":"20624059","StateId":"20625002","CountyId":"20625037","CityId":"20680061","DistrictId":"20680062","AddressId":"209523973","RoadLinkId":"95992014"}}},{"Relevance":1.0,"Distance":106.2,"MatchLevel":"houseNumber","MatchQuality":{"Country":1.0,"State":1.0,"County":1.0,"City":1.0,"District":1.0,"Street":[1.0],"HouseNumber":1.0,"PostalCode":1.0},"MatchType":"interpolated","Location":{"LocationId":"NT_3qrYx9KkmQ9Vk-2gzRlnLB_2A","LocationType":"point","DisplayPosition":{"Latitude":51.65295,"Longitude":16.09823},"MapView":{"TopLeft":{"Latitude":51.6540742,"Longitude":16.0964181},"BottomRight":{"Latitude":51.6518258,"Longitude":16.1000419}},"Address":{"Label":"ulica Narciarska 6, 67-200 Głogów, Polska","Country":"POL","State":"Woj. Dolnośląskie","County":"Powiat Głogowski","City":"Głogów","District":"Głogów","Street":"ulica Narciarska","HouseNumber":"6","PostalCode":"67-200","AdditionalData":[{"value":"Polska","key":"CountryName"},{"value":"Woj. Dolnośląskie","key":"StateName"},{"value":"Powiat Głogowski","key":"CountyName"}]},"MapReference":{"ReferenceId":"594138702","Spot":0.0,"SideOfStreet":"left","CountryId":"20624059","StateId":"20625002","CountyId":"20625037","CityId":"20680061","DistrictId":"20680062","AddressId":"211313527","RoadLinkId":"96524391"}}},{"Relevance":1.0,"Distance":114.0,"MatchLevel":"houseNumber","MatchQuality":{"Country":1.0,"State":1.0,"County":1.0,"City":1.0,"District":1.0,"Street":[1.0],"HouseNumber":1.0,"PostalCode":1.0},"MatchType":"interpolated","Location":{"LocationId":"NT_ettiMdakU7YmsMbfJu0djD_zA","LocationType":"point","DisplayPosition":{"Latitude":51.65265,"Longitude":16.09874},"MapView":{"TopLeft":{"Latitude":51.6537742,"Longitude":16.0969281},"BottomRight":{"Latitude":51.6515258,"Longitude":16.1005519}},"Address":{"Label":"ulica Tenisowa 3, 67-200 Głogów, Polska","Country":"POL","State":"Woj. Dolnośląskie","County":"Powiat Głogowski","City":"Głogów","District":"Głogów","Street":"ulica Tenisowa","HouseNumber":"3","PostalCode":"67-200","AdditionalData":[{"value":"Polska","key":"CountryName"},{"value":"Woj. Dolnośląskie","key":"StateName"},{"value":"Powiat Głogowski","key":"CountyName"}]},"MapReference":{"ReferenceId":"594138752","Spot":0.52,"SideOfStreet":"right","CountryId":"20624059","StateId":"20625002","CountyId":"20625037","CityId":"20680061","DistrictId":"20680062","AddressId":"701631324","RoadLinkId":"96080104"}}},{"Relevance":1.0,"Distance":124.5,"MatchLevel":"houseNumber","MatchQuality":{"Country":1.0,"State":1.0,"County":1.0,"City":1.0,"District":1.0,"Street":[1.0],"HouseNumber":1.0,"PostalCode":1.0},"MatchType":"interpolated","Location":{"LocationId":"NT_C7tFgWibXU4CRRXaSI3KzC_yED","LocationType":"point","DisplayPosition":{"Latitude":51.65284,"Longitude":16.09956},"MapView":{"TopLeft":{"Latitude":51.6539642,"Longitude":16.0977481},"BottomRight":{"Latitude":51.6517158,"Longitude":16.1013719}},"Address":{"Label":"ulica Olimpijska 21, 67-200 Głogów, Polska","Country":"POL","State":"Woj. Dolnośląskie","County":"Powiat Głogowski","City":"Głogów","District":"Głogów","Street":"ulica Olimpijska","HouseNumber":"21","PostalCode":"67-200","AdditionalData":[{"value":"Polska","key":"CountryName"},{"value":"Woj. Dolnośląskie","key":"StateName"},{"value":"Powiat Głogowski","key":"CountyName"}]},"MapReference":{"ReferenceId":"594138751","Spot":0.64,"SideOfStreet":"right","CountryId":"20624059","StateId":"20625002","CountyId":"20625037","CityId":"20680061","DistrictId":"20680062","AddressId":"701631335","RoadLinkId":"96481516"}}},{"Relevance":1.0,"Distance":133.4,"MatchLevel":"houseNumber","MatchQuality":{"Country":1.0,"State":1.0,"County":1.0,"City":1.0,"District":1.0,"Street":[1.0],"HouseNumber":1.0,"PostalCode":1.0},"MatchType":"interpolated","Location":{"LocationId":"NT_2uCdOOCHwlUdNPa6yC6C9B_xA","LocationType":"point","DisplayPosition":{"Latitude":51.653,"Longitude":16.10035},"MapView":{"TopLeft":{"Latitude":51.6541242,"Longitude":16.0985381},"BottomRight":{"Latitude":51.6518758,"Longitude":16.1021619}},"Address":{"Label":"ulica Gimnastyczna 1, 67-200 Głogów, Polska","Country":"POL","State":"Woj. Dolnośląskie","County":"Powiat Głogowski","City":"Głogów","District":"Głogów","Street":"ulica Gimnastyczna","HouseNumber":"1","PostalCode":"67-200","AdditionalData":[{"value":"Polska","key":"CountryName"},{"value":"Woj. Dolnośląskie","key":"StateName"},{"value":"Powiat Głogowski","key":"CountyName"}]},"MapReference":{"ReferenceId":"594138709","Spot":0.37,"SideOfStreet":"left","CountryId":"20624059","StateId":"20625002","CountyId":"20625037","CityId":"20680061","DistrictId":"20680062","AddressId":"211213157","RoadLinkId":"96253703"}}}]}]}}