{"Response":{"MetaInfo":{"Timestamp":"2020-03-28T11:01:37.256+0000","NextPageInformation":"2"},"View":[{"_type":"SearchResultsViewType","ViewId":0,"Result":[{"Relevance":1.0,"Distance":0.0,"Direction":0.0,"MatchLevel":"district","MatchQuality":{"Country":1.0,"State":1.0,"County":1.0,"City":1.0,"District":1.0,"PostalCode":1.0},"Location":{"LocationId":"NT_spXaLpx.FGOgQMBUJQi6TD","LocationType":"point","DisplayPosition":{"Latitude":51.6570924,"Longitude":6.9563309},"MapView":{"TopLeft":{"Latitude":51.6658,"Longitude":6.93635},"BottomRight":{"Latitude":51.64406,"Longitude":7.026}},"Address":{"Label":"Dorsten, Nordrhein-Westfalen, Deutschland","Country":"DEU","State":"Nordrhein-Westfalen","County":"Recklinghausen","City":"Dorsten","District":"Dorsten","PostalCode":"46282","AdditionalData":[{"value":"Deutschland","key":"CountryName"},{"value":"Nordrhein-Westfalen","key":"StateName"},{"value":"Recklinghausen","key":"CountyName"}]},"MapReference":{"ReferenceId":"1198876984","SideOfStreet":"neither","CountryId":"20147700","StateId":"20157369","CountyId":"20159272","CityId":"20159287","DistrictId":"20159298"}}},{"Relevance":1.0,"Distance":18.5,"MatchLevel":"houseNumber","MatchQuality":{"Country":1.0,"State":1.0,"County":1.0,"City":1.0,"District":1.0,"Street":[1.0],"HouseNumber":1.0,"PostalCode":1.0},"MatchType":"interpolated","Location":{"LocationId":"NT_FAzayEt3twLh4xpSMqevxA_xA","LocationType":"point","DisplayPosition":{"Latitude":51.65783,"Longitude":6.95625},"MapView":{"TopLeft":{"Latitude":51.6589542,"Longitude":6.9544379},"BottomRight":{"Latitude":51.6567058,"Longitude":6.9580621}},"Address":{"Label":"Pfarrer-Wilhelm-Schmitz-Straße 1, 46282 Dorsten, Deutschland","Country":"DEU","State":"Nordrhein-Westfalen","County":"Recklinghausen","City":"Dorsten","District":"Dorsten","Street":"Pfarrer-Wilhelm-Schmitz-Straße","HouseNumber":"1","PostalCode":"46282","AdditionalData":[{"value":"Deutschland","key":"CountryName"},{"value":"Nordrhein-Westfalen","key":"StateName"},{"value":"Recklinghausen","key":"CountyName"}]},"MapReference":{"ReferenceId":"1122409942","Spot":0.44,"SideOfStreet":"left","CountryId":"20147700","StateId":"20157369","CountyId":"20159272","CityId":"20159287","DistrictId":"20159298","AddressId":"249463809","RoadLinkId":"432645136"}}},{"Relevance":1.0,"Distance":81.1,"MatchLevel":"street","MatchQuality":{"Country":1.0,"State":1.0,"County":1.0,"City":1.0,"District":1.0,"Street":[1.0],"PostalCode":1.0},"Location":{"LocationId":"NT_Ct9FsrU4RAX3k4I2xG8jtC_l_51491353_L","LocationType":"point","DisplayPosition":{"Latitude":51.6568267,"Longitude":6.957426},"MapView":{"TopLeft":{"Latitude":51.65775,"Longitude":6.95724},"BottomRight":{"Latitude":51.65606,"Longitude":6.95765}},"Address":{"Label":"Iltisweg, 46282 Dorsten, Deutschland","Country":"DEU","State":"Nordrhein-Westfalen","County":"Recklinghausen","City":"Dorsten","District":"Dorsten","Street":"Iltisweg","PostalCode":"46282","AdditionalData":[{"value":"Deutschland","key":"CountryName"},{"value":"Nordrhein-Westfalen","key":"StateName"},{"value":"Recklinghausen","key":"CountyName"}]},"MapReference":{"ReferenceId":"51491353","Spot":0.45,"SideOfStreet":"left","CountryId":"20147700","StateId":"20157369","CountyId":"20159272","CityId":"20159287","DistrictId":"20159298"}}},{"Relevance":1.0,"Distance":86.2,"MatchLevel":"street","MatchQuality":{"Country":1.0,"State":1.0,"County":1.0,"City":1.0,"District":1.0,"Street":[1.0],"PostalCode":1.0},"Location":{"LocationId":"NT_FAzayEt3twLh4xpSMqevxA_l_1122409941_L","LocationType":"point","DisplayPosition":{"Latitude":51.6578,"Longitude":6.95684},"MapView":{"TopLeft":{"Latitude":51.6578,"Longitude":6.95684},"BottomRight":{"Latitude":51.65775,"Longitude":6.95765}},"Address":{"Label":"Pfarrer-Wilhelm-Schmitz-Straße, 46282 Dorsten, Deutschland","Country":"DEU","State":"Nordrhein-Westfalen","County":"Recklinghausen","City":"Dorsten","District":"Dorsten","Street":"Pfarrer-Wilhelm-Schmitz-Straße","PostalCode":"46282","AdditionalData":[{"value":"Deutschland","key":"CountryName"},{"value":"Nordrhein-Westfalen","key":"StateName"},{"value":"Recklinghausen","key":"CountyName"}]},"MapReference":{"ReferenceId":"1122409941","Spot":1.0,"SideOfStreet":"left","CountryId":"20147700","StateId":"20157369","CountyId":"20159272","CityId":"20159287","DistrictId":"20159298"}}},{"Relevance":1.0,"Distance":105.0,"MatchLevel":"street","MatchQuality":{"Country":1.0,"State":1.0,"County":1.0,"City":1.0,"District":1.0,"Street":[1.0],"PostalCode":1.0},"Location":{"LocationId":"NT_FAzayEt3twLh4xpSMqevxA_l_51491354_L","LocationType":"point","DisplayPosition":{"Latitude":51.65788,"Longitude":6.95549},"MapView":{"TopLeft":{"Latitude":51.65789,"Longitude":6.95517},"BottomRight":{"Latitude":51.65788,"Longitude":6.95549}},"Address":{"Label":"Pfarrer-Wilhelm-Schmitz-Straße, 46282 Dorsten, Deutschland","Country":"DEU","State":"Nordrhein-Westfalen","County":"Recklinghausen","City":"Dorsten","District":"Dorsten","Street":"Pfarrer-Wilhelm-Schmitz-Straße","PostalCode":"46282","AdditionalData":[{"value":"Deutschland","key":"CountryName"},{"value":"Nordrhein-Westfalen","key":"StateName"},{"value":"Recklinghausen","key":"CountyName"}]},"MapReference":{"ReferenceId":"51491354","Spot":0.0,"SideOfStreet":"left","CountryId":"20147700","StateId":"20157369","CountyId":"20159272","CityId":"20159287","DistrictId":"20159298"}}},{"Relevance":1.0,"Distance":119.5,"MatchLevel":"street","MatchQuality":{"Country":1.0,"State":1.0,"County":1.0,"City":1.0,"District":1.0,"Street":[1.0],"PostalCode":1.0},"Location":{"LocationId":"NT_FAzayEt3twLh4xpSMqevxA_l_51491378_L","LocationType":"point","DisplayPosition":{"Latitude":51.65789,"Longitude":6.95517},"MapView":{"TopLeft":{"Latitude":51.65804,"Longitude":6.95456},"BottomRight":{"Latitude":51.65789,"Longitude":6.95517}},"Address":{"Label":"Pfarrer-Wilhelm-Schmitz-Straße, 46282 Dorsten, Deutschland","Country":"DEU","State":"Nordrhein-Westfalen","County":"Recklinghausen","City":"Dorsten","District":"Dorsten","Street":"Pfarrer-Wilhelm-Schmitz-Straße","PostalCode":"46282","AdditionalData":[{"value":"Deutschland","key":"CountryName"},{"value":"Nordrhein-Westfalen","key":"StateName"},{"value":"Recklinghausen","key":"CountyName"}]},"MapReference":{"ReferenceId":"51491378","Spot":0.0,"SideOfStreet":"left","CountryId":"20147700","StateId":"20157369","CountyId":"20159272","CityId":"20159287","DistrictId":"20159298"}}},{"Relevance":1.0,"Distance":124.3,"MatchLevel":"houseNumber","MatchQuality":{"Country":1.0,"State":1.0,"County":1.0,"City":1.0,"District":1.0,"Street":[1.0],"HouseNumber":1.0,"PostalCode":1.0},"MatchType":"interpolated","Location":{"LocationId":"NT_XdHDGBD375Xf9XWqMRCw.C_zMTQ","LocationType":"point","DisplayPosition":{"Latitude":51.65712,"Longitude":6.95453},"MapView":{"TopLeft":{"Latitude":51.6582442,"Longitude":6.9527179},"BottomRight":{"Latitude":51.6559958,"Longitude":6.9563421}},"Address":{"Label":"Am Beisenbusch 33A, 46282 Dorsten, Deutschland","Country":"DEU","State":"Nordrhein-Westfalen","County":"Recklinghausen","City":"Dorsten","District":"Dorsten","Street":"Am Beisenbusch","HouseNumber":"33A","PostalCode":"46282","AdditionalData":[{"value":"Deutschland","key":"CountryName"},{"value":"Nordrhein-Westfalen","key":"StateName"},{"value":"Recklinghausen","key":"CountyName"}]},"MapReference":{"ReferenceId":"51334561","Spot":0.66,"SideOfStreet":"left","CountryId":"20147700","StateId":"20157369","CountyId":"20159272","CityId":"20159287","DistrictId":"20159298","AddressId":"192529787","RoadLinkId":"35637558"}}},{"Relevance":1.0,"Distance":138.0,"MatchLevel":"houseNumber","MatchQuality":{"Country":1.0,"State":1.0,"County":1.0,"City":1.0,"District":1.0,"Street":[1.0],"HouseNumber":1.0,"PostalCode":1.0},"MatchType":"interpolated","Location":{"LocationId":"NT_jNQoDeRZb9XoZ8VMlAw5VC_xYD","LocationType":"point","DisplayPosition":{"Latitude":51.65618,"Longitude":6.95795},"MapView":{"TopLeft":{"Latitude":51.6573042,"Longitude":6.956138},"BottomRight":{"Latitude":51.6550558,"Longitude":6.959762}},"Address":{"Label":"Biberweg 16, 46282 Dorsten, Deutschland","Country":"DEU","State":"Nordrhein-Westfalen","County":"Recklinghausen","City":"Dorsten","District":"Dorsten","Street":"Biberweg","HouseNumber":"16","PostalCode":"46282","AdditionalData":[{"value":"Deutschland","key":"CountryName"},{"value":"Nordrhein-Westfalen","key":"StateName"},{"value":"Recklinghausen","key":"CountyName"}]},"MapReference":{"ReferenceId":"51334623","Spot":1.0,"SideOfStreet":"right","CountryId":"20147700","StateId":"20157369","CountyId":"20159272","CityId":"20159287","DistrictId":"20159298","AddressId":"249408383","RoadLinkId":"35555744"}}},{"Relevance":1.0,"Distance":143.8,"MatchLevel":"houseNumber","MatchQuality":{"Country":1.0,"State":1.0,"County":1.0,"City":1.0,"District":1.0,"Street":[1.0],"HouseNumber":1.0,"PostalCode":1.0},"MatchType":"interpolated","Location":{"LocationId":"NT_c0aEKDLeW89vPz7MQl26KC_xID","LocationType":"point","DisplayPosition":{"Latitude":51.65592,"Longitude":6.95721},"MapView":{"TopLeft":{"Latitude":51.6570442,"Longitude":6.955398},"BottomRight":{"Latitude":51.6547958,"Longitude":6.959022}},"Address":{"Label":"Kolkstraße 12, 46282 Dorsten, Deutschland","Country":"DEU","State":"Nordrhein-Westfalen","County":"Recklinghausen","City":"Dorsten","District":"Dorsten","Street":"Kolkstraße","HouseNumber":"12","PostalCode":"46282","AdditionalData":[{"value":"Deutschland","key":"CountryName"},{"value":"Nordrhein-Westfalen","key":"StateName"},{"value":"Recklinghausen","key":"CountyName"}]},"MapReference":{"ReferenceId":"51335085","Spot":0.72,"SideOfStreet":"right","CountryId":"20147700","StateId":"20157369","CountyId":"20159272","CityId":"20159287","DistrictId":"20159298","AddressId":"672645076","RoadLinkId":"35767600"}}},{"Relevance":1.0,"Distance":143.9,"MatchLevel":"houseNumber","MatchQuality":{"Country":1.0,"State":1.0,"County":1.0,"City":1.0,"District":1.0,"Street":[1.0],"HouseNumber":1.0,"PostalCode":1.0},"MatchType":"interpolated","Location":{"LocationId":"NT_Ct9FsrU4RAX3k4I2xG8jtC_3A","LocationType":"point","DisplayPosition":{"Latitude":51.65814,"Longitude":6.95775},"MapView":{"TopLeft":{"Latitude":51.6592642,"Longitude":6.9559379},"BottomRight":{"Latitude":51.6570158,"Longitude":6.9595621}},"Address":{"Label":"Iltisweg 7, 46282 Dorsten, Deutschland","Country":"DEU","State":"Nordrhein-Westfalen","County":"Recklinghausen","City":"Dorsten","District":"Dorsten","Street":"Iltisweg","HouseNumber":"7","PostalCode":"46282","AdditionalData":[{"value":"Deutschland","key":"CountryName"},{"value":"Nordrhein-Westfalen","key":"StateName"},{"value":"Recklinghausen","key":"CountyName"}]},"MapReference":{"ReferenceId":"51334881","Spot":0.24,"SideOfStreet":"left","CountryId":"20147700","StateId":"20157369","CountyId":"20159272","CityId":"20159287","DistrictId":"20159298","AddressId":"195812369","RoadLinkId":"35584577"}}}]}]}}