{"Response":{"MetaInfo":{"Timestamp":"2020-03-28T10:36:22.315+0000","NextPageInformation":"2"},"View":[{"_type":"SearchResultsViewType","ViewId":0,"Result":[{"Relevance":1.0,"Distance":0.0,"Direction":0.0,"MatchLevel":"district","MatchQuality":{"Country":1.0,"State":1.0,"County":1.0,"City":1.0,"District":1.0,"PostalCode":1.0},"Location":{"LocationId":"NT_r9qERQDsnAjjo68qb4e2ZB","LocationType":"point","DisplayPosition":{"Latitude":51.7646425,"Longitude":-0.2274113},"MapView":{"TopLeft":{"Latitude":51.77897,"Longitude":-0.25948},"BottomRight":{"Latitude":51.73165,"Longitude":-0.20688}},"Address":{"Label":"Hatfield, England, United Kingdom","Country":"GBR","State":"England","County":"Hertfordshire","City":"Hatfield","District":"Hatfield","PostalCode":"AL10 0","AdditionalData":[{"value":"United Kingdom","key":"CountryName"},{"value":"England","key":"StateName"},{"value":"Hertfordshire","key":"CountyName"}]},"MapReference":{"ReferenceId":"1062418515","SideOfStreet":"neither","StateId":"20248595","CountyId":"20336428","CityId":"20336507","DistrictId":"20336508"}}},{"Relevance":1.0,"Distance":24.8,"MatchLevel":"houseNumber","MatchQuality":{"Country":1.0,"State":1.0,"County":1.0,"City":1.0,"District":1.0,"Street":[1.0],"HouseNumber":1.0,"PostalCode":1.0},"MatchType":"interpolated","Location":{"LocationId":"NT_Eb4.ssj.J6a839uh1pobHD_l_780276143_L_xQD","LocationType":"point","DisplayPosition":{"Latitude":51.76436,"Longitude":-0.22709},"MapView":{"TopLeft":{"Latitude":51.7654842,"Longitude":-0.2289063},"BottomRight":{"Latitude":51.7632359,"Longitude":-0.2252736}},"Address":{"Label":"14 The Common, Hatfield, AL10 0NA, United Kingdom","Country":"GBR","State":"England","County":"Hertfordshire","City":"Hatfield","District":"Hatfield","Street":"The Common","HouseNumber":"14","PostalCode":"AL10 0NA","AdditionalData":[{"value":"United Kingdom","key":"CountryName"},{"value":"England","key":"StateName"},{"value":"Hertfordshire","key":"CountyName"}]},"MapReference":{"ReferenceId":"780276143","Spot":0.26,"SideOfStreet":"left","StateId":"20248595","CountyId":"20336428","CityId":"20336507","DistrictId":"20336508"}}},{"Relevance":1.0,"Distance":32.4,"MatchLevel":"houseNumber","MatchQuality":{"Country":1.0,"State":1.0,"County":1.0,"City":1.0,"District":1.0,"Street":[1.0],"HouseNumber":1.0,"PostalCode":1.0},"MatchType":"interpolated","Location":{"LocationId":"NT_tRLCJVGRC27ftez9jCEVBD_l_25958228_R_5ID","LocationType":"point","DisplayPosition":{"Latitude":51.7650007,"Longitude":-0.2277619},"MapView":{"TopLeft":{"Latitude":51.7661249,"Longitude":-0.2295783},"BottomRight":{"Latitude":51.7638766,"Longitude":-0.2259455}},"Address":{"Label":"92 Stockbreach Road, Hatfield, AL10 0BE, United Kingdom","Country":"GBR","State":"England","County":"Hertfordshire","City":"Hatfield","District":"Hatfield","Street":"Stockbreach Road","HouseNumber":"92","PostalCode":"AL10 0BE","AdditionalData":[{"value":"United Kingdom","key":"CountryName"},{"value":"England","key":"StateName"},{"value":"Hertfordshire","key":"CountyName"}]},"MapReference":{"ReferenceId":"25958228","Spot":0.62,"SideOfStreet":"right","StateId":"20248595","CountyId":"20336428","CityId":"20336507","DistrictId":"20336508"}}},{"Relevance":1.0,"Distance":35.3,"MatchLevel":"postalCode","MatchQuality":{"PostalCode":1.0},"MatchType":"interpolated","Location":{"LocationId":"NT_Eb4.ssj.J6a839uh1pobHD_l_780276143_L_xQD","LocationType":"point","DisplayPosition":{"Latitude":51.76448,"Longitude":-0.22697},"MapView":{"TopLeft":{"Latitude":51.7734732,"Longitude":-0.2415011},"BottomRight":{"Latitude":51.7554868,"Longitude":-0.2124389}},"Address":{"Label":"AL10 0NL, Hatfield, England, United Kingdom","Country":"GBR","State":"England","County":"Hertfordshire","City":"Hatfield","PostalCode":"AL10 0NL","AdditionalData":[{"value":"United Kingdom","key":"CountryName"},{"value":"England","key":"StateName"},{"value":"Hertfordshire","key":"CountyName"}]},"MapReference":{"ReferenceId":"780276143","Spot":0.26,"SideOfStreet":"neither","StateId":"20248595","CountyId":"20336428","CityId":"20336507"}}},{"Relevance":1.0,"Distance":39.7,"MatchLevel":"houseNumber","MatchQuality":{"Country":1.0,"State":1.0,"County":1.0,"City":1.0,"District":1.0,"Street":[1.0],"HouseNumber":1.0,"PostalCode":1.0},"MatchType":"interpolated","Location":{"LocationId":"NT_Eb4.ssj.J6a839uh1pobHD_l_780276071_L_xUD","LocationType":"point","DisplayPosition":{"Latitude":51.764172,"Longitude":-0.227522},"MapView":{"TopLeft":{"Latitude":51.7652962,"Longitude":-0.2293384},"BottomRight":{"Latitude":51.7630479,"Longitude":-0.2257056}},"Address":{"Label":"15 The Common, Hatfield, AL10 0LZ, United Kingdom","Country":"GBR","State":"England","County":"Hertfordshire","City":"Hatfield","District":"Hatfield","Street":"The Common","HouseNumber":"15","PostalCode":"AL10 0LZ","AdditionalData":[{"value":"United Kingdom","key":"CountryName"},{"value":"England","key":"StateName"},{"value":"Hertfordshire","key":"CountyName"}]},"MapReference":{"ReferenceId":"780276071","Spot":0.78,"SideOfStreet":"left","StateId":"20248595","CountyId":"20336428","CityId":"20336507","DistrictId":"20336508"}}},{"Relevance":1.0,"Distance":48.2,"MatchLevel":"postalCode","MatchQuality":{"PostalCode":1.0},"MatchType":"interpolated","Location":{"LocationId":"NT_tRLCJVGRC27ftez9jCEVBD_l_25958228_R_5ID","LocationType":"point","DisplayPosition":{"Latitude":51.76482,"Longitude":-0.22805},"MapView":{"TopLeft":{"Latitude":51.7738132,"Longitude":-0.2425812},"BottomRight":{"Latitude":51.7558268,"Longitude":-0.2135188}},"Address":{"Label":"AL10 0BE, Hatfield, England, United Kingdom","Country":"GBR","State":"England","County":"Hertfordshire","City":"Hatfield","PostalCode":"AL10 0BE","AdditionalData":[{"value":"United Kingdom","key":"CountryName"},{"value":"England","key":"StateName"},{"value":"Hertfordshire","key":"CountyName"}]},"MapReference":{"ReferenceId":"25958228","Spot":0.62,"SideOfStreet":"neither","StateId":"20248595","CountyId":"20336428","CityId":"20336507"}}},{"Relevance":1.0,"Distance":53.6,"MatchLevel":"postalCode","MatchQuality":{"PostalCode":1.0},"MatchType":"interpolated","Location":{"LocationId":"NT_Eb4.ssj.J6a839uh1pobHD_l_780276071_L_xUD","LocationType":"point","DisplayPosition":{"Latitude":51.76418,"Longitude":-0.22763},"MapView":{"TopLeft":{"Latitude":51.7731732,"Longitude":-0.242161},"BottomRight":{"Latitude":51.7551868,"Longitude":-0.213099}},"Address":{"Label":"AL10 0ND, Hatfield, England, United Kingdom","Country":"GBR","State":"England","County":"Hertfordshire","City":"Hatfield","PostalCode":"AL10 0ND","AdditionalData":[{"value":"United Kingdom","key":"CountryName"},{"value":"England","key":"StateName"},{"value":"Hertfordshire","key":"CountyName"}]},"MapReference":{"ReferenceId":"780276071","Spot":0.78,"SideOfStreet":"neither","StateId":"20248595","CountyId":"20336428","CityId":"20336507"}}},{"Relevance":1.0,"Distance":57.5,"MatchLevel":"street","MatchQuality":{"Country":1.0,"State":1.0,"County":1.0,"City":1.0,"District":1.0,"PostalCode":1.0},"Location":{"LocationId":"NT_q-KANMTNNJl2LBTMKh6mjB_l_780276145_L","LocationType":"point","DisplayPosition":{"Latitude":51.76459,"Longitude":-0.22658},"MapView":{"TopLeft":{"Latitude":51.76459,"Longitude":-0.22658},"BottomRight":{"Latitude":51.76439,"Longitude":-0.22639}},"Address":{"Label":"Hatfield, AL10 1, United Kingdom","Country":"GBR","State":"England","County":"Hertfordshire","City":"Hatfield","District":"Hatfield","PostalCode":"AL10 1","AdditionalData":[{"value":"United Kingdom","key":"CountryName"},{"value":"England","key":"StateName"},{"value":"Hertfordshire","key":"CountyName"}]},"MapReference":{"ReferenceId":"780276145","Spot":1.0,"SideOfStreet":"left","StateId":"20248595","CountyId":"20336428","CityId":"20336507","DistrictId":"20336508"}}},{"Relevance":1.0,"Distance":58.3,"MatchLevel":"houseNumber","MatchQuality":{"Country":1.0,"State":1.0,"County":1.0,"City":1.0,"District":1.0,"Street":[1.0],"HouseNumber":1.0,"PostalCode":1.0},"MatchType":"interpolated","Location":{"LocationId":"NT_yBrVGVaiuK2myI-K58lC0B_l_780276073_R_xA","LocationType":"point","DisplayPosition":{"Latitude":51.764097,"Longitude":-0.2271147},"MapView":{"TopLeft":{"Latitude":51.7652211,"Longitude":-0.228931},"BottomRight":{"Latitude":51.7629728,"Longitude":-0.2252983}},"Address":{"Label":"1 Robin Hood Lane, Hatfield, AL10 0LP, United Kingdom","Country":"GBR","State":"England","County":"Hertfordshire","City":"Hatfield","District":"Hatfield","Street":"Robin Hood Lane","HouseNumber":"1","PostalCode":"AL10 0LP","AdditionalData":[{"value":"United Kingdom","key":"CountryName"},{"value":"England","key":"StateName"},{"value":"Hertfordshire","key":"CountyName"}]},"MapReference":{"ReferenceId":"780276073","Spot":0.47,"SideOfStreet":"right","StateId":"20248595","CountyId":"20336428","CityId":"20336507","DistrictId":"20336508"}}},{"Relevance":1.0,"Distance":59.3,"MatchLevel":"postalCode","MatchQuality":{"PostalCode":1.0},"MatchType":"interpolated","Location":{"LocationId":"NT_yBrVGVaiuK2myI-K58lC0B_l_780276073_R_xA","LocationType":"point","DisplayPosition":{"Latitude":51.76415,"Longitude":-0.22708},"MapView":{"TopLeft":{"Latitude":51.7731432,"Longitude":-0.241611},"BottomRight":{"Latitude":51.7551568,"Longitude":-0.212549}},"Address":{"Label":"AL10 0LP, Hatfield, England, United Kingdom","Country":"GBR","State":"England","County":"Hertfordshire","City":"Hatfield","PostalCode":"AL10 0LP","AdditionalData":[{"value":"United Kingdom","key":"CountryName"},{"value":"England","key":"StateName"},{"value":"Hertfordshire","key":"CountyName"}]},"MapReference":{"ReferenceId":"780276073","Spot":0.47,"SideOfStreet":"neither","StateId":"20248595","CountyId":"20336428","CityId":"20336507"}}}]}]}}