{"Response":{"MetaInfo":{"Timestamp":"2020-03-28T11:55:10.907+0000","NextPageInformation":"2"},"View":[{"_type":"SearchResultsViewType","ViewId":0,"Result":[{"Relevance":1.0,"Distance":0.0,"Direction":0.0,"MatchLevel":"district","MatchQuality":{"Country":1.0,"State":1.0,"County":1.0,"City":1.0,"District":1.0,"PostalCode":1.0},"Location":{"LocationId":"NT_Xpoxk52mL0xTBQzlwZWkZD","LocationType":"point","DisplayPosition":{"Latitude":51.7532201,"Longitude":-0.3397618},"MapView":{"TopLeft":{"Latitude":51.77511,"Longitude":-0.36791},"BottomRight":{"Latitude":51.72976,"Longitude":-0.27177}},"Address":{"Label":"St Albans, England, United Kingdom","Country":"GBR","State":"England","County":"Hertfordshire","City":"St Albans","District":"St Albans","PostalCode":"AL1 3","AdditionalData":[{"value":"United Kingdom","key":"CountryName"},{"value":"England","key":"StateName"},{"value":"Hertfordshire","key":"CountyName"}]},"MapReference":{"ReferenceId":"836021684","SideOfStreet":"neither","StateId":"20248595","CountyId":"20336428","CityId":"20336631","DistrictId":"20336632"}}},{"Relevance":1.0,"Distance":9.5,"MatchLevel":"houseNumber","MatchQuality":{"Country":1.0,"State":1.0,"County":1.0,"City":1.0,"District":1.0,"Street":[1.0],"HouseNumber":1.0,"PostalCode":1.0},"MatchType":"interpolated","Location":{"LocationId":"NT_Bd6z2qj7-Xn.pB8nCyjViD_l_25785945_L_xA","LocationType":"point","DisplayPosition":{"Latitude":51.75318,"Longitude":-0.33964},"MapView":{"TopLeft":{"Latitude":51.7543042,"Longitude":-0.341456},"BottomRight":{"Latitude":51.7520559,"Longitude":-0.3378241}},"Address":{"Label":"1 Russell Avenue, St Albans, AL3 5EU, United Kingdom","Country":"GBR","State":"England","County":"Hertfordshire","City":"St Albans","District":"St Albans","Street":"Russell Avenue","HouseNumber":"1","PostalCode":"AL3 5EU","AdditionalData":[{"value":"United Kingdom","key":"CountryName"},{"value":"England","key":"StateName"},{"value":"Hertfordshire","key":"CountyName"}]},"MapReference":{"ReferenceId":"25785945","Spot":0.21,"SideOfStreet":"left","StateId":"20248595","CountyId":"20336428","CityId":"20336631","DistrictId":"20336632"}}},{"Relevance":1.0,"Distance":15.1,"MatchLevel":"postalCode","MatchQuality":{"PostalCode":1.0},"MatchType":"interpolated","Location":{"LocationId":"NT_Bd6z2qj7-Xn.pB8nCyjViD_l_25785945_L_xA","LocationType":"point","DisplayPosition":{"Latitude":51.7533,"Longitude":-0.33994},"MapView":{"TopLeft":{"Latitude":51.7622932,"Longitude":-0.3544675},"BottomRight":{"Latitude":51.7443068,"Longitude":-0.3254125}},"Address":{"Label":"AL3 5EU, St Albans, England, United Kingdom","Country":"GBR","State":"England","County":"Hertfordshire","City":"St Albans","PostalCode":"AL3 5EU","AdditionalData":[{"value":"United Kingdom","key":"CountryName"},{"value":"England","key":"StateName"},{"value":"Hertfordshire","key":"CountyName"}]},"MapReference":{"ReferenceId":"25785945","Spot":0.21,"SideOfStreet":"neither","StateId":"20248595","CountyId":"20336428","CityId":"20336631"}}},{"Relevance":1.0,"Distance":23.7,"MatchLevel":"street","MatchQuality":{"Country":1.0,"State":1.0,"County":1.0,"City":1.0,"District":1.0,"Street":[1.0],"PostalCode":1.0},"Location":{"LocationId":"NT_W1JgEJqtPxlTnkkVfs9PlB_l_25785944_L","LocationType":"point","DisplayPosition":{"Latitude":51.75313,"Longitude":-0.33945},"MapView":{"TopLeft":{"Latitude":51.75411,"Longitude":-0.33945},"BottomRight":{"Latitude":51.75313,"Longitude":-0.33821}},"Address":{"Label":"Drovers Way, St Albans, AL3 5, United Kingdom","Country":"GBR","State":"England","County":"Hertfordshire","City":"St Albans","District":"St Albans","Street":"Drovers Way","PostalCode":"AL3 5","AdditionalData":[{"value":"United Kingdom","key":"CountryName"},{"value":"England","key":"StateName"},{"value":"Hertfordshire","key":"CountyName"}]},"MapReference":{"ReferenceId":"25785944","Spot":0.0,"SideOfStreet":"left","StateId":"20248595","CountyId":"20336428","CityId":"20336631","DistrictId":"20336632"}}},{"Relevance":1.0,"Distance":33.0,"MatchLevel":"houseNumber","MatchQuality":{"Country":1.0,"State":1.0,"County":1.0,"City":1.0,"District":1.0,"Street":[1.0],"HouseNumber":1.0,"PostalCode":1.0},"MatchType":"interpolated","Location":{"LocationId":"NT_y96tKgxKsToefBlT2xuMkB_l_25786175_R_yQD","LocationType":"point","DisplayPosition":{"Latitude":51.7527946,"Longitude":-0.3398324},"MapView":{"TopLeft":{"Latitude":51.7539188,"Longitude":-0.3416484},"BottomRight":{"Latitude":51.7516705,"Longitude":-0.3380165}},"Address":{"Label":"24 Spencer Street, St Albans, AL3 5, United Kingdom","Country":"GBR","State":"England","County":"Hertfordshire","City":"St Albans","District":"St Albans","Street":"Spencer Street","HouseNumber":"24","PostalCode":"AL3 5","AdditionalData":[{"value":"United Kingdom","key":"CountryName"},{"value":"England","key":"StateName"},{"value":"Hertfordshire","key":"CountyName"}]},"MapReference":{"ReferenceId":"25786175","Spot":0.77,"SideOfStreet":"right","StateId":"20248595","CountyId":"20336428","CityId":"20336631","DistrictId":"20336632"}}},{"Relevance":1.0,"Distance":33.5,"MatchLevel":"houseNumber","MatchQuality":{"Country":1.0,"State":1.0,"County":1.0,"City":1.0,"District":1.0,"Street":[1.0],"HouseNumber":1.0,"PostalCode":1.0},"MatchType":"interpolated","Location":{"LocationId":"NT_T9NMvCli7WQWI0y8zlHI9A_l_25785995_R_yYD","LocationType":"point","DisplayPosition":{"Latitude":51.7529801,"Longitude":-0.3402602},"MapView":{"TopLeft":{"Latitude":51.7541042,"Longitude":-0.3420762},"BottomRight":{"Latitude":51.7518559,"Longitude":-0.3384443}},"Address":{"Label":"26 Spencer Street, St Albans, AL3 4, United Kingdom","Country":"GBR","State":"England","County":"Hertfordshire","City":"St Albans","District":"St Albans","Street":"Spencer Street","HouseNumber":"26","PostalCode":"AL3 4","AdditionalData":[{"value":"United Kingdom","key":"CountryName"},{"value":"England","key":"StateName"},{"value":"Hertfordshire","key":"CountyName"}]},"MapReference":{"ReferenceId":"25785995","Spot":0.15,"SideOfStreet":"right","StateId":"20248595","CountyId":"20336428","CityId":"20336631","DistrictId":"20336632"}}},{"Relevance":1.0,"Distance":41.1,"MatchLevel":"houseNumber","MatchQuality":{"Country":1.0,"State":1.0,"County":1.0,"City":1.0,"District":1.0,"Street":[1.0],"HouseNumber":1.0,"PostalCode":1.0},"MatchType":"interpolated","Location":{"LocationId":"NT_RbOiIUxQ30NY13ea5MdOIA_l_25785999_R_2A","LocationType":"point","DisplayPosition":{"Latitude":51.753035,"Longitude":-0.33922},"MapView":{"TopLeft":{"Latitude":51.7541592,"Longitude":-0.3410359},"BottomRight":{"Latitude":51.7519109,"Longitude":-0.3374041}},"Address":{"Label":"6 Waddington Road, St Albans, AL3 5EX, United Kingdom","Country":"GBR","State":"England","County":"Hertfordshire","City":"St Albans","District":"St Albans","Street":"Waddington Road","HouseNumber":"6","PostalCode":"AL3 5EX","AdditionalData":[{"value":"United Kingdom","key":"CountryName"},{"value":"England","key":"StateName"},{"value":"Hertfordshire","key":"CountyName"}]},"MapReference":{"ReferenceId":"25785999","Spot":0.62,"SideOfStreet":"right","StateId":"20248595","CountyId":"20336428","CityId":"20336631","DistrictId":"20336632"}}},{"Relevance":1.0,"Distance":42.5,"MatchLevel":"postalCode","MatchQuality":{"PostalCode":1.0},"MatchType":"interpolated","Location":{"LocationId":"NT_T9NMvCli7WQWI0y8zlHI9A_l_25785995_R_yYD","LocationType":"point","DisplayPosition":{"Latitude":51.75307,"Longitude":-0.34033},"MapView":{"TopLeft":{"Latitude":51.7620632,"Longitude":-0.3548574},"BottomRight":{"Latitude":51.7440768,"Longitude":-0.3258026}},"Address":{"Label":"AL3 5EG, St Albans, England, United Kingdom","Country":"GBR","State":"England","County":"Hertfordshire","City":"St Albans","PostalCode":"AL3 5EG","AdditionalData":[{"value":"United Kingdom","key":"CountryName"},{"value":"England","key":"StateName"},{"value":"Hertfordshire","key":"CountyName"}]},"MapReference":{"ReferenceId":"25785995","Spot":0.15,"SideOfStreet":"neither","StateId":"20248595","CountyId":"20336428","CityId":"20336631"}}},{"Relevance":1.0,"Distance":43.0,"MatchLevel":"postalCode","MatchQuality":{"PostalCode":1.0},"MatchType":"interpolated","Location":{"LocationId":"NT_RbOiIUxQ30NY13ea5MdOIA_l_25785999_R_2A","LocationType":"point","DisplayPosition":{"Latitude":51.75308,"Longitude":-0.33918},"MapView":{"TopLeft":{"Latitude":51.7620732,"Longitude":-0.3537074},"BottomRight":{"Latitude":51.7440868,"Longitude":-0.3246526}},"Address":{"Label":"AL3 5EX, St Albans, England, United Kingdom","Country":"GBR","State":"England","County":"Hertfordshire","City":"St Albans","PostalCode":"AL3 5EX","AdditionalData":[{"value":"United Kingdom","key":"CountryName"},{"value":"England","key":"StateName"},{"value":"Hertfordshire","key":"CountyName"}]},"MapReference":{"ReferenceId":"25785999","Spot":0.62,"SideOfStreet":"neither","StateId":"20248595","CountyId":"20336428","CityId":"20336631"}}},{"Relevance":1.0,"Distance":51.6,"MatchLevel":"houseNumber","MatchQuality":{"Country":1.0,"State":1.0,"County":1.0,"City":1.0,"District":1.0,"Street":[1.0],"HouseNumber":1.0,"PostalCode":1.0},"MatchType":"interpolated","Location":{"LocationId":"NT_9tcl3DdqaZ0I2mGGGtPjEA_l_25785799_L_xA","LocationType":"point","DisplayPosition":{"Latitude":51.75367,"Longitude":-0.3403001},"MapView":{"TopLeft":{"Latitude":51.7547942,"Longitude":-0.3421161},"BottomRight":{"Latitude":51.7525459,"Longitude":-0.3384842}},"Address":{"Label":"1 Britton Avenue, St Albans, AL3 5, United Kingdom","Country":"GBR","State":"England","County":"Hertfordshire","City":"St Albans","District":"St Albans","Street":"Britton Avenue","HouseNumber":"1","PostalCode":"AL3 5","AdditionalData":[{"value":"United Kingdom","key":"CountryName"},{"value":"England","key":"StateName"},{"value":"Hertfordshire","key":"CountyName"}]},"MapReference":{"ReferenceId":"25785799","Spot":0.27,"SideOfStreet":"left","StateId":"20248595","CountyId":"20336428","CityId":"20336631","DistrictId":"20336632"}}}]}]}}