{"Response":{"MetaInfo":{"Timestamp":"2020-03-28T10:49:34.089+0000","NextPageInformation":"2"},"View":[{"_type":"SearchResultsViewType","ViewId":0,"Result":[{"Relevance":1.0,"Distance":0.0,"Direction":0.0,"MatchLevel":"district","MatchQuality":{"Country":1.0,"State":1.0,"County":1.0,"City":1.0,"District":1.0,"Subdistrict":1.0,"PostalCode":1.0},"Location":{"LocationId":"NT_Pp62RYQwy8gRWjN2IEYGqA","LocationType":"point","DisplayPosition":{"Latitude":51.7361178,"Longitude":19.4704119},"MapView":{"TopLeft":{"Latitude":51.79106,"Longitude":19.44559},"BottomRight":{"Latitude":51.73127,"Longitude":19.48751}},"Address":{"Label":"Śródmieście, Łódź, Woj. Łódzkie, Polska","Country":"POL","State":"Woj. Łódzkie","County":"Łódź","City":"Łódź","District":"Łódź","Subdistrict":"Śródmieście","PostalCode":"90-318","AdditionalData":[{"value":"Polska","key":"CountryName"},{"value":"Woj. Łódzkie","key":"StateName"},{"value":"Łódź","key":"CountyName"}]},"MapReference":{"ReferenceId":"855176660","SideOfStreet":"neither","CountryId":"20624059","StateId":"20625723","CountyId":"20625724","CityId":"20625725","DistrictId":"20646758"}}},{"Relevance":1.0,"Distance":11.9,"MatchLevel":"houseNumber","MatchQuality":{"Country":1.0,"State":1.0,"County":1.0,"City":1.0,"District":1.0,"Subdistrict":1.0,"Street":[1.0],"HouseNumber":1.0,"PostalCode":1.0},"MatchType":"interpolated","Location":{"LocationId":"NT_eEH4qQYtnfWyAIL93HKQvD_1AD","LocationType":"point","DisplayPosition":{"Latitude":51.7359,"Longitude":19.46964},"MapView":{"TopLeft":{"Latitude":51.7370242,"Longitude":19.4678248},"BottomRight":{"Latitude":51.7347758,"Longitude":19.4714552}},"Address":{"Label":"ulica Rzgowska 50, 93-172 Łódź, Polska","Country":"POL","State":"Woj. Łódzkie","County":"Łódź","City":"Łódź","District":"Łódź","Subdistrict":"Śródmieście","Street":"ulica Rzgowska","HouseNumber":"50","PostalCode":"93-172","AdditionalData":[{"value":"Polska","key":"CountryName"},{"value":"Woj. Łódzkie","key":"StateName"},{"value":"Łódź","key":"CountyName"}]},"MapReference":{"ReferenceId":"595645741","Spot":0.12,"SideOfStreet":"right","CountryId":"20624059","StateId":"20625723","CountyId":"20625724","CityId":"20625725","DistrictId":"20646758","AddressId":"210100504","RoadLinkId":"95799458"}}},{"Relevance":1.0,"Distance":22.5,"MatchLevel":"houseNumber","MatchQuality":{"Country":1.0,"State":1.0,"County":1.0,"City":1.0,"District":1.0,"Subdistrict":1.0,"Street":[1.0],"HouseNumber":1.0,"PostalCode":1.0},"MatchType":"interpolated","Location":{"LocationId":"NT_Li5n3BgOgzFmkEY2YVSgMC_yA","LocationType":"point","DisplayPosition":{"Latitude":51.736,"Longitude":19.4708},"MapView":{"TopLeft":{"Latitude":51.7371242,"Longitude":19.4689848},"BottomRight":{"Latitude":51.7348758,"Longitude":19.4726152}},"Address":{"Label":"ulica Waleriana Łukasińskiego 2, 93-172 Łódź, Polska","Country":"POL","State":"Woj. Łódzkie","County":"Łódź","City":"Łódź","District":"Łódź","Subdistrict":"Śródmieście","Street":"ulica Waleriana Łukasińskiego","HouseNumber":"2","PostalCode":"93-172","AdditionalData":[{"value":"Polska","key":"CountryName"},{"value":"Woj. Łódzkie","key":"StateName"},{"value":"Łódź","key":"CountyName"}]},"MapReference":{"ReferenceId":"1196577770","Spot":0.71,"SideOfStreet":"left","CountryId":"20624059","StateId":"20625723","CountyId":"20625724","CityId":"20625725","DistrictId":"20646758","AddressId":"222077254","RoadLinkId":"507099498"}}},{"Relevance":1.0,"Distance":36.8,"MatchLevel":"houseNumber","MatchQuality":{"Country":1.0,"State":1.0,"County":1.0,"City":1.0,"District":1.0,"Subdistrict":1.0,"Street":[1.0],"HouseNumber":1.0,"PostalCode":1.0},"MatchType":"interpolated","Location":{"LocationId":"NT_eEH4qQYtnfWyAIL93HKQvD_1ID","LocationType":"point","DisplayPosition":{"Latitude":51.73563,"Longitude":19.46991},"MapView":{"TopLeft":{"Latitude":51.7367542,"Longitude":19.4680948},"BottomRight":{"Latitude":51.7345058,"Longitude":19.4717252}},"Address":{"Label":"ulica Rzgowska 52, 93-172 Łódź, Polska","Country":"POL","State":"Woj. Łódzkie","County":"Łódź","City":"Łódź","District":"Łódź","Subdistrict":"Śródmieście","Street":"ulica Rzgowska","HouseNumber":"52","PostalCode":"93-172","AdditionalData":[{"value":"Polska","key":"CountryName"},{"value":"Woj. Łódzkie","key":"StateName"},{"value":"Łódź","key":"CountyName"}]},"MapReference":{"ReferenceId":"595645757","Spot":0.39,"SideOfStreet":"right","CountryId":"20624059","StateId":"20625723","CountyId":"20625724","CityId":"20625725","DistrictId":"20646758","AddressId":"210801945","RoadLinkId":"95362550"}}},{"Relevance":1.0,"Distance":56.4,"MatchLevel":"street","MatchQuality":{"Country":1.0,"State":1.0,"County":1.0,"City":1.0,"District":1.0,"Subdistrict":1.0,"PostalCode":1.0},"Location":{"LocationId":"NT_hOMpr7eOaWvHGCevZ4lJDB_l_1198505378_L","LocationType":"point","DisplayPosition":{"Latitude":51.73609,"Longitude":19.47123},"MapView":{"TopLeft":{"Latitude":51.73609,"Longitude":19.47123},"BottomRight":{"Latitude":51.73546,"Longitude":19.47171}},"Address":{"Label":"93-173 Łódź, Polska","Country":"POL","State":"Woj. Łódzkie","County":"Łódź","City":"Łódź","District":"Łódź","Subdistrict":"Śródmieście","PostalCode":"93-173","AdditionalData":[{"value":"Polska","key":"CountryName"},{"value":"Woj. Łódzkie","key":"StateName"},{"value":"Łódź","key":"CountyName"}]},"MapReference":{"ReferenceId":"1198505378","Spot":1.0,"SideOfStreet":"left","CountryId":"20624059","StateId":"20625723","CountyId":"20625724","CityId":"20625725","DistrictId":"20646758"}}},{"Relevance":1.0,"Distance":57.6,"MatchLevel":"street","MatchQuality":{"Country":1.0,"State":1.0,"County":1.0,"City":1.0,"District":1.0,"Subdistrict":1.0,"PostalCode":1.0},"Location":{"LocationId":"NT_S1EeBdXAkaj8wKNCQ9TWLD_l_1196577774_L","LocationType":"point","DisplayPosition":{"Latitude":51.73646,"Longitude":19.47104},"MapView":{"TopLeft":{"Latitude":51.73646,"Longitude":19.47104},"BottomRight":{"Latitude":51.73609,"Longitude":19.47123}},"Address":{"Label":"93-172 Łódź, Polska","Country":"POL","State":"Woj. Łódzkie","County":"Łódź","City":"Łódź","District":"Łódź","Subdistrict":"Śródmieście","PostalCode":"93-172","AdditionalData":[{"value":"Polska","key":"CountryName"},{"value":"Woj. Łódzkie","key":"StateName"},{"value":"Łódź","key":"CountyName"}]},"MapReference":{"ReferenceId":"1196577774","Spot":1.0,"SideOfStreet":"left","CountryId":"20624059","StateId":"20625723","CountyId":"20625724","CityId":"20625725","DistrictId":"20646758"}}},{"Relevance":1.0,"Distance":57.6,"MatchLevel":"street","MatchQuality":{"Country":1.0,"State":1.0,"County":1.0,"City":1.0,"District":1.0,"Subdistrict":1.0,"PostalCode":1.0},"Location":{"LocationId":"NT_S1EeBdXAkaj8wKNCQ9TWLD_l_1196577776_R","LocationType":"point","DisplayPosition":{"Latitude":51.73646,"Longitude":19.47104},"MapView":{"TopLeft":{"Latitude":51.73659,"Longitude":19.47104},"BottomRight":{"Latitude":51.73646,"Longitude":19.47143}},"Address":{"Label":"93-172 Łódź, Polska","Country":"POL","State":"Woj. Łódzkie","County":"Łódź","City":"Łódź","District":"Łódź","Subdistrict":"Śródmieście","PostalCode":"93-172","AdditionalData":[{"value":"Polska","key":"CountryName"},{"value":"Woj. Łódzkie","key":"StateName"},{"value":"Łódź","key":"CountyName"}]},"MapReference":{"ReferenceId":"1196577776","Spot":0.0,"SideOfStreet":"right","CountryId":"20624059","StateId":"20625723","CountyId":"20625724","CityId":"20625725","DistrictId":"20646758"}}},{"Relevance":1.0,"Distance":60.7,"MatchLevel":"street","MatchQuality":{"Country":1.0,"State":1.0,"County":1.0,"City":1.0,"District":1.0,"Subdistrict":1.0,"PostalCode":1.0},"Location":{"LocationId":"NT_S1EeBdXAkaj8wKNCQ9TWLD_l_1196577772_L","LocationType":"point","DisplayPosition":{"Latitude":51.73653,"Longitude":19.47099},"MapView":{"TopLeft":{"Latitude":51.73697,"Longitude":19.47077},"BottomRight":{"Latitude":51.73653,"Longitude":19.47099}},"Address":{"Label":"93-172 Łódź, Polska","Country":"POL","State":"Woj. Łódzkie","County":"Łódź","City":"Łódź","District":"Łódź","Subdistrict":"Śródmieście","PostalCode":"93-172","AdditionalData":[{"value":"Polska","key":"CountryName"},{"value":"Woj. Łódzkie","key":"StateName"},{"value":"Łódź","key":"CountyName"}]},"MapReference":{"ReferenceId":"1196577772","Spot":0.0,"SideOfStreet":"left","CountryId":"20624059","StateId":"20625723","CountyId":"20625724","CityId":"20625725","DistrictId":"20646758"}}},{"Relevance":1.0,"Distance":60.7,"MatchLevel":"street","MatchQuality":{"Country":1.0,"State":1.0,"County":1.0,"City":1.0,"District":1.0,"Subdistrict":1.0,"PostalCode":1.0},"Location":{"LocationId":"NT_S1EeBdXAkaj8wKNCQ9TWLD_l_1196577773_R","LocationType":"point","DisplayPosition":{"Latitude":51.73653,"Longitude":19.47099},"MapView":{"TopLeft":{"Latitude":51.73662,"Longitude":19.47099},"BottomRight":{"Latitude":51.73653,"Longitude":19.47127}},"Address":{"Label":"93-172 Łódź, Polska","Country":"POL","State":"Woj. Łódzkie","County":"Łódź","City":"Łódź","District":"Łódź","Subdistrict":"Śródmieście","PostalCode":"93-172","AdditionalData":[{"value":"Polska","key":"CountryName"},{"value":"Woj. Łódzkie","key":"StateName"},{"value":"Łódź","key":"CountyName"}]},"MapReference":{"ReferenceId":"1196577773","Spot":0.0,"SideOfStreet":"right","CountryId":"20624059","StateId":"20625723","CountyId":"20625724","CityId":"20625725","DistrictId":"20646758"}}},{"Relevance":1.0,"Distance":60.7,"MatchLevel":"street","MatchQuality":{"Country":1.0,"State":1.0,"County":1.0,"City":1.0,"District":1.0,"Subdistrict":1.0,"PostalCode":1.0},"Location":{"LocationId":"NT_S1EeBdXAkaj8wKNCQ9TWLD_l_1196577775_L","LocationType":"point","DisplayPosition":{"Latitude":51.73653,"Longitude":19.47099},"MapView":{"TopLeft":{"Latitude":51.73653,"Longitude":19.47099},"BottomRight":{"Latitude":51.73646,"Longitude":19.47104}},"Address":{"Label":"93-172 Łódź, Polska","Country":"POL","State":"Woj. Łódzkie","County":"Łódź","City":"Łódź","District":"Łódź","Subdistrict":"Śródmieście","PostalCode":"93-172","AdditionalData":[{"value":"Polska","key":"CountryName"},{"value":"Woj. Łódzkie","key":"StateName"},{"value":"Łódź","key":"CountyName"}]},"MapReference":{"ReferenceId":"1196577775","Spot":1.0,"SideOfStreet":"left","CountryId":"20624059","StateId":"20625723","CountyId":"20625724","CityId":"20625725","DistrictId":"20646758"}}}]}]}}