{"Response":{"MetaInfo":{"Timestamp":"2020-03-28T12:00:27.719+0000","NextPageInformation":"2"},"View":[{"_type":"SearchResultsViewType","ViewId":0,"Result":[{"Relevance":1.0,"Distance":0.0,"Direction":0.0,"MatchLevel":"district","MatchQuality":{"Country":1.0,"State":1.0,"County":1.0,"City":1.0,"District":1.0,"PostalCode":1.0},"Location":{"LocationId":"NT_A2y.EuYYLNKm7ei16vq3BC","LocationType":"point","DisplayPosition":{"Latitude":51.7297236,"Longitude":0.4768468},"MapView":{"TopLeft":{"Latitude":51.76595,"Longitude":0.4357},"BottomRight":{"Latitude":51.70371,"Longitude":0.52095}},"Address":{"Label":"Chelmsford, England, United Kingdom","Country":"GBR","State":"England","County":"Essex","City":"Chelmsford","District":"Chelmsford","PostalCode":"CM2 6","AdditionalData":[{"value":"United Kingdom","key":"CountryName"},{"value":"England","key":"StateName"},{"value":"Essex","key":"CountyName"}]},"MapReference":{"ReferenceId":"773292598","SideOfStreet":"neither","StateId":"20248595","CountyId":"20335385","CityId":"20335456","DistrictId":"20335457"}}},{"Relevance":1.0,"Distance":10.4,"MatchLevel":"houseNumber","MatchQuality":{"Country":1.0,"State":1.0,"County":1.0,"City":1.0,"District":1.0,"Street":[1.0],"HouseNumber":1.0,"PostalCode":1.0},"MatchType":"interpolated","Location":{"LocationId":"NT_dH3f90vHX54UgXbsmT5CtD_l_25765261_L_2ID","LocationType":"point","DisplayPosition":{"Latitude":51.7297175,"Longitude":0.4769981},"MapView":{"TopLeft":{"Latitude":51.7308417,"Longitude":0.4751831},"BottomRight":{"Latitude":51.7285934,"Longitude":0.4788131}},"Address":{"Label":"62 Baddow Road, Chelmsford, CM2 0DL, United Kingdom","Country":"GBR","State":"England","County":"Essex","City":"Chelmsford","District":"Chelmsford","Street":"Baddow Road","HouseNumber":"62","PostalCode":"CM2 0DL","AdditionalData":[{"value":"United Kingdom","key":"CountryName"},{"value":"England","key":"StateName"},{"value":"Essex","key":"CountyName"}]},"MapReference":{"ReferenceId":"25765261","Spot":0.72,"SideOfStreet":"left","StateId":"20248595","CountyId":"20335385","CityId":"20335456","DistrictId":"20335457"}}},{"Relevance":1.0,"Distance":13.5,"MatchLevel":"postalCode","MatchQuality":{"PostalCode":1.0},"MatchType":"interpolated","Location":{"LocationId":"NT_dH3f90vHX54UgXbsmT5CtD_l_25765261_L_2ID","LocationType":"point","DisplayPosition":{"Latitude":51.72978,"Longitude":0.47702},"MapView":{"TopLeft":{"Latitude":51.7387732,"Longitude":0.4625001},"BottomRight":{"Latitude":51.7207868,"Longitude":0.4915399}},"Address":{"Label":"CM2 0DA, Chelmsford, England, United Kingdom","Country":"GBR","State":"England","County":"Essex","City":"Chelmsford","PostalCode":"CM2 0DA","AdditionalData":[{"value":"United Kingdom","key":"CountryName"},{"value":"England","key":"StateName"},{"value":"Essex","key":"CountyName"}]},"MapReference":{"ReferenceId":"25765261","Spot":0.72,"SideOfStreet":"neither","StateId":"20248595","CountyId":"20335385","CityId":"20335456"}}},{"Relevance":1.0,"Distance":18.8,"MatchLevel":"street","MatchQuality":{"Country":1.0,"State":1.0,"County":1.0,"City":1.0,"District":1.0,"Street":[1.0],"PostalCode":1.0},"Location":{"LocationId":"NT_Gjq2NvvqvIC4xN7n9d8q8C_l_30479684_R","LocationType":"point","DisplayPosition":{"Latitude":51.7296509,"Longitude":0.4765997},"MapView":{"TopLeft":{"Latitude":51.72994,"Longitude":0.47652},"BottomRight":{"Latitude":51.72965,"Longitude":0.4766}},"Address":{"Label":"High Bridge Road, Chelmsford, CM2 0, United Kingdom","Country":"GBR","State":"England","County":"Essex","City":"Chelmsford","District":"Chelmsford","Street":"High Bridge Road","PostalCode":"CM2 0","AdditionalData":[{"value":"United Kingdom","key":"CountryName"},{"value":"England","key":"StateName"},{"value":"Essex","key":"CountyName"}]},"MapReference":{"ReferenceId":"30479684","Spot":0.0,"SideOfStreet":"right","StateId":"20248595","CountyId":"20335385","CityId":"20335456","DistrictId":"20335457"}}},{"Relevance":1.0,"Distance":18.9,"MatchLevel":"street","MatchQuality":{"Country":1.0,"State":1.0,"County":1.0,"City":1.0,"District":1.0,"Street":[1.0],"PostalCode":1.0},"Location":{"LocationId":"NT_hDjLAPcujwx4EPQ1jlJ98A_l_25765255_R","LocationType":"point","DisplayPosition":{"Latitude":51.72965,"Longitude":0.4766},"MapView":{"TopLeft":{"Latitude":51.72981,"Longitude":0.47603},"BottomRight":{"Latitude":51.72965,"Longitude":0.4766}},"Address":{"Label":"Odeon Roundabout, Chelmsford, CM2 0, United Kingdom","Country":"GBR","State":"England","County":"Essex","City":"Chelmsford","District":"Chelmsford","Street":"Odeon Roundabout","PostalCode":"CM2 0","AdditionalData":[{"value":"United Kingdom","key":"CountryName"},{"value":"England","key":"StateName"},{"value":"Essex","key":"CountyName"}]},"MapReference":{"ReferenceId":"25765255","Spot":0.0,"SideOfStreet":"right","StateId":"20248595","CountyId":"20335385","CityId":"20335456","DistrictId":"20335457"}}},{"Relevance":1.0,"Distance":20.1,"MatchLevel":"street","MatchQuality":{"Country":1.0,"State":1.0,"County":1.0,"City":1.0,"District":1.0,"Street":[1.0],"PostalCode":1.0},"Location":{"LocationId":"NT_hDjLAPcujwx4EPQ1jlJ98A_l_25765256_R","LocationType":"point","DisplayPosition":{"Latitude":51.7296102,"Longitude":0.4766199},"MapView":{"TopLeft":{"Latitude":51.72965,"Longitude":0.4766},"BottomRight":{"Latitude":51.72959,"Longitude":0.47663}},"Address":{"Label":"Odeon Roundabout, Chelmsford, CM2 0, United Kingdom","Country":"GBR","State":"England","County":"Essex","City":"Chelmsford","District":"Chelmsford","Street":"Odeon Roundabout","PostalCode":"CM2 0","AdditionalData":[{"value":"United Kingdom","key":"CountryName"},{"value":"England","key":"StateName"},{"value":"Essex","key":"CountyName"}]},"MapReference":{"ReferenceId":"25765256","Spot":0.34,"SideOfStreet":"right","StateId":"20248595","CountyId":"20335385","CityId":"20335456","DistrictId":"20335457"}}},{"Relevance":1.0,"Distance":21.1,"MatchLevel":"street","MatchQuality":{"Country":1.0,"State":1.0,"County":1.0,"City":1.0,"District":1.0,"Street":[1.0],"PostalCode":1.0},"Location":{"LocationId":"NT_hDjLAPcujwx4EPQ1jlJ98A_l_25765267_R","LocationType":"point","DisplayPosition":{"Latitude":51.72959,"Longitude":0.47663},"MapView":{"TopLeft":{"Latitude":51.72959,"Longitude":0.4764},"BottomRight":{"Latitude":51.72926,"Longitude":0.47664}},"Address":{"Label":"Odeon Roundabout, Chelmsford, CM2 0, United Kingdom","Country":"GBR","State":"England","County":"Essex","City":"Chelmsford","District":"Chelmsford","Street":"Odeon Roundabout","PostalCode":"CM2 0","AdditionalData":[{"value":"United Kingdom","key":"CountryName"},{"value":"England","key":"StateName"},{"value":"Essex","key":"CountyName"}]},"MapReference":{"ReferenceId":"25765267","Spot":1.0,"SideOfStreet":"right","StateId":"20248595","CountyId":"20335385","CityId":"20335456","DistrictId":"20335457"}}},{"Relevance":1.0,"Distance":23.2,"MatchLevel":"street","MatchQuality":{"Country":1.0,"State":1.0,"County":1.0,"City":1.0,"District":1.0,"Street":[1.0],"PostalCode":1.0},"Location":{"LocationId":"NT_kTHN7FLyXp2xDsU63K01sC_l_25765275_R","LocationType":"point","DisplayPosition":{"Latitude":51.7295405,"Longitude":0.4766866},"MapView":{"TopLeft":{"Latitude":51.72959,"Longitude":0.47663},"BottomRight":{"Latitude":51.72903,"Longitude":0.47767}},"Address":{"Label":"Parkway, Chelmsford, CM2 0, United Kingdom","Country":"GBR","State":"England","County":"Essex","City":"Chelmsford","District":"Chelmsford","Street":"Parkway","PostalCode":"CM2 0","AdditionalData":[{"value":"United Kingdom","key":"CountryName"},{"value":"England","key":"StateName"},{"value":"Essex","key":"CountyName"}]},"MapReference":{"ReferenceId":"25765275","Spot":0.94,"SideOfStreet":"right","StateId":"20248595","CountyId":"20335385","CityId":"20335456","DistrictId":"20335457"}}},{"Relevance":1.0,"Distance":32.9,"MatchLevel":"street","MatchQuality":{"Country":1.0,"State":1.0,"County":1.0,"City":1.0,"District":1.0,"Street":[1.0],"PostalCode":1.0},"Location":{"LocationId":"NT_Qc-lcKeyrXO6FJnC29XguD_l_30479683_R","LocationType":"point","DisplayPosition":{"Latitude":51.72994,"Longitude":0.47652},"MapView":{"TopLeft":{"Latitude":51.73037,"Longitude":0.47652},"BottomRight":{"Latitude":51.72994,"Longitude":0.47671}},"Address":{"Label":"High Bridge Road, Chelmsford, CM2 0, United Kingdom","Country":"GBR","State":"England","County":"Essex","City":"Chelmsford","District":"Chelmsford","Street":"High Bridge Road","PostalCode":"CM2 0","AdditionalData":[{"value":"United Kingdom","key":"CountryName"},{"value":"England","key":"StateName"},{"value":"Essex","key":"CountyName"}]},"MapReference":{"ReferenceId":"30479683","Spot":0.0,"SideOfStreet":"right","StateId":"20248595","CountyId":"20335385","CityId":"20335456","DistrictId":"20335457"}}},{"Relevance":1.0,"Distance":49.5,"MatchLevel":"street","MatchQuality":{"Country":1.0,"State":1.0,"County":1.0,"City":1.0,"District":1.0,"Street":[1.0],"PostalCode":1.0},"Location":{"LocationId":"NT_Gjq2NvvqvIC4xN7n9d8q8C_l_25765246_R","LocationType":"point","DisplayPosition":{"Latitude":51.72993,"Longitude":0.47621},"MapView":{"TopLeft":{"Latitude":51.72993,"Longitude":0.47603},"BottomRight":{"Latitude":51.7298,"Longitude":0.47621}},"Address":{"Label":"High Bridge Road, Chelmsford, CM2 0, United Kingdom","Country":"GBR","State":"England","County":"Essex","City":"Chelmsford","District":"Chelmsford","Street":"High Bridge Road","PostalCode":"CM2 0","AdditionalData":[{"value":"United Kingdom","key":"CountryName"},{"value":"England","key":"StateName"},{"value":"Essex","key":"CountyName"}]},"MapReference":{"ReferenceId":"25765246","Spot":1.0,"SideOfStreet":"right","StateId":"20248595","CountyId":"20335385","CityId":"20335456","DistrictId":"20335457"}}}]}]}}