{"Response":{"MetaInfo":{"Timestamp":"2020-03-28T11:32:17.161+0000","NextPageInformation":"2"},"View":[{"_type":"SearchResultsViewType","ViewId":0,"Result":[{"Relevance":1.0,"Distance":0.0,"Direction":0.0,"MatchLevel":"district","MatchQuality":{"Country":1.0,"State":1.0,"County":1.0,"City":1.0,"District":1.0,"Subdistrict":1.0,"PostalCode":1.0},"Location":{"LocationId":"NT_Pp62RYQwy8gRWjN2IEYGqA","LocationType":"point","DisplayPosition":{"Latitude":51.7542881,"Longitude":19.4626958},"MapView":{"TopLeft":{"Latitude":51.79106,"Longitude":19.44559},"BottomRight":{"Latitude":51.73127,"Longitude":19.48751}},"Address":{"Label":"Śródmieście, Łódź, Woj. Łódzkie, Polska","Country":"POL","State":"Woj. Łódzkie","County":"Łódź","City":"Łódź","District":"Łódź","Subdistrict":"Śródmieście","PostalCode":"90-318","AdditionalData":[{"value":"Polska","key":"CountryName"},{"value":"Woj. Łódzkie","key":"StateName"},{"value":"Łódź","key":"CountyName"}]},"MapReference":{"ReferenceId":"855176660","SideOfStreet":"neither","CountryId":"20624059","StateId":"20625723","CountyId":"20625724","CityId":"20625725","DistrictId":"20646758"}}},{"Relevance":1.0,"Distance":10.0,"MatchLevel":"landmark","MatchQuality":{"Country":1.0,"State":1.0,"County":1.0,"City":1.0,"District":1.0,"PostalCode":1.0,"Name":1.0},"Location":{"LocationId":"NT_qBjrdvJcFDa57q9S-QdnMA","LocationType":"hospital","Name":"Woj. Stacja Ratownictwa Medycznego","DisplayPosition":{"Latitude":51.75489,"Longitude":19.46317},"MapView":{"TopLeft":{"Latitude":51.75542,"Longitude":19.46226},"BottomRight":{"Latitude":51.75436,"Longitude":19.46408}},"Address":{"Label":"90-132 Łódź, Polska","Country":"POL","State":"Woj. Łódzkie","County":"Łódź","City":"Łódź","District":"Łódź","PostalCode":"90-132","AdditionalData":[{"value":"Polska","key":"CountryName"},{"value":"Woj. Łódzkie","key":"StateName"},{"value":"Łódź","key":"CountyName"}]},"MapReference":{"CountryId":"20624059","StateId":"20625723","CountyId":"20625724","CityId":"20625725","DistrictId":"20646758","PlaceId":"1416984999"}}},{"Relevance":1.0,"Distance":19.1,"MatchLevel":"houseNumber","MatchQuality":{"Country":1.0,"State":1.0,"County":1.0,"City":1.0,"District":1.0,"Subdistrict":1.0,"Street":[1.0],"HouseNumber":1.0,"PostalCode":1.0},"MatchType":"interpolated","Location":{"LocationId":"NT_MR7WP-Dt-QHHdfWidjlrsD_xMzNvEzM5A","LocationType":"point","DisplayPosition":{"Latitude":51.75415,"Longitude":19.46253},"MapView":{"TopLeft":{"Latitude":51.7552742,"Longitude":19.460714},"BottomRight":{"Latitude":51.7530258,"Longitude":19.464346}},"Address":{"Label":"ulica Henryka Sienkiewicza 137/139, 90-303 Łódź, Polska","Country":"POL","State":"Woj. Łódzkie","County":"Łódź","City":"Łódź","District":"Łódź","Subdistrict":"Śródmieście","Street":"ulica Henryka Sienkiewicza","HouseNumber":"137/139","PostalCode":"90-303","AdditionalData":[{"value":"Polska","key":"CountryName"},{"value":"Woj. Łódzkie","key":"StateName"},{"value":"Łódź","key":"CountyName"}]},"MapReference":{"ReferenceId":"877454686","Spot":1.0,"SideOfStreet":"right","CountryId":"20624059","StateId":"20625723","CountyId":"20625724","CityId":"20625725","DistrictId":"20646758","AddressId":"403525462","RoadLinkId":"277383805"}}},{"Relevance":1.0,"Distance":19.1,"MatchLevel":"street","MatchQuality":{"Country":1.0,"State":1.0,"County":1.0,"City":1.0,"District":1.0,"Subdistrict":1.0,"PostalCode":1.0},"Location":{"LocationId":"NT_RJi7AjLIfrmaVIqHkj1wgA_l_877454689_R","LocationType":"point","DisplayPosition":{"Latitude":51.75415,"Longitude":19.46253},"MapView":{"TopLeft":{"Latitude":51.75415,"Longitude":19.46253},"BottomRight":{"Latitude":51.75382,"Longitude":19.46262}},"Address":{"Label":"90-303 Łódź, Polska","Country":"POL","State":"Woj. Łódzkie","County":"Łódź","City":"Łódź","District":"Łódź","Subdistrict":"Śródmieście","PostalCode":"90-303","AdditionalData":[{"value":"Polska","key":"CountryName"},{"value":"Woj. Łódzkie","key":"StateName"},{"value":"Łódź","key":"CountyName"}]},"MapReference":{"ReferenceId":"877454689","Spot":1.0,"SideOfStreet":"right","CountryId":"20624059","StateId":"20625723","CountyId":"20625724","CityId":"20625725","DistrictId":"20646758"}}},{"Relevance":1.0,"Distance":20.4,"MatchLevel":"street","MatchQuality":{"Country":1.0,"State":1.0,"County":1.0,"City":1.0,"District":1.0,"Subdistrict":1.0,"Street":[1.0],"PostalCode":1.0},"Location":{"LocationId":"NT_MR7WP-Dt-QHHdfWidjlrsD_l_877454685_R","LocationType":"point","DisplayPosition":{"Latitude":51.75414,"Longitude":19.46287},"MapView":{"TopLeft":{"Latitude":51.75414,"Longitude":19.46287},"BottomRight":{"Latitude":51.75401,"Longitude":19.46332}},"Address":{"Label":"ulica Henryka Sienkiewicza, 90-303 Łódź, Polska","Country":"POL","State":"Woj. Łódzkie","County":"Łódź","City":"Łódź","District":"Łódź","Subdistrict":"Śródmieście","Street":"ulica Henryka Sienkiewicza","PostalCode":"90-303","AdditionalData":[{"value":"Polska","key":"CountryName"},{"value":"Woj. Łódzkie","key":"StateName"},{"value":"Łódź","key":"CountyName"}]},"MapReference":{"ReferenceId":"877454685","Spot":1.0,"SideOfStreet":"right","CountryId":"20624059","StateId":"20625723","CountyId":"20625724","CityId":"20625725","DistrictId":"20646758"}}},{"Relevance":1.0,"Distance":20.4,"MatchLevel":"street","MatchQuality":{"Country":1.0,"State":1.0,"County":1.0,"City":1.0,"District":1.0,"Subdistrict":1.0,"PostalCode":1.0},"Location":{"LocationId":"NT_RJi7AjLIfrmaVIqHkj1wgA_l_877454688_L","LocationType":"point","DisplayPosition":{"Latitude":51.75414,"Longitude":19.46287},"MapView":{"TopLeft":{"Latitude":51.75414,"Longitude":19.46262},"BottomRight":{"Latitude":51.75382,"Longitude":19.46292}},"Address":{"Label":"90-303 Łódź, Polska","Country":"POL","State":"Woj. Łódzkie","County":"Łódź","City":"Łódź","District":"Łódź","Subdistrict":"Śródmieście","PostalCode":"90-303","AdditionalData":[{"value":"Polska","key":"CountryName"},{"value":"Woj. Łódzkie","key":"StateName"},{"value":"Łódź","key":"CountyName"}]},"MapReference":{"ReferenceId":"877454688","Spot":1.0,"SideOfStreet":"left","CountryId":"20624059","StateId":"20625723","CountyId":"20625724","CityId":"20625725","DistrictId":"20646758"}}},{"Relevance":1.0,"Distance":34.3,"MatchLevel":"street","MatchQuality":{"Country":1.0,"State":1.0,"County":1.0,"City":1.0,"District":1.0,"Subdistrict":1.0,"PostalCode":1.0},"Location":{"LocationId":"NT_9vLnxp0uhlEAJFBklhPWeB_l_877481714_R","LocationType":"point","DisplayPosition":{"Latitude":51.75438,"Longitude":19.46222},"MapView":{"TopLeft":{"Latitude":51.75509,"Longitude":19.4615},"BottomRight":{"Latitude":51.75424,"Longitude":19.46222}},"Address":{"Label":"90-369 Łódź, Polska","Country":"POL","State":"Woj. Łódzkie","County":"Łódź","City":"Łódź","District":"Łódź","Subdistrict":"Śródmieście","PostalCode":"90-369","AdditionalData":[{"value":"Polska","key":"CountryName"},{"value":"Woj. Łódzkie","key":"StateName"},{"value":"Łódź","key":"CountyName"}]},"MapReference":{"ReferenceId":"877481714","Spot":0.5,"SideOfStreet":"right","CountryId":"20624059","StateId":"20625723","CountyId":"20625724","CityId":"20625725","DistrictId":"20646758"}}},{"Relevance":1.0,"Distance":39.7,"MatchLevel":"houseNumber","MatchQuality":{"Country":1.0,"State":1.0,"County":1.0,"City":1.0,"District":1.0,"Subdistrict":1.0,"Street":[1.0],"HouseNumber":1.0,"PostalCode":1.0},"MatchType":"interpolated","Location":{"LocationId":"NT_FBlq8LE.4WnTTcobGja2sA_3EE","LocationType":"point","DisplayPosition":{"Latitude":51.75385,"Longitude":19.46162},"MapView":{"TopLeft":{"Latitude":51.7549742,"Longitude":19.459804},"BottomRight":{"Latitude":51.7527258,"Longitude":19.463436}},"Address":{"Label":"ulica 10 Lutego 7A, 90-303 Łódź, Polska","Country":"POL","State":"Woj. Łódzkie","County":"Łódź","City":"Łódź","District":"Łódź","Subdistrict":"Śródmieście","Street":"ulica 10 Lutego","HouseNumber":"7A","PostalCode":"90-303","AdditionalData":[{"value":"Polska","key":"CountryName"},{"value":"Woj. Łódzkie","key":"StateName"},{"value":"Łódź","key":"CountyName"}]},"MapReference":{"ReferenceId":"877454684","Spot":1.0,"SideOfStreet":"right","CountryId":"20624059","StateId":"20625723","CountyId":"20625724","CityId":"20625725","DistrictId":"20646758","AddressId":"210936181","RoadLinkId":"247510152"}}},{"Relevance":1.0,"Distance":52.3,"MatchLevel":"street","MatchQuality":{"Country":1.0,"State":1.0,"County":1.0,"City":1.0,"District":1.0,"Subdistrict":1.0,"PostalCode":1.0},"Location":{"LocationId":"NT_RJi7AjLIfrmaVIqHkj1wgA_l_877454687_L","LocationType":"point","DisplayPosition":{"Latitude":51.75382,"Longitude":19.46262},"MapView":{"TopLeft":{"Latitude":51.75382,"Longitude":19.46171},"BottomRight":{"Latitude":51.75347,"Longitude":19.46262}},"Address":{"Label":"90-303 Łódź, Polska","Country":"POL","State":"Woj. Łódzkie","County":"Łódź","City":"Łódź","District":"Łódź","Subdistrict":"Śródmieście","PostalCode":"90-303","AdditionalData":[{"value":"Polska","key":"CountryName"},{"value":"Woj. Łódzkie","key":"StateName"},{"value":"Łódź","key":"CountyName"}]},"MapReference":{"ReferenceId":"877454687","Spot":1.0,"SideOfStreet":"left","CountryId":"20624059","StateId":"20625723","CountyId":"20625724","CityId":"20625725","DistrictId":"20646758"}}},{"Relevance":1.0,"Distance":76.2,"MatchLevel":"houseNumber","MatchQuality":{"Country":1.0,"State":1.0,"County":1.0,"City":1.0,"District":1.0,"Subdistrict":1.0,"Street":[1.0],"HouseNumber":1.0,"PostalCode":1.0},"MatchType":"interpolated","Location":{"LocationId":"NT_MR7WP-Dt-QHHdfWidjlrsD_xQTN","LocationType":"point","DisplayPosition":{"Latitude":51.75405,"Longitude":19.46384},"MapView":{"TopLeft":{"Latitude":51.7551742,"Longitude":19.462024},"BottomRight":{"Latitude":51.7529258,"Longitude":19.465656}},"Address":{"Label":"ulica Henryka Sienkiewicza 145, 90-303 Łódź, Polska","Country":"POL","State":"Woj. Łódzkie","County":"Łódź","City":"Łódź","District":"Łódź","Subdistrict":"Śródmieście","Street":"ulica Henryka Sienkiewicza","HouseNumber":"145","PostalCode":"90-303","AdditionalData":[{"value":"Polska","key":"CountryName"},{"value":"Woj. Łódzkie","key":"StateName"},{"value":"Łódź","key":"CountyName"}]},"MapReference":{"ReferenceId":"595656602","Spot":0.61,"SideOfStreet":"left","CountryId":"20624059","StateId":"20625723","CountyId":"20625724","CityId":"20625725","DistrictId":"20646758","AddressId":"210400694","RoadLinkId":"95488026"}}}]}]}}