{"Response":{"MetaInfo":{"Timestamp":"2020-03-28T11:22:43.828+0000","NextPageInformation":"2"},"View":[{"_type":"SearchResultsViewType","ViewId":0,"Result":[{"Relevance":1.0,"Distance":0.0,"Direction":0.0,"MatchLevel":"district","MatchQuality":{"Country":1.0,"County":1.0,"City":1.0,"District":1.0,"PostalCode":1.0},"Location":{"LocationId":"NT_ExriiSSwNCkirs.biZdibD","LocationType":"point","DisplayPosition":{"Latitude":51.7123349,"Longitude":-8.5276754},"MapView":{"TopLeft":{"Latitude":51.71553,"Longitude":-8.54338},"BottomRight":{"Latitude":51.6942,"Longitude":-8.4907}},"Address":{"Label":"Kinsale, Ireland","Country":"IRL","County":"County Cork","City":"Kinsale","District":"Kinsale","AdditionalData":[{"value":"Ireland","key":"CountryName"},{"value":"County Cork","key":"CountyName"}]},"MapReference":{"ReferenceId":"589030855","SideOfStreet":"neither","CountryId":"20403667","CountyId":"20411183","CityId":"20514491","DistrictId":"20514642"}}},{"Relevance":1.0,"Distance":67.6,"MatchLevel":"street","MatchQuality":{"Country":1.0,"County":1.0,"City":1.0,"District":1.0,"Street":[1.0],"PostalCode":1.0},"Location":{"LocationId":"NT_vpUJOcY3ADH2fHiS-J-6JA_l_850443044_R","LocationType":"point","DisplayPosition":{"Latitude":51.71197,"Longitude":-8.52846},"MapView":{"TopLeft":{"Latitude":51.7126,"Longitude":-8.52882},"BottomRight":{"Latitude":51.71197,"Longitude":-8.52846}},"Address":{"Label":"Rath Beg, Kinsale, County Cork, P17, Ireland","Country":"IRL","County":"County Cork","City":"Kinsale","District":"Rath Beg","Street":"Rath Beg","PostalCode":"P17","AdditionalData":[{"value":"Ireland","key":"CountryName"},{"value":"County Cork","key":"CountyName"}]},"MapReference":{"ReferenceId":"850443044","Spot":0.0,"SideOfStreet":"right","CountryId":"20403667","CountyId":"20411183","CityId":"20514491","DistrictId":"20514697"}}},{"Relevance":1.0,"Distance":68.8,"MatchLevel":"street","MatchQuality":{"Country":1.0,"County":1.0,"City":1.0,"District":1.0,"Street":[1.0],"PostalCode":1.0},"Location":{"LocationId":"NT_vpUJOcY3ADH2fHiS-J-6JA_l_850443043_R","LocationType":"point","DisplayPosition":{"Latitude":51.7119412,"Longitude":-8.5284453},"MapView":{"TopLeft":{"Latitude":51.71197,"Longitude":-8.52846},"BottomRight":{"Latitude":51.70982,"Longitude":-8.52766}},"Address":{"Label":"Rath Beg, Kinsale, County Cork, P17, Ireland","Country":"IRL","County":"County Cork","City":"Kinsale","District":"Rath Beg","Street":"Rath Beg","PostalCode":"P17","AdditionalData":[{"value":"Ireland","key":"CountryName"},{"value":"County Cork","key":"CountyName"}]},"MapReference":{"ReferenceId":"850443043","Spot":0.99,"SideOfStreet":"right","CountryId":"20403667","CountyId":"20411183","CityId":"20514491","DistrictId":"20514697"}}},{"Relevance":1.0,"Distance":84.2,"MatchLevel":"street","MatchQuality":{"Country":1.0,"County":1.0,"City":1.0,"District":1.0,"Street":[1.0],"PostalCode":1.0},"Location":{"LocationId":"NT_vpUJOcY3ADH2fHiS-J-6JA_l_850443042_R","LocationType":"point","DisplayPosition":{"Latitude":51.7126,"Longitude":-8.52882},"MapView":{"TopLeft":{"Latitude":51.71293,"Longitude":-8.52908},"BottomRight":{"Latitude":51.7126,"Longitude":-8.52882}},"Address":{"Label":"Rath Beg, Kinsale, County Cork, P17, Ireland","Country":"IRL","County":"County Cork","City":"Kinsale","District":"Rath Beg","Street":"Rath Beg","PostalCode":"P17","AdditionalData":[{"value":"Ireland","key":"CountryName"},{"value":"County Cork","key":"CountyName"}]},"MapReference":{"ReferenceId":"850443042","Spot":0.0,"SideOfStreet":"right","CountryId":"20403667","CountyId":"20411183","CityId":"20514491","DistrictId":"20514697"}}},{"Relevance":1.0,"Distance":84.2,"MatchLevel":"street","MatchQuality":{"Country":1.0,"County":1.0,"City":1.0,"District":1.0,"Street":[1.0],"PostalCode":1.0},"Location":{"LocationId":"NT_-iw4WyqXTF8fOs-JGD9rgD_l_850443047_R","LocationType":"point","DisplayPosition":{"Latitude":51.7126,"Longitude":-8.52882},"MapView":{"TopLeft":{"Latitude":51.7126,"Longitude":-8.52941},"BottomRight":{"Latitude":51.71251,"Longitude":-8.52882}},"Address":{"Label":"Abbey Fort, Kinsale, County Cork, P17, Ireland","Country":"IRL","County":"County Cork","City":"Kinsale","District":"Rath Beg","Street":"Abbey Fort","PostalCode":"P17","AdditionalData":[{"value":"Ireland","key":"CountryName"},{"value":"County Cork","key":"CountyName"}]},"MapReference":{"ReferenceId":"850443047","Spot":1.0,"SideOfStreet":"right","CountryId":"20403667","CountyId":"20411183","CityId":"20514491","DistrictId":"20514697"}}},{"Relevance":1.0,"Distance":87.4,"MatchLevel":"houseNumber","MatchQuality":{"Country":1.0,"County":1.0,"City":1.0,"District":1.0,"Street":[1.0],"HouseNumber":1.0,"PostalCode":1.0},"MatchType":"interpolated","Location":{"LocationId":"NT_QiE0mPE.GzGcOavcmMhRiC_xcD","LocationType":"point","DisplayPosition":{"Latitude":51.71194,"Longitude":-8.52866},"MapView":{"TopLeft":{"Latitude":51.7130642,"Longitude":-8.5304743},"BottomRight":{"Latitude":51.7108158,"Longitude":-8.5268457}},"Address":{"Label":"17 Aster Lawn, Kinsale, County Cork, P17 CX26, Ireland","Country":"IRL","County":"County Cork","City":"Kinsale","District":"Rath Beg","Street":"Aster Lawn","HouseNumber":"17","PostalCode":"P17 CX26","AdditionalData":[{"value":"Ireland","key":"CountryName"},{"value":"County Cork","key":"CountyName"}]},"MapReference":{"ReferenceId":"851868363","Spot":1.0,"SideOfStreet":"right","CountryId":"20403667","CountyId":"20411183","CityId":"20514491","DistrictId":"20514697","AddressId":"677477530","RoadLinkId":"231259704"}}},{"Relevance":1.0,"Distance":93.3,"MatchLevel":"postalCode","MatchQuality":{"PostalCode":1.0},"MatchType":"interpolated","Location":{"LocationId":"NT_QiE0mPE.GzGcOavcmMhRiC_xcD","LocationType":"point","DisplayPosition":{"Latitude":51.71174,"Longitude":-8.52863},"MapView":{"TopLeft":{"Latitude":51.7207332,"Longitude":-8.5431441},"BottomRight":{"Latitude":51.7027468,"Longitude":-8.5141159}},"Address":{"Label":"P17 V258, Kinsale, Ireland","Country":"IRL","County":"County Cork","City":"Kinsale","PostalCode":"P17 V258","AdditionalData":[{"value":"Ireland","key":"CountryName"},{"value":"County Cork","key":"CountyName"}]},"MapReference":{"ReferenceId":"851868363","Spot":1.0,"SideOfStreet":"neither","CountryId":"20403667","CountyId":"20411183","CityId":"20514491"}}},{"Relevance":1.0,"Distance":117.2,"MatchLevel":"street","MatchQuality":{"Country":1.0,"County":1.0,"City":1.0,"District":1.0,"Street":[1.0],"PostalCode":1.0},"Location":{"LocationId":"NT_0En0RVrrJA.EaNKAuSCCFB_l_589022938_R","LocationType":"point","DisplayPosition":{"Latitude":51.71293,"Longitude":-8.52908},"MapView":{"TopLeft":{"Latitude":51.71353,"Longitude":-8.52918},"BottomRight":{"Latitude":51.71293,"Longitude":-8.52908}},"Address":{"Label":"Abbey-Lands, Kinsale, County Cork, P17, Ireland","Country":"IRL","County":"County Cork","City":"Kinsale","District":"Abbey-Lands","Street":"Abbey-Lands","PostalCode":"P17","AdditionalData":[{"value":"Ireland","key":"CountryName"},{"value":"County Cork","key":"CountyName"}]},"MapReference":{"ReferenceId":"589022938","Spot":0.0,"SideOfStreet":"right","CountryId":"20403667","CountyId":"20411183","CityId":"20514491","DistrictId":"20514492"}}},{"Relevance":1.0,"Distance":121.1,"MatchLevel":"street","MatchQuality":{"Country":1.0,"County":1.0,"City":1.0,"District":1.0,"Street":[1.0],"PostalCode":1.0},"Location":{"LocationId":"NT_-iw4WyqXTF8fOs-JGD9rgD_l_850443046_R","LocationType":"point","DisplayPosition":{"Latitude":51.71251,"Longitude":-8.52941},"MapView":{"TopLeft":{"Latitude":51.71251,"Longitude":-8.52996},"BottomRight":{"Latitude":51.71245,"Longitude":-8.52941}},"Address":{"Label":"Abbey Fort, Kinsale, County Cork, P17, Ireland","Country":"IRL","County":"County Cork","City":"Kinsale","District":"Rath Beg","Street":"Abbey Fort","PostalCode":"P17","AdditionalData":[{"value":"Ireland","key":"CountryName"},{"value":"County Cork","key":"CountyName"}]},"MapReference":{"ReferenceId":"850443046","Spot":1.0,"SideOfStreet":"right","CountryId":"20403667","CountyId":"20411183","CityId":"20514491","DistrictId":"20514697"}}},{"Relevance":1.0,"Distance":122.7,"MatchLevel":"houseNumber","MatchQuality":{"Country":1.0,"County":1.0,"City":1.0,"District":1.0,"Street":[1.0],"HouseNumber":1.0,"PostalCode":1.0},"MatchType":"interpolated","Location":{"LocationId":"NT_l3.kJUVx3HWyFPJXKv5-JB_yQD","LocationType":"point","DisplayPosition":{"Latitude":51.7123,"Longitude":-8.52573},"MapView":{"TopLeft":{"Latitude":51.7134242,"Longitude":-8.5275443},"BottomRight":{"Latitude":51.7111758,"Longitude":-8.5239157}},"Address":{"Label":"24 Kinsale Manor, Kinsale, County Cork, P17 Y281, Ireland","Country":"IRL","County":"County Cork","City":"Kinsale","District":"Kinsale","Street":"Kinsale Manor","HouseNumber":"24","PostalCode":"P17 Y281","AdditionalData":[{"value":"Ireland","key":"CountryName"},{"value":"County Cork","key":"CountyName"}]},"MapReference":{"ReferenceId":"1236876572","Spot":0.1,"SideOfStreet":"left","CountryId":"20403667","CountyId":"20411183","CityId":"20514491","DistrictId":"20514642","AddressId":"795281895","RoadLinkId":"557587008"}}}]}]}}