{"Response":{"MetaInfo":{"Timestamp":"2020-03-28T10:22:55.290+0000","NextPageInformation":"2"},"View":[{"_type":"SearchResultsViewType","ViewId":0,"Result":[{"Relevance":1.0,"Distance":0.0,"Direction":0.0,"MatchLevel":"district","MatchQuality":{"Country":1.0,"State":1.0,"County":1.0,"City":1.0,"District":1.0,"PostalCode":1.0},"Location":{"LocationId":"NT_coeO1EymoD4.Atr1YXMFnA","LocationType":"point","DisplayPosition":{"Latitude":51.7566155,"Longitude":14.3289067},"MapView":{"TopLeft":{"Latitude":51.79431,"Longitude":14.2771},"BottomRight":{"Latitude":51.71794,"Longitude":14.39033}},"Address":{"Label":"Cottbus, Brandenburg, Deutschland","Country":"DEU","State":"Brandenburg","County":"Cottbus","City":"Cottbus","District":"Cottbus","PostalCode":"03046","AdditionalData":[{"value":"Deutschland","key":"CountryName"},{"value":"Brandenburg","key":"StateName"},{"value":"Cottbus","key":"CountyName"}]},"MapReference":{"ReferenceId":"565037161","SideOfStreet":"neither","CountryId":"20147700","StateId":"20187428","CountyId":"20187460","CityId":"20187461","DistrictId":"20187463"}}},{"Relevance":1.0,"Distance":9.2,"MatchLevel":"houseNumber","MatchQuality":{"Country":1.0,"State":1.0,"County":1.0,"City":1.0,"District":1.0,"Street":[1.0],"HouseNumber":1.0,"PostalCode":1.0},"MatchType":"interpolated","Location":{"LocationId":"NT_022ln3fsyQWCgIWx19cP3D_xAD","LocationType":"point","DisplayPosition":{"Latitude":51.75672,"Longitude":14.32905},"MapView":{"TopLeft":{"Latitude":51.7578442,"Longitude":14.3272339},"BottomRight":{"Latitude":51.7555958,"Longitude":14.3308661}},"Address":{"Label":"Schwanstraße 10, 03046 Cottbus, Deutschland","Country":"DEU","State":"Brandenburg","County":"Cottbus","City":"Cottbus","District":"Cottbus","Street":"Schwanstraße","HouseNumber":"10","PostalCode":"03046","AdditionalData":[{"value":"Deutschland","key":"CountryName"},{"value":"Brandenburg","key":"StateName"},{"value":"Cottbus","key":"CountyName"}]},"MapReference":{"ReferenceId":"53459387","Spot":0.67,"SideOfStreet":"left","CountryId":"20147700","StateId":"20187428","CountyId":"20187460","CityId":"20187461","DistrictId":"20187463","AddressId":"182544325","RoadLinkId":"37673320"}}},{"Relevance":1.0,"Distance":35.5,"MatchLevel":"houseNumber","MatchQuality":{"Country":1.0,"State":1.0,"County":1.0,"City":1.0,"District":1.0,"Street":[1.0],"HouseNumber":1.0,"PostalCode":1.0},"MatchType":"interpolated","Location":{"LocationId":"NT_t.bADEqH7g8cnPcQS.ERrB_xUD","LocationType":"point","DisplayPosition":{"Latitude":51.75706,"Longitude":14.3288},"MapView":{"TopLeft":{"Latitude":51.7581842,"Longitude":14.3269839},"BottomRight":{"Latitude":51.7559358,"Longitude":14.3306161}},"Address":{"Label":"Karl-Liebknecht-Straße 15, 03046 Cottbus, Deutschland","Country":"DEU","State":"Brandenburg","County":"Cottbus","City":"Cottbus","District":"Cottbus","Street":"Karl-Liebknecht-Straße","HouseNumber":"15","PostalCode":"03046","AdditionalData":[{"value":"Deutschland","key":"CountryName"},{"value":"Brandenburg","key":"StateName"},{"value":"Cottbus","key":"CountyName"}]},"MapReference":{"ReferenceId":"1189933697","Spot":0.39,"SideOfStreet":"right","CountryId":"20147700","StateId":"20187428","CountyId":"20187460","CityId":"20187461","DistrictId":"20187463","AddressId":"183278144","RoadLinkId":"499183717"}}},{"Relevance":1.0,"Distance":43.5,"MatchLevel":"houseNumber","MatchQuality":{"Country":1.0,"State":1.0,"County":1.0,"City":1.0,"District":1.0,"Street":[1.0],"HouseNumber":1.0,"PostalCode":1.0},"MatchType":"interpolated","Location":{"LocationId":"NT_sFN1CkGnFVMdhpGicYQCvB_xkD","LocationType":"point","DisplayPosition":{"Latitude":51.75641,"Longitude":14.32812},"MapView":{"TopLeft":{"Latitude":51.7575342,"Longitude":14.3263039},"BottomRight":{"Latitude":51.7552858,"Longitude":14.3299361}},"Address":{"Label":"Bahnhofstraße 19, 03046 Cottbus, Deutschland","Country":"DEU","State":"Brandenburg","County":"Cottbus","City":"Cottbus","District":"Cottbus","Street":"Bahnhofstraße","HouseNumber":"19","PostalCode":"03046","AdditionalData":[{"value":"Deutschland","key":"CountryName"},{"value":"Brandenburg","key":"StateName"},{"value":"Cottbus","key":"CountyName"}]},"MapReference":{"ReferenceId":"1189961193","Spot":0.32,"SideOfStreet":"right","CountryId":"20147700","StateId":"20187428","CountyId":"20187460","CityId":"20187461","DistrictId":"20187463","AddressId":"181874495","RoadLinkId":"499221017"}}},{"Relevance":1.0,"Distance":47.6,"MatchLevel":"houseNumber","MatchQuality":{"Country":1.0,"State":1.0,"County":1.0,"City":1.0,"District":1.0,"Street":[1.0],"HouseNumber":1.0,"PostalCode":1.0},"MatchType":"interpolated","Location":{"LocationId":"NT_t.bADEqH7g8cnPcQS.ERrB_xcD","LocationType":"point","DisplayPosition":{"Latitude":51.75704,"Longitude":14.32836},"MapView":{"TopLeft":{"Latitude":51.7581642,"Longitude":14.3265439},"BottomRight":{"Latitude":51.7559158,"Longitude":14.3301761}},"Address":{"Label":"Karl-Liebknecht-Straße 17, 03046 Cottbus, Deutschland","Country":"DEU","State":"Brandenburg","County":"Cottbus","City":"Cottbus","District":"Cottbus","Street":"Karl-Liebknecht-Straße","HouseNumber":"17","PostalCode":"03046","AdditionalData":[{"value":"Deutschland","key":"CountryName"},{"value":"Brandenburg","key":"StateName"},{"value":"Cottbus","key":"CountyName"}]},"MapReference":{"ReferenceId":"780340768","Spot":0.58,"SideOfStreet":"right","CountryId":"20147700","StateId":"20187428","CountyId":"20187460","CityId":"20187461","DistrictId":"20187463","AddressId":"182669762","RoadLinkId":"173622758"}}},{"Relevance":1.0,"Distance":49.8,"MatchLevel":"houseNumber","MatchQuality":{"Country":1.0,"State":1.0,"County":1.0,"City":1.0,"District":1.0,"Street":[1.0],"HouseNumber":1.0,"PostalCode":1.0},"MatchType":"interpolated","Location":{"LocationId":"NT_t.bADEqH7g8cnPcQS.ERrB_xID","LocationType":"point","DisplayPosition":{"Latitude":51.75709,"Longitude":14.32934},"MapView":{"TopLeft":{"Latitude":51.7582142,"Longitude":14.3275239},"BottomRight":{"Latitude":51.7559658,"Longitude":14.3311561}},"Address":{"Label":"Karl-Liebknecht-Straße 12, 03046 Cottbus, Deutschland","Country":"DEU","State":"Brandenburg","County":"Cottbus","City":"Cottbus","District":"Cottbus","Street":"Karl-Liebknecht-Straße","HouseNumber":"12","PostalCode":"03046","AdditionalData":[{"value":"Deutschland","key":"CountryName"},{"value":"Brandenburg","key":"StateName"},{"value":"Cottbus","key":"CountyName"}]},"MapReference":{"ReferenceId":"1189933698","Spot":0.24,"SideOfStreet":"right","CountryId":"20147700","StateId":"20187428","CountyId":"20187460","CityId":"20187461","DistrictId":"20187463","AddressId":"182660923","RoadLinkId":"499183718"}}},{"Relevance":1.0,"Distance":51.2,"MatchLevel":"houseNumber","MatchQuality":{"Country":1.0,"State":1.0,"County":1.0,"City":1.0,"District":1.0,"Street":[1.0],"HouseNumber":1.0,"PostalCode":1.0},"MatchType":"interpolated","Location":{"LocationId":"NT_sFN1CkGnFVMdhpGicYQCvB_yAD","LocationType":"point","DisplayPosition":{"Latitude":51.75628,"Longitude":14.32813},"MapView":{"TopLeft":{"Latitude":51.7574042,"Longitude":14.3263139},"BottomRight":{"Latitude":51.7551558,"Longitude":14.3299461}},"Address":{"Label":"Bahnhofstraße 20, 03046 Cottbus, Deutschland","Country":"DEU","State":"Brandenburg","County":"Cottbus","City":"Cottbus","District":"Cottbus","Street":"Bahnhofstraße","HouseNumber":"20","PostalCode":"03046","AdditionalData":[{"value":"Deutschland","key":"CountryName"},{"value":"Brandenburg","key":"StateName"},{"value":"Cottbus","key":"CountyName"}]},"MapReference":{"ReferenceId":"1189961135","Spot":0.76,"SideOfStreet":"right","CountryId":"20147700","StateId":"20187428","CountyId":"20187460","CityId":"20187461","DistrictId":"20187463","AddressId":"182679367","RoadLinkId":"499220891"}}},{"Relevance":1.0,"Distance":55.7,"MatchLevel":"houseNumber","MatchQuality":{"Country":1.0,"State":1.0,"County":1.0,"City":1.0,"District":1.0,"Street":[1.0],"HouseNumber":1.0,"PostalCode":1.0},"MatchType":"interpolated","Location":{"LocationId":"NT_sFN1CkGnFVMdhpGicYQCvB_1YTQ","LocationType":"point","DisplayPosition":{"Latitude":51.75666,"Longitude":14.3281},"MapView":{"TopLeft":{"Latitude":51.7577842,"Longitude":14.3262839},"BottomRight":{"Latitude":51.7555358,"Longitude":14.3299161}},"Address":{"Label":"Bahnhofstraße 56A, 03046 Cottbus, Deutschland","Country":"DEU","State":"Brandenburg","County":"Cottbus","City":"Cottbus","District":"Cottbus","Street":"Bahnhofstraße","HouseNumber":"56A","PostalCode":"03046","AdditionalData":[{"value":"Deutschland","key":"CountryName"},{"value":"Brandenburg","key":"StateName"},{"value":"Cottbus","key":"CountyName"}]},"MapReference":{"ReferenceId":"1189961194","Spot":0.56,"SideOfStreet":"left","CountryId":"20147700","StateId":"20187428","CountyId":"20187460","CityId":"20187461","DistrictId":"20187463","AddressId":"182486547","RoadLinkId":"499221018"}}},{"Relevance":1.0,"Distance":60.4,"MatchLevel":"houseNumber","MatchQuality":{"Country":1.0,"State":1.0,"County":1.0,"City":1.0,"District":1.0,"Street":[1.0],"HouseNumber":1.0,"PostalCode":1.0},"MatchType":"interpolated","Location":{"LocationId":"NT_sFN1CkGnFVMdhpGicYQCvB_1cD","LocationType":"point","DisplayPosition":{"Latitude":51.75683,"Longitude":14.3281},"MapView":{"TopLeft":{"Latitude":51.7579542,"Longitude":14.3262839},"BottomRight":{"Latitude":51.7557058,"Longitude":14.3299161}},"Address":{"Label":"Bahnhofstraße 57, 03046 Cottbus, Deutschland","Country":"DEU","State":"Brandenburg","County":"Cottbus","City":"Cottbus","District":"Cottbus","Street":"Bahnhofstraße","HouseNumber":"57","PostalCode":"03046","AdditionalData":[{"value":"Deutschland","key":"CountryName"},{"value":"Brandenburg","key":"StateName"},{"value":"Cottbus","key":"CountyName"}]},"MapReference":{"ReferenceId":"53459379","Spot":0.32,"SideOfStreet":"left","CountryId":"20147700","StateId":"20187428","CountyId":"20187460","CityId":"20187461","DistrictId":"20187463","AddressId":"183386440","RoadLinkId":"37508204"}}},{"Relevance":1.0,"Distance":71.5,"MatchLevel":"street","MatchQuality":{"Country":1.0,"State":1.0,"County":1.0,"City":1.0,"District":1.0,"Street":[1.0],"PostalCode":1.0},"Location":{"LocationId":"NT_t.bADEqH7g8cnPcQS.ERrB_l_1189897456_R","LocationType":"point","DisplayPosition":{"Latitude":51.75702,"Longitude":14.3281},"MapView":{"TopLeft":{"Latitude":51.75702,"Longitude":14.32756},"BottomRight":{"Latitude":51.75699,"Longitude":14.3281}},"Address":{"Label":"Karl-Liebknecht-Straße, 03046 Cottbus, Deutschland","Country":"DEU","State":"Brandenburg","County":"Cottbus","City":"Cottbus","District":"Cottbus","Street":"Karl-Liebknecht-Straße","PostalCode":"03046","AdditionalData":[{"value":"Deutschland","key":"CountryName"},{"value":"Brandenburg","key":"StateName"},{"value":"Cottbus","key":"CountyName"}]},"MapReference":{"ReferenceId":"1189897456","Spot":1.0,"SideOfStreet":"right","CountryId":"20147700","StateId":"20187428","CountyId":"20187460","CityId":"20187461","DistrictId":"20187463"}}}]}]}}