{"Response":{"MetaInfo":{"Timestamp":"2020-03-28T10:17:37.266+0000","NextPageInformation":"2"},"View":[{"_type":"SearchResultsViewType","ViewId":0,"Result":[{"Relevance":1.0,"Distance":0.0,"Direction":0.0,"MatchLevel":"district","MatchQuality":{"Country":1.0,"State":1.0,"County":1.0,"City":1.0,"District":1.0,"PostalCode":1.0},"Location":{"LocationId":"NT_coeO1EymoD4.Atr1YXMFnA","LocationType":"point","DisplayPosition":{"Latitude":51.745591,"Longitude":14.3211327},"MapView":{"TopLeft":{"Latitude":51.79431,"Longitude":14.2771},"BottomRight":{"Latitude":51.71794,"Longitude":14.39033}},"Address":{"Label":"Cottbus, Brandenburg, Deutschland","Country":"DEU","State":"Brandenburg","County":"Cottbus","City":"Cottbus","District":"Cottbus","PostalCode":"03046","AdditionalData":[{"value":"Deutschland","key":"CountryName"},{"value":"Brandenburg","key":"StateName"},{"value":"Cottbus","key":"CountyName"}]},"MapReference":{"ReferenceId":"565037161","SideOfStreet":"neither","CountryId":"20147700","StateId":"20187428","CountyId":"20187460","CityId":"20187461","DistrictId":"20187463"}}},{"Relevance":1.0,"Distance":16.9,"MatchLevel":"houseNumber","MatchQuality":{"Country":1.0,"State":1.0,"County":1.0,"City":1.0,"District":1.0,"Street":[1.0],"HouseNumber":1.0,"PostalCode":1.0},"MatchType":"interpolated","Location":{"LocationId":"NT_mHzvvEDWK7x.fGP5djd42B_2YD","LocationType":"point","DisplayPosition":{"Latitude":51.74551,"Longitude":14.32174},"MapView":{"TopLeft":{"Latitude":51.7466342,"Longitude":14.3199244},"BottomRight":{"Latitude":51.7443858,"Longitude":14.3235556}},"Address":{"Label":"Senftenberger Straße 66, 03048 Cottbus, Deutschland","Country":"DEU","State":"Brandenburg","County":"Cottbus","City":"Cottbus","District":"Cottbus","Street":"Senftenberger Straße","HouseNumber":"66","PostalCode":"03048","AdditionalData":[{"value":"Deutschland","key":"CountryName"},{"value":"Brandenburg","key":"StateName"},{"value":"Cottbus","key":"CountyName"}]},"MapReference":{"ReferenceId":"53459960","Spot":0.55,"SideOfStreet":"left","CountryId":"20147700","StateId":"20187428","CountyId":"20187460","CityId":"20187461","DistrictId":"20187463","AddressId":"181877166","RoadLinkId":"37551595"}}},{"Relevance":1.0,"Distance":37.8,"MatchLevel":"houseNumber","MatchQuality":{"Country":1.0,"State":1.0,"County":1.0,"City":1.0,"District":1.0,"Street":[1.0],"HouseNumber":1.0,"PostalCode":1.0},"MatchType":"interpolated","Location":{"LocationId":"NT_XR-s-d45ClSA139er0dRSB_yQD","LocationType":"point","DisplayPosition":{"Latitude":51.74608,"Longitude":14.32118},"MapView":{"TopLeft":{"Latitude":51.7472042,"Longitude":14.3193644},"BottomRight":{"Latitude":51.7449558,"Longitude":14.3229956}},"Address":{"Label":"Finsterwalder Straße 24, 03048 Cottbus, Deutschland","Country":"DEU","State":"Brandenburg","County":"Cottbus","City":"Cottbus","District":"Cottbus","Street":"Finsterwalder Straße","HouseNumber":"24","PostalCode":"03048","AdditionalData":[{"value":"Deutschland","key":"CountryName"},{"value":"Brandenburg","key":"StateName"},{"value":"Cottbus","key":"CountyName"}]},"MapReference":{"ReferenceId":"53459910","Spot":0.73,"SideOfStreet":"right","CountryId":"20147700","StateId":"20187428","CountyId":"20187460","CityId":"20187461","DistrictId":"20187463","AddressId":"183287983","RoadLinkId":"37437960"}}},{"Relevance":1.0,"Distance":61.8,"MatchLevel":"houseNumber","MatchQuality":{"Country":1.0,"State":1.0,"County":1.0,"City":1.0,"District":1.0,"Street":[1.0],"HouseNumber":1.0,"PostalCode":1.0},"MatchType":"interpolated","Location":{"LocationId":"NT_ggdpXtKsbi2U47DY5lf.pA_xAjQ","LocationType":"point","DisplayPosition":{"Latitude":51.74529,"Longitude":14.31966},"MapView":{"TopLeft":{"Latitude":51.7464142,"Longitude":14.3178444},"BottomRight":{"Latitude":51.7441658,"Longitude":14.3214756}},"Address":{"Label":"Welzower Straße 10B, 03048 Cottbus, Deutschland","Country":"DEU","State":"Brandenburg","County":"Cottbus","City":"Cottbus","District":"Cottbus","Street":"Welzower Straße","HouseNumber":"10B","PostalCode":"03048","AdditionalData":[{"value":"Deutschland","key":"CountryName"},{"value":"Brandenburg","key":"StateName"},{"value":"Cottbus","key":"CountyName"}]},"MapReference":{"ReferenceId":"53459959","Spot":0.38,"SideOfStreet":"right","CountryId":"20147700","StateId":"20187428","CountyId":"20187460","CityId":"20187461","DistrictId":"20187463","AddressId":"621815876","RoadLinkId":"37905368"}}},{"Relevance":1.0,"Distance":72.4,"MatchLevel":"houseNumber","MatchQuality":{"Country":1.0,"State":1.0,"County":1.0,"City":1.0,"District":1.0,"Street":[1.0],"HouseNumber":1.0,"PostalCode":1.0},"MatchType":"interpolated","Location":{"LocationId":"NT_XR-s-d45ClSA139er0dRSB_yEjQ","LocationType":"point","DisplayPosition":{"Latitude":51.74608,"Longitude":14.32201},"MapView":{"TopLeft":{"Latitude":51.7472042,"Longitude":14.3201944},"BottomRight":{"Latitude":51.7449558,"Longitude":14.3238256}},"Address":{"Label":"Finsterwalder Straße 21B, 03048 Cottbus, Deutschland","Country":"DEU","State":"Brandenburg","County":"Cottbus","City":"Cottbus","District":"Cottbus","Street":"Finsterwalder Straße","HouseNumber":"21B","PostalCode":"03048","AdditionalData":[{"value":"Deutschland","key":"CountryName"},{"value":"Brandenburg","key":"StateName"},{"value":"Cottbus","key":"CountyName"}]},"MapReference":{"ReferenceId":"53459908","Spot":0.15,"SideOfStreet":"right","CountryId":"20147700","StateId":"20187428","CountyId":"20187460","CityId":"20187461","DistrictId":"20187463","AddressId":"182463139","RoadLinkId":"37863196"}}},{"Relevance":1.0,"Distance":80.9,"MatchLevel":"houseNumber","MatchQuality":{"Country":1.0,"State":1.0,"County":1.0,"City":1.0,"District":1.0,"Street":[1.0],"HouseNumber":1.0,"PostalCode":1.0},"MatchType":"interpolated","Location":{"LocationId":"NT_mHzvvEDWK7x.fGP5djd42B_2kD","LocationType":"point","DisplayPosition":{"Latitude":51.74628,"Longitude":14.32173},"MapView":{"TopLeft":{"Latitude":51.7474042,"Longitude":14.3199143},"BottomRight":{"Latitude":51.7451558,"Longitude":14.3235457}},"Address":{"Label":"Senftenberger Straße 69, 03048 Cottbus, Deutschland","Country":"DEU","State":"Brandenburg","County":"Cottbus","City":"Cottbus","District":"Cottbus","Street":"Senftenberger Straße","HouseNumber":"69","PostalCode":"03048","AdditionalData":[{"value":"Deutschland","key":"CountryName"},{"value":"Brandenburg","key":"StateName"},{"value":"Cottbus","key":"CountyName"}]},"MapReference":{"ReferenceId":"53459909","Spot":0.11,"SideOfStreet":"left","CountryId":"20147700","StateId":"20187428","CountyId":"20187460","CityId":"20187461","DistrictId":"20187463","AddressId":"182618150","RoadLinkId":"37761222"}}},{"Relevance":1.0,"Distance":88.0,"MatchLevel":"houseNumber","MatchQuality":{"Country":1.0,"State":1.0,"County":1.0,"City":1.0,"District":1.0,"Street":[1.0],"HouseNumber":1.0,"PostalCode":1.0},"MatchType":"interpolated","Location":{"LocationId":"NT_L6iiDn1cIlOxkvEi2csaNB_zcD","LocationType":"point","DisplayPosition":{"Latitude":51.7448,"Longitude":14.32114},"MapView":{"TopLeft":{"Latitude":51.7459242,"Longitude":14.3193244},"BottomRight":{"Latitude":51.7436758,"Longitude":14.3229556}},"Address":{"Label":"Leipziger Straße 37, 03048 Cottbus, Deutschland","Country":"DEU","State":"Brandenburg","County":"Cottbus","City":"Cottbus","District":"Cottbus","Street":"Leipziger Straße","HouseNumber":"37","PostalCode":"03048","AdditionalData":[{"value":"Deutschland","key":"CountryName"},{"value":"Brandenburg","key":"StateName"},{"value":"Cottbus","key":"CountyName"}]},"MapReference":{"ReferenceId":"53459961","Spot":0.71,"SideOfStreet":"right","CountryId":"20147700","StateId":"20187428","CountyId":"20187460","CityId":"20187461","DistrictId":"20187463","AddressId":"182478978","RoadLinkId":"37778222"}}},{"Relevance":1.0,"Distance":119.1,"MatchLevel":"houseNumber","MatchQuality":{"Country":1.0,"State":1.0,"County":1.0,"City":1.0,"District":1.0,"Street":[1.0],"HouseNumber":1.0,"PostalCode":1.0},"MatchType":"interpolated","Location":{"LocationId":"NT_ggdpXtKsbi2U47DY5lf.pA_5ME","LocationType":"point","DisplayPosition":{"Latitude":51.74639,"Longitude":14.31972},"MapView":{"TopLeft":{"Latitude":51.7475142,"Longitude":14.3179043},"BottomRight":{"Latitude":51.7452658,"Longitude":14.3215357}},"Address":{"Label":"Welzower Straße 9C, 03048 Cottbus, Deutschland","Country":"DEU","State":"Brandenburg","County":"Cottbus","City":"Cottbus","District":"Cottbus","Street":"Welzower Straße","HouseNumber":"9C","PostalCode":"03048","AdditionalData":[{"value":"Deutschland","key":"CountryName"},{"value":"Brandenburg","key":"StateName"},{"value":"Cottbus","key":"CountyName"}]},"MapReference":{"ReferenceId":"53459904","Spot":0.17,"SideOfStreet":"right","CountryId":"20147700","StateId":"20187428","CountyId":"20187460","CityId":"20187461","DistrictId":"20187463","AddressId":"181902026","RoadLinkId":"38036734"}}},{"Relevance":1.0,"Distance":125.6,"MatchLevel":"houseNumber","MatchQuality":{"Country":1.0,"State":1.0,"County":1.0,"City":1.0,"District":1.0,"Street":[1.0],"HouseNumber":1.0,"PostalCode":1.0},"MatchType":"interpolated","Location":{"LocationId":"NT_mHzvvEDWK7x.fGP5djd42B_yED","LocationType":"point","DisplayPosition":{"Latitude":51.74453,"Longitude":14.32176},"MapView":{"TopLeft":{"Latitude":51.7456542,"Longitude":14.3199444},"BottomRight":{"Latitude":51.7434058,"Longitude":14.3235756}},"Address":{"Label":"Senftenberger Straße 21, 03048 Cottbus, Deutschland","Country":"DEU","State":"Brandenburg","County":"Cottbus","City":"Cottbus","District":"Cottbus","Street":"Senftenberger Straße","HouseNumber":"21","PostalCode":"03048","AdditionalData":[{"value":"Deutschland","key":"CountryName"},{"value":"Brandenburg","key":"StateName"},{"value":"Cottbus","key":"CountyName"}]},"MapReference":{"ReferenceId":"53459982","Spot":0.39,"SideOfStreet":"right","CountryId":"20147700","StateId":"20187428","CountyId":"20187460","CityId":"20187461","DistrictId":"20187463","AddressId":"183382980","RoadLinkId":"37769537"}}},{"Relevance":1.0,"Distance":134.4,"MatchLevel":"houseNumber","MatchQuality":{"Country":1.0,"State":1.0,"County":1.0,"City":1.0,"District":1.0,"Street":[1.0],"HouseNumber":1.0,"PostalCode":1.0},"MatchType":"interpolated","Location":{"LocationId":"NT_XR-s-d45ClSA139er0dRSB_zAD","LocationType":"point","DisplayPosition":{"Latitude":51.74608,"Longitude":14.31929},"MapView":{"TopLeft":{"Latitude":51.7472042,"Longitude":14.3174744},"BottomRight":{"Latitude":51.7449558,"Longitude":14.3211056}},"Address":{"Label":"Finsterwalder Straße 30, 03048 Cottbus, Deutschland","Country":"DEU","State":"Brandenburg","County":"Cottbus","City":"Cottbus","District":"Cottbus","Street":"Finsterwalder Straße","HouseNumber":"30","PostalCode":"03048","AdditionalData":[{"value":"Deutschland","key":"CountryName"},{"value":"Brandenburg","key":"StateName"},{"value":"Cottbus","key":"CountyName"}]},"MapReference":{"ReferenceId":"53459905","Spot":0.57,"SideOfStreet":"right","CountryId":"20147700","StateId":"20187428","CountyId":"20187460","CityId":"20187461","DistrictId":"20187463","AddressId":"182523025","RoadLinkId":"37448892"}}}]}]}}