{"Response":{"MetaInfo":{"Timestamp":"2020-03-28T10:35:55.924+0000","NextPageInformation":"2"},"View":[{"_type":"SearchResultsViewType","ViewId":0,"Result":[{"Relevance":1.0,"Distance":0.0,"Direction":0.0,"MatchLevel":"district","MatchQuality":{"Country":1.0,"State":1.0,"County":1.0,"City":1.0,"District":1.0,"PostalCode":1.0},"Location":{"LocationId":"NT_rhL27ifj.v.W21PUctQtrD","LocationType":"point","DisplayPosition":{"Latitude":51.7314599,"Longitude":-4.7187235},"MapView":{"TopLeft":{"Latitude":51.74053,"Longitude":-4.72148},"BottomRight":{"Latitude":51.72833,"Longitude":-4.70498}},"Address":{"Label":"Kilgetty, Wales, United Kingdom","Country":"GBR","State":"Wales","County":"Dyfed","City":"Kilgetty","District":"Kilgetty","PostalCode":"SA68 0","AdditionalData":[{"value":"United Kingdom","key":"CountryName"},{"value":"Wales","key":"StateName"},{"value":"Dyfed","key":"CountyName"}]},"MapReference":{"ReferenceId":"813495909","SideOfStreet":"neither","StateId":"20287683","CountyId":"20340980","CityId":"20341271","DistrictId":"20341272"}}},{"Relevance":1.0,"Distance":57.0,"MatchLevel":"street","MatchQuality":{"Country":1.0,"State":1.0,"County":1.0,"City":1.0,"District":1.0,"PostalCode":1.0},"Location":{"LocationId":"NT_mONNuFox36eP7J1ra6LykA_l_17442625_R","LocationType":"point","DisplayPosition":{"Latitude":51.7319701,"Longitude":-4.7188032},"MapView":{"TopLeft":{"Latitude":51.73198,"Longitude":-4.72002},"BottomRight":{"Latitude":51.73178,"Longitude":-4.71874}},"Address":{"Label":"Kilgetty, SA68 0, United Kingdom","Country":"GBR","State":"Wales","County":"Dyfed","City":"Kilgetty","District":"Kilgetty","PostalCode":"SA68 0","AdditionalData":[{"value":"United Kingdom","key":"CountryName"},{"value":"Wales","key":"StateName"},{"value":"Dyfed","key":"CountyName"}]},"MapReference":{"ReferenceId":"17442625","Spot":0.95,"SideOfStreet":"right","StateId":"20287683","CountyId":"20340980","CityId":"20341271","DistrictId":"20341272"}}},{"Relevance":1.0,"Distance":57.8,"MatchLevel":"street","MatchQuality":{"Country":1.0,"State":1.0,"County":1.0,"City":1.0,"District":1.0,"PostalCode":1.0},"Location":{"LocationId":"NT_mONNuFox36eP7J1ra6LykA_l_18961058_R","LocationType":"point","DisplayPosition":{"Latitude":51.73198,"Longitude":-4.71874},"MapView":{"TopLeft":{"Latitude":51.73269,"Longitude":-4.71874},"BottomRight":{"Latitude":51.73198,"Longitude":-4.71517}},"Address":{"Label":"Kilgetty, SA68 0, United Kingdom","Country":"GBR","State":"Wales","County":"Dyfed","City":"Kilgetty","District":"Kilgetty","PostalCode":"SA68 0","AdditionalData":[{"value":"United Kingdom","key":"CountryName"},{"value":"Wales","key":"StateName"},{"value":"Dyfed","key":"CountyName"}]},"MapReference":{"ReferenceId":"18961058","Spot":0.0,"SideOfStreet":"right","StateId":"20287683","CountyId":"20340980","CityId":"20341271","DistrictId":"20341272"}}},{"Relevance":1.0,"Distance":59.8,"MatchLevel":"street","MatchQuality":{"Country":1.0,"State":1.0,"County":1.0,"City":1.0,"District":1.0,"PostalCode":1.0},"Location":{"LocationId":"NT_mONNuFox36eP7J1ra6LykA_l_17442767_R","LocationType":"point","DisplayPosition":{"Latitude":51.73137,"Longitude":-4.71958},"MapView":{"TopLeft":{"Latitude":51.73178,"Longitude":-4.72007},"BottomRight":{"Latitude":51.73036,"Longitude":-4.71958}},"Address":{"Label":"Kilgetty, SA68 0, United Kingdom","Country":"GBR","State":"Wales","County":"Dyfed","City":"Kilgetty","District":"Kilgetty","PostalCode":"SA68 0","AdditionalData":[{"value":"United Kingdom","key":"CountryName"},{"value":"Wales","key":"StateName"},{"value":"Dyfed","key":"CountyName"}]},"MapReference":{"ReferenceId":"17442767","Spot":0.64,"SideOfStreet":"right","StateId":"20287683","CountyId":"20340980","CityId":"20341271","DistrictId":"20341272"}}},{"Relevance":1.0,"Distance":63.1,"MatchLevel":"houseNumber","MatchQuality":{"Country":1.0,"State":1.0,"County":1.0,"City":1.0,"District":1.0,"Street":[1.0],"HouseNumber":1.0,"PostalCode":1.0},"MatchType":"interpolated","Location":{"LocationId":"NT_eBafIzbbiUyuybC4QUDjTB_l_17442611_R_yED","LocationType":"point","DisplayPosition":{"Latitude":51.7321001,"Longitude":-4.7186599},"MapView":{"TopLeft":{"Latitude":51.7332243,"Longitude":-4.720475},"BottomRight":{"Latitude":51.730976,"Longitude":-4.7168449}},"Address":{"Label":"21 Ash Park, Kilgetty, SA68 0XY, United Kingdom","Country":"GBR","State":"Wales","County":"Dyfed","City":"Kilgetty","District":"Kilgetty","Street":"Ash Park","HouseNumber":"21","PostalCode":"SA68 0XY","AdditionalData":[{"value":"United Kingdom","key":"CountryName"},{"value":"Wales","key":"StateName"},{"value":"Dyfed","key":"CountyName"}]},"MapReference":{"ReferenceId":"17442611","Spot":0.07,"SideOfStreet":"right","StateId":"20287683","CountyId":"20340980","CityId":"20341271","DistrictId":"20341272"}}},{"Relevance":1.0,"Distance":96.1,"MatchLevel":"street","MatchQuality":{"Country":1.0,"State":1.0,"County":1.0,"City":1.0,"District":1.0,"PostalCode":1.0},"Location":{"LocationId":"NT_mONNuFox36eP7J1ra6LykA_l_17442629_R","LocationType":"point","DisplayPosition":{"Latitude":51.73178,"Longitude":-4.72002},"MapView":{"TopLeft":{"Latitude":51.73178,"Longitude":-4.72036},"BottomRight":{"Latitude":51.73174,"Longitude":-4.72002}},"Address":{"Label":"Kilgetty, SA68 0, United Kingdom","Country":"GBR","State":"Wales","County":"Dyfed","City":"Kilgetty","District":"Kilgetty","PostalCode":"SA68 0","AdditionalData":[{"value":"United Kingdom","key":"CountryName"},{"value":"Wales","key":"StateName"},{"value":"Dyfed","key":"CountyName"}]},"MapReference":{"ReferenceId":"17442629","Spot":1.0,"SideOfStreet":"right","StateId":"20287683","CountyId":"20340980","CityId":"20341271","DistrictId":"20341272"}}},{"Relevance":1.0,"Distance":116.9,"MatchLevel":"street","MatchQuality":{"Country":1.0,"State":1.0,"County":1.0,"City":1.0,"District":1.0,"Street":[1.0],"PostalCode":1.0},"Location":{"LocationId":"NT_8TGqPDPEw2YxSFxrg35ZWA_l_17442630_R","LocationType":"point","DisplayPosition":{"Latitude":51.73174,"Longitude":-4.72036},"MapView":{"TopLeft":{"Latitude":51.73265,"Longitude":-4.72058},"BottomRight":{"Latitude":51.73174,"Longitude":-4.72035}},"Address":{"Label":"Cotswold Gardens, Kilgetty, SA68 0, United Kingdom","Country":"GBR","State":"Wales","County":"Dyfed","City":"Kilgetty","District":"Kilgetty","Street":"Cotswold Gardens","PostalCode":"SA68 0","AdditionalData":[{"value":"United Kingdom","key":"CountryName"},{"value":"Wales","key":"StateName"},{"value":"Dyfed","key":"CountyName"}]},"MapReference":{"ReferenceId":"17442630","Spot":0.0,"SideOfStreet":"right","StateId":"20287683","CountyId":"20340980","CityId":"20341271","DistrictId":"20341272"}}},{"Relevance":1.0,"Distance":116.9,"MatchLevel":"street","MatchQuality":{"Country":1.0,"State":1.0,"County":1.0,"City":1.0,"District":1.0,"PostalCode":1.0},"Location":{"LocationId":"NT_mONNuFox36eP7J1ra6LykA_l_17442636_R","LocationType":"point","DisplayPosition":{"Latitude":51.73174,"Longitude":-4.72036},"MapView":{"TopLeft":{"Latitude":51.73174,"Longitude":-4.72072},"BottomRight":{"Latitude":51.73169,"Longitude":-4.72036}},"Address":{"Label":"Kilgetty, SA68 0, United Kingdom","Country":"GBR","State":"Wales","County":"Dyfed","City":"Kilgetty","District":"Kilgetty","PostalCode":"SA68 0","AdditionalData":[{"value":"United Kingdom","key":"CountryName"},{"value":"Wales","key":"StateName"},{"value":"Dyfed","key":"CountyName"}]},"MapReference":{"ReferenceId":"17442636","Spot":1.0,"SideOfStreet":"right","StateId":"20287683","CountyId":"20340980","CityId":"20341271","DistrictId":"20341272"}}},{"Relevance":1.0,"Distance":139.9,"MatchLevel":"street","MatchQuality":{"Country":1.0,"State":1.0,"County":1.0,"City":1.0,"District":1.0,"PostalCode":1.0},"Location":{"LocationId":"NT_mONNuFox36eP7J1ra6LykA_l_1038380143_R","LocationType":"point","DisplayPosition":{"Latitude":51.73169,"Longitude":-4.72072},"MapView":{"TopLeft":{"Latitude":51.73169,"Longitude":-4.72126},"BottomRight":{"Latitude":51.73162,"Longitude":-4.72072}},"Address":{"Label":"Kilgetty, SA68 0, United Kingdom","Country":"GBR","State":"Wales","County":"Dyfed","City":"Kilgetty","District":"Kilgetty","PostalCode":"SA68 0","AdditionalData":[{"value":"United Kingdom","key":"CountryName"},{"value":"Wales","key":"StateName"},{"value":"Dyfed","key":"CountyName"}]},"MapReference":{"ReferenceId":"1038380143","Spot":1.0,"SideOfStreet":"right","StateId":"20287683","CountyId":"20340980","CityId":"20341271","DistrictId":"20341272"}}},{"Relevance":1.0,"Distance":153.5,"MatchLevel":"street","MatchQuality":{"Country":1.0,"State":1.0,"County":1.0,"City":1.0,"District":1.0,"PostalCode":1.0},"Location":{"LocationId":"NT_mONNuFox36eP7J1ra6LykA_l_17442819_L","LocationType":"point","DisplayPosition":{"Latitude":51.73036,"Longitude":-4.72007},"MapView":{"TopLeft":{"Latitude":51.73036,"Longitude":-4.7217},"BottomRight":{"Latitude":51.72945,"Longitude":-4.72007}},"Address":{"Label":"Kilgetty, SA68 0, United Kingdom","Country":"GBR","State":"Wales","County":"Dyfed","City":"Kilgetty","District":"Kilgetty","PostalCode":"SA68 0","AdditionalData":[{"value":"United Kingdom","key":"CountryName"},{"value":"Wales","key":"StateName"},{"value":"Dyfed","key":"CountyName"}]},"MapReference":{"ReferenceId":"17442819","Spot":1.0,"SideOfStreet":"left","StateId":"20287683","CountyId":"20340980","CityId":"20341271","DistrictId":"20341272"}}}]}]}}