{"Response":{"MetaInfo":{"Timestamp":"2020-03-28T12:05:55.555+0000","NextPageInformation":"2"},"View":[{"_type":"SearchResultsViewType","ViewId":0,"Result":[{"Relevance":1.0,"Distance":0.0,"Direction":0.0,"MatchLevel":"district","MatchQuality":{"Country":1.0,"State":1.0,"County":1.0,"City":1.0,"District":1.0,"PostalCode":1.0},"Location":{"LocationId":"NT_w6VXXv4vPJuD8bVvQB9oVC","LocationType":"point","DisplayPosition":{"Latitude":51.7528384,"Longitude":19.2097462},"MapView":{"TopLeft":{"Latitude":51.76395,"Longitude":19.19371},"BottomRight":{"Latitude":51.74803,"Longitude":19.22204}},"Address":{"Label":"Lutomiersk, Woj. Łódzkie, Polska","Country":"POL","State":"Woj. Łódzkie","County":"Powiat Pabianicki","City":"Lutomiersk","District":"Lutomiersk","PostalCode":"95-083","AdditionalData":[{"value":"Polska","key":"CountryName"},{"value":"Woj. Łódzkie","key":"StateName"},{"value":"Powiat Pabianicki","key":"CountyName"}]},"MapReference":{"ReferenceId":"1006547458","SideOfStreet":"neither","CountryId":"20624059","StateId":"20625723","CountyId":"20625866","CityId":"20625875","DistrictId":"20682637"}}},{"Relevance":1.0,"Distance":7.3,"MatchLevel":"houseNumber","MatchQuality":{"Country":1.0,"State":1.0,"County":1.0,"City":1.0,"District":1.0,"Street":[1.0],"HouseNumber":1.0,"PostalCode":1.0},"MatchType":"interpolated","Location":{"LocationId":"NT_Vp5UnnIqY5OVSHvTGVXBfA_xED","LocationType":"point","DisplayPosition":{"Latitude":51.75305,"Longitude":19.20937},"MapView":{"TopLeft":{"Latitude":51.7541742,"Longitude":19.2075541},"BottomRight":{"Latitude":51.7519258,"Longitude":19.2111859}},"Address":{"Label":"ulica Tadeusza Kościuszki 11, 95-083 Lutomiersk, Polska","Country":"POL","State":"Woj. Łódzkie","County":"Powiat Pabianicki","City":"Lutomiersk","District":"Lutomiersk","Street":"ulica Tadeusza Kościuszki","HouseNumber":"11","PostalCode":"95-083","AdditionalData":[{"value":"Polska","key":"CountryName"},{"value":"Woj. Łódzkie","key":"StateName"},{"value":"Powiat Pabianicki","key":"CountyName"}]},"MapReference":{"ReferenceId":"1006627592","Spot":0.54,"SideOfStreet":"right","CountryId":"20624059","StateId":"20625723","CountyId":"20625866","CityId":"20625875","DistrictId":"20682637","AddressId":"222100669","RoadLinkId":"331833225"}}},{"Relevance":1.0,"Distance":110.3,"MatchLevel":"houseNumber","MatchQuality":{"Country":1.0,"State":1.0,"County":1.0,"City":1.0,"District":1.0,"Street":[1.0],"HouseNumber":1.0,"PostalCode":1.0},"MatchType":"interpolated","Location":{"LocationId":"NT_-4823ICGM58FD.ppM4qv6A_yA","LocationType":"point","DisplayPosition":{"Latitude":51.75379,"Longitude":19.2102},"MapView":{"TopLeft":{"Latitude":51.7549142,"Longitude":19.208384},"BottomRight":{"Latitude":51.7526658,"Longitude":19.212016}},"Address":{"Label":"ulica Stodolniana 2, 95-083 Lutomiersk, Polska","Country":"POL","State":"Woj. Łódzkie","County":"Powiat Pabianicki","City":"Lutomiersk","District":"Lutomiersk","Street":"ulica Stodolniana","HouseNumber":"2","PostalCode":"95-083","AdditionalData":[{"value":"Polska","key":"CountryName"},{"value":"Woj. Łódzkie","key":"StateName"},{"value":"Powiat Pabianicki","key":"CountyName"}]},"MapReference":{"ReferenceId":"897632825","Spot":0.28,"SideOfStreet":"right","CountryId":"20624059","StateId":"20625723","CountyId":"20625866","CityId":"20625875","DistrictId":"20682637","AddressId":"732159517","RoadLinkId":"259742947"}}},{"Relevance":1.0,"Distance":110.5,"MatchLevel":"houseNumber","MatchQuality":{"Country":1.0,"State":1.0,"County":1.0,"City":1.0,"District":1.0,"Street":[1.0],"HouseNumber":1.0,"PostalCode":1.0},"MatchType":"interpolated","Location":{"LocationId":"NT_Vp5UnnIqY5OVSHvTGVXBfA_yAD","LocationType":"point","DisplayPosition":{"Latitude":51.75365,"Longitude":19.21064},"MapView":{"TopLeft":{"Latitude":51.7547742,"Longitude":19.2088241},"BottomRight":{"Latitude":51.7525258,"Longitude":19.2124559}},"Address":{"Label":"ulica Tadeusza Kościuszki 20, 95-083 Lutomiersk, Polska","Country":"POL","State":"Woj. Łódzkie","County":"Powiat Pabianicki","City":"Lutomiersk","District":"Lutomiersk","Street":"ulica Tadeusza Kościuszki","HouseNumber":"20","PostalCode":"95-083","AdditionalData":[{"value":"Polska","key":"CountryName"},{"value":"Woj. Łódzkie","key":"StateName"},{"value":"Powiat Pabianicki","key":"CountyName"}]},"MapReference":{"ReferenceId":"1006547455","Spot":0.6,"SideOfStreet":"left","CountryId":"20624059","StateId":"20625723","CountyId":"20625866","CityId":"20625875","DistrictId":"20682637","AddressId":"731932238","RoadLinkId":"331763761"}}},{"Relevance":1.0,"Distance":115.6,"MatchLevel":"houseNumber","MatchQuality":{"Country":1.0,"State":1.0,"County":1.0,"City":1.0,"District":1.0,"Street":[1.0],"HouseNumber":1.0,"PostalCode":1.0},"MatchType":"interpolated","Location":{"LocationId":"NT_Vp5UnnIqY5OVSHvTGVXBfA_xgD","LocationType":"point","DisplayPosition":{"Latitude":51.75369,"Longitude":19.21071},"MapView":{"TopLeft":{"Latitude":51.7548142,"Longitude":19.208894},"BottomRight":{"Latitude":51.7525658,"Longitude":19.212526}},"Address":{"Label":"ulica Tadeusza Kościuszki 18, 95-083 Lutomiersk, Polska","Country":"POL","State":"Woj. Łódzkie","County":"Powiat Pabianicki","City":"Lutomiersk","District":"Lutomiersk","Street":"ulica Tadeusza Kościuszki","HouseNumber":"18","PostalCode":"95-083","AdditionalData":[{"value":"Polska","key":"CountryName"},{"value":"Woj. Łódzkie","key":"StateName"},{"value":"Powiat Pabianicki","key":"CountyName"}]},"MapReference":{"ReferenceId":"1006547456","Spot":0.0,"SideOfStreet":"left","CountryId":"20624059","StateId":"20625723","CountyId":"20625866","CityId":"20625875","DistrictId":"20682637","AddressId":"731457881","RoadLinkId":"331763762"}}},{"Relevance":1.0,"Distance":128.8,"MatchLevel":"street","MatchQuality":{"Country":1.0,"State":1.0,"County":1.0,"City":1.0,"District":1.0,"Street":[1.0],"PostalCode":1.0},"Location":{"LocationId":"NT_dCi9mQj5HKhmbRy.JdYqJA_l_1006547460_L","LocationType":"point","DisplayPosition":{"Latitude":51.75373,"Longitude":19.21094},"MapView":{"TopLeft":{"Latitude":51.75373,"Longitude":19.21094},"BottomRight":{"Latitude":51.75367,"Longitude":19.21118}},"Address":{"Label":"ulica 3 Maja, 95-083 Lutomiersk, Polska","Country":"POL","State":"Woj. Łódzkie","County":"Powiat Pabianicki","City":"Lutomiersk","District":"Lutomiersk","Street":"ulica 3 Maja","PostalCode":"95-083","AdditionalData":[{"value":"Polska","key":"CountryName"},{"value":"Woj. Łódzkie","key":"StateName"},{"value":"Powiat Pabianicki","key":"CountyName"}]},"MapReference":{"ReferenceId":"1006547460","Spot":1.0,"SideOfStreet":"left","CountryId":"20624059","StateId":"20625723","CountyId":"20625866","CityId":"20625875","DistrictId":"20682637"}}},{"Relevance":1.0,"Distance":137.4,"MatchLevel":"houseNumber","MatchQuality":{"Country":1.0,"State":1.0,"County":1.0,"City":1.0,"District":1.0,"Street":[1.0],"HouseNumber":1.0,"PostalCode":1.0},"MatchType":"interpolated","Location":{"LocationId":"NT_Vp5UnnIqY5OVSHvTGVXBfA_yMD","LocationType":"point","DisplayPosition":{"Latitude":51.75235,"Longitude":19.20787},"MapView":{"TopLeft":{"Latitude":51.7534742,"Longitude":19.2060541},"BottomRight":{"Latitude":51.7512258,"Longitude":19.2096859}},"Address":{"Label":"ulica Tadeusza Kościuszki 23, 95-083 Lutomiersk, Polska","Country":"POL","State":"Woj. Łódzkie","County":"Powiat Pabianicki","City":"Lutomiersk","District":"Lutomiersk","Street":"ulica Tadeusza Kościuszki","HouseNumber":"23","PostalCode":"95-083","AdditionalData":[{"value":"Polska","key":"CountryName"},{"value":"Woj. Łódzkie","key":"StateName"},{"value":"Powiat Pabianicki","key":"CountyName"}]},"MapReference":{"ReferenceId":"1006627591","Spot":0.76,"SideOfStreet":"right","CountryId":"20624059","StateId":"20625723","CountyId":"20625866","CityId":"20625875","DistrictId":"20682637","AddressId":"731908346","RoadLinkId":"331833224"}}},{"Relevance":1.0,"Distance":137.5,"MatchLevel":"houseNumber","MatchQuality":{"Country":1.0,"State":1.0,"County":1.0,"City":1.0,"District":1.0,"Street":[1.0],"HouseNumber":1.0,"PostalCode":1.0},"MatchType":"interpolated","Location":{"LocationId":"NT_5-Esq9i8BPWezJeK1AGvXB_xA","LocationType":"point","DisplayPosition":{"Latitude":51.75363,"Longitude":19.21128},"MapView":{"TopLeft":{"Latitude":51.7547542,"Longitude":19.2094641},"BottomRight":{"Latitude":51.7525058,"Longitude":19.2130959}},"Address":{"Label":"ulica 3 Maja 1, 95-083 Lutomiersk, Polska","Country":"POL","State":"Woj. Łódzkie","County":"Powiat Pabianicki","City":"Lutomiersk","District":"Lutomiersk","Street":"ulica 3 Maja","HouseNumber":"1","PostalCode":"95-083","AdditionalData":[{"value":"Polska","key":"CountryName"},{"value":"Woj. Łódzkie","key":"StateName"},{"value":"Powiat Pabianicki","key":"CountyName"}]},"MapReference":{"ReferenceId":"1007227494","Spot":0.82,"SideOfStreet":"right","CountryId":"20624059","StateId":"20625723","CountyId":"20625866","CityId":"20625875","DistrictId":"20682637","AddressId":"731642881","RoadLinkId":"331946343"}}},{"Relevance":1.0,"Distance":139.1,"MatchLevel":"houseNumber","MatchQuality":{"Country":1.0,"State":1.0,"County":1.0,"City":1.0,"District":1.0,"Street":[1.0],"HouseNumber":1.0,"PostalCode":1.0},"MatchType":"interpolated","Location":{"LocationId":"NT_Vp5UnnIqY5OVSHvTGVXBfA_xYD","LocationType":"point","DisplayPosition":{"Latitude":51.7538,"Longitude":19.21103},"MapView":{"TopLeft":{"Latitude":51.7549242,"Longitude":19.209214},"BottomRight":{"Latitude":51.7526758,"Longitude":19.212846}},"Address":{"Label":"ulica Tadeusza Kościuszki 16, 95-083 Lutomiersk, Polska","Country":"POL","State":"Woj. Łódzkie","County":"Powiat Pabianicki","City":"Lutomiersk","District":"Lutomiersk","Street":"ulica Tadeusza Kościuszki","HouseNumber":"16","PostalCode":"95-083","AdditionalData":[{"value":"Polska","key":"CountryName"},{"value":"Woj. Łódzkie","key":"StateName"},{"value":"Powiat Pabianicki","key":"CountyName"}]},"MapReference":{"ReferenceId":"1006569922","Spot":0.42,"SideOfStreet":"left","CountryId":"20624059","StateId":"20625723","CountyId":"20625866","CityId":"20625875","DistrictId":"20682637","AddressId":"732107236","RoadLinkId":"331787809"}}},{"Relevance":1.0,"Distance":156.4,"MatchLevel":"houseNumber","MatchQuality":{"Country":1.0,"State":1.0,"County":1.0,"City":1.0,"District":1.0,"Street":[1.0],"HouseNumber":1.0,"PostalCode":1.0},"MatchType":"interpolated","Location":{"LocationId":"NT_-4823ICGM58FD.ppM4qv6A_zA","LocationType":"point","DisplayPosition":{"Latitude":51.75439,"Longitude":19.20916},"MapView":{"TopLeft":{"Latitude":51.7555142,"Longitude":19.207344},"BottomRight":{"Latitude":51.7532658,"Longitude":19.210976}},"Address":{"Label":"ulica Stodolniana 3, 95-083 Lutomiersk, Polska","Country":"POL","State":"Woj. Łódzkie","County":"Powiat Pabianicki","City":"Lutomiersk","District":"Lutomiersk","Street":"ulica Stodolniana","HouseNumber":"3","PostalCode":"95-083","AdditionalData":[{"value":"Polska","key":"CountryName"},{"value":"Woj. Łódzkie","key":"StateName"},{"value":"Powiat Pabianicki","key":"CountyName"}]},"MapReference":{"ReferenceId":"897637057","Spot":0.08,"SideOfStreet":"left","CountryId":"20624059","StateId":"20625723","CountyId":"20625866","CityId":"20625875","DistrictId":"20682637","AddressId":"732263750","RoadLinkId":"259747052"}}}]}]}}