{"Response":{"MetaInfo":{"Timestamp":"2020-03-28T10:17:13.982+0000","NextPageInformation":"2"},"View":[{"_type":"SearchResultsViewType","ViewId":0,"Result":[{"Relevance":1.0,"Distance":0.0,"Direction":0.0,"MatchLevel":"district","MatchQuality":{"Country":1.0,"State":1.0,"County":1.0,"City":1.0,"District":1.0,"PostalCode":1.0},"Location":{"LocationId":"NT_RA3bHgRU6JCa51h6zHabAD","LocationType":"point","DisplayPosition":{"Latitude":51.7674963,"Longitude":6.4040199},"MapView":{"TopLeft":{"Latitude":51.78292,"Longitude":6.38547},"BottomRight":{"Latitude":51.7565,"Longitude":6.41963}},"Address":{"Label":"Rees, Nordrhein-Westfalen, Deutschland","Country":"DEU","State":"Nordrhein-Westfalen","County":"Kleve","City":"Rees","District":"Rees","PostalCode":"46459","AdditionalData":[{"value":"Deutschland","key":"CountryName"},{"value":"Nordrhein-Westfalen","key":"StateName"},{"value":"Kleve","key":"CountyName"}]},"MapReference":{"ReferenceId":"1261245963","SideOfStreet":"neither","CountryId":"20147700","StateId":"20157369","CountyId":"20157516","CityId":"20157595","DistrictId":"20157601"}}},{"Relevance":1.0,"Distance":12.3,"MatchLevel":"houseNumber","MatchQuality":{"Country":1.0,"State":1.0,"County":1.0,"City":1.0,"District":1.0,"Street":[1.0],"HouseNumber":1.0,"PostalCode":1.0},"MatchType":"interpolated","Location":{"LocationId":"NT_4ZjJl2DuxKv2MwjuQvr.aA_3AD","LocationType":"point","DisplayPosition":{"Latitude":51.7674,"Longitude":6.40386},"MapView":{"TopLeft":{"Latitude":51.7685242,"Longitude":6.4020435},"BottomRight":{"Latitude":51.7662758,"Longitude":6.4056765}},"Address":{"Label":"Melatenweg 70, 46459 Rees, Deutschland","Country":"DEU","State":"Nordrhein-Westfalen","County":"Kleve","City":"Rees","District":"Rees","Street":"Melatenweg","HouseNumber":"70","PostalCode":"46459","AdditionalData":[{"value":"Deutschland","key":"CountryName"},{"value":"Nordrhein-Westfalen","key":"StateName"},{"value":"Kleve","key":"CountyName"}]},"MapReference":{"ReferenceId":"69231159","Spot":0.51,"SideOfStreet":"right","CountryId":"20147700","StateId":"20157369","CountyId":"20157516","CityId":"20157595","DistrictId":"20157601","AddressId":"196471868","RoadLinkId":"35117133"}}},{"Relevance":1.0,"Distance":48.9,"MatchLevel":"houseNumber","MatchQuality":{"Country":1.0,"State":1.0,"County":1.0,"City":1.0,"District":1.0,"Street":[1.0],"HouseNumber":1.0,"PostalCode":1.0},"MatchType":"interpolated","Location":{"LocationId":"NT_xC4f8Dg-.SwvEtWBb3jJ6A_yA","LocationType":"point","DisplayPosition":{"Latitude":51.76782,"Longitude":6.40461},"MapView":{"TopLeft":{"Latitude":51.7689442,"Longitude":6.4027935},"BottomRight":{"Latitude":51.7666958,"Longitude":6.4064265}},"Address":{"Label":"Reeser Feld 2, 46459 Rees, Deutschland","Country":"DEU","State":"Nordrhein-Westfalen","County":"Kleve","City":"Rees","District":"Rees","Street":"Reeser Feld","HouseNumber":"2","PostalCode":"46459","AdditionalData":[{"value":"Deutschland","key":"CountryName"},{"value":"Nordrhein-Westfalen","key":"StateName"},{"value":"Kleve","key":"CountyName"}]},"MapReference":{"ReferenceId":"69231315","Spot":0.47,"SideOfStreet":"left","CountryId":"20147700","StateId":"20157369","CountyId":"20157516","CityId":"20157595","DistrictId":"20157601","AddressId":"778004020","RoadLinkId":"35286688"}}},{"Relevance":1.0,"Distance":50.7,"MatchLevel":"houseNumber","MatchQuality":{"Country":1.0,"State":1.0,"County":1.0,"City":1.0,"District":1.0,"Street":[1.0],"HouseNumber":1.0,"PostalCode":1.0},"MatchType":"interpolated","Location":{"LocationId":"NT_4ZjJl2DuxKv2MwjuQvr.aA_3ID","LocationType":"point","DisplayPosition":{"Latitude":51.76795,"Longitude":6.40389},"MapView":{"TopLeft":{"Latitude":51.7690742,"Longitude":6.4020735},"BottomRight":{"Latitude":51.7668258,"Longitude":6.4057065}},"Address":{"Label":"Melatenweg 72, 46459 Rees, Deutschland","Country":"DEU","State":"Nordrhein-Westfalen","County":"Kleve","City":"Rees","District":"Rees","Street":"Melatenweg","HouseNumber":"72","PostalCode":"46459","AdditionalData":[{"value":"Deutschland","key":"CountryName"},{"value":"Nordrhein-Westfalen","key":"StateName"},{"value":"Kleve","key":"CountyName"}]},"MapReference":{"ReferenceId":"69231304","Spot":0.45,"SideOfStreet":"right","CountryId":"20147700","StateId":"20157369","CountyId":"20157516","CityId":"20157595","DistrictId":"20157601","AddressId":"193095287","RoadLinkId":"35358218"}}},{"Relevance":1.0,"Distance":56.1,"MatchLevel":"houseNumber","MatchQuality":{"Country":1.0,"State":1.0,"County":1.0,"City":1.0,"District":1.0,"Street":[1.0],"HouseNumber":1.0,"PostalCode":1.0},"MatchType":"interpolated","Location":{"LocationId":"NT_8JWQT4pV29KBaf53B7yAjD_xAD","LocationType":"point","DisplayPosition":{"Latitude":51.76733,"Longitude":6.40325},"MapView":{"TopLeft":{"Latitude":51.7684542,"Longitude":6.4014335},"BottomRight":{"Latitude":51.7662058,"Longitude":6.4050665}},"Address":{"Label":"Goerdelerstraße 10, 46459 Rees, Deutschland","Country":"DEU","State":"Nordrhein-Westfalen","County":"Kleve","City":"Rees","District":"Rees","Street":"Goerdelerstraße","HouseNumber":"10","PostalCode":"46459","AdditionalData":[{"value":"Deutschland","key":"CountryName"},{"value":"Nordrhein-Westfalen","key":"StateName"},{"value":"Kleve","key":"CountyName"}]},"MapReference":{"ReferenceId":"69231284","Spot":0.16,"SideOfStreet":"left","CountryId":"20147700","StateId":"20157369","CountyId":"20157516","CityId":"20157595","DistrictId":"20157601","AddressId":"195612514","RoadLinkId":"35355477"}}},{"Relevance":1.0,"Distance":59.4,"MatchLevel":"street","MatchQuality":{"Country":1.0,"State":1.0,"County":1.0,"City":1.0,"District":1.0,"Street":[1.0],"PostalCode":1.0},"Location":{"LocationId":"NT_q46W5unAuMB8QOx1gW7YVD_l_1226594482_L","LocationType":"point","DisplayPosition":{"Latitude":51.76698,"Longitude":6.40424},"MapView":{"TopLeft":{"Latitude":51.76703,"Longitude":6.40424},"BottomRight":{"Latitude":51.76698,"Longitude":6.40468}},"Address":{"Label":"Weseler Landstraße, 46459 Rees, Deutschland","Country":"DEU","State":"Nordrhein-Westfalen","County":"Kleve","City":"Rees","District":"Rees","Street":"Weseler Landstraße","PostalCode":"46459","AdditionalData":[{"value":"Deutschland","key":"CountryName"},{"value":"Nordrhein-Westfalen","key":"StateName"},{"value":"Kleve","key":"CountyName"}]},"MapReference":{"ReferenceId":"1226594482","Spot":0.0,"SideOfStreet":"left","CountryId":"20147700","StateId":"20157369","CountyId":"20157516","CityId":"20157595","DistrictId":"20157601"}}},{"Relevance":1.0,"Distance":59.6,"MatchLevel":"street","MatchQuality":{"Country":1.0,"State":1.0,"County":1.0,"City":1.0,"District":1.0,"Street":[1.0],"PostalCode":1.0},"Location":{"LocationId":"NT_G7dBUYIy.6MN9-0f9jOkRB_l_1226594481_L","LocationType":"point","DisplayPosition":{"Latitude":51.7669614,"Longitude":6.4040836},"MapView":{"TopLeft":{"Latitude":51.76698,"Longitude":6.40382},"BottomRight":{"Latitude":51.76693,"Longitude":6.40424}},"Address":{"Label":"Weseler Landstraße, 46459 Rees, Deutschland","Country":"DEU","State":"Nordrhein-Westfalen","County":"Kleve","City":"Rees","District":"Rees","Street":"Weseler Landstraße","PostalCode":"46459","AdditionalData":[{"value":"Deutschland","key":"CountryName"},{"value":"Nordrhein-Westfalen","key":"StateName"},{"value":"Kleve","key":"CountyName"}]},"MapReference":{"ReferenceId":"1226594481","Spot":0.63,"SideOfStreet":"left","CountryId":"20147700","StateId":"20157369","CountyId":"20157516","CityId":"20157595","DistrictId":"20157601"}}},{"Relevance":1.0,"Distance":64.5,"MatchLevel":"street","MatchQuality":{"Country":1.0,"State":1.0,"County":1.0,"City":1.0,"District":1.0,"Street":[1.0],"PostalCode":1.0},"Location":{"LocationId":"NT_G7dBUYIy.6MN9-0f9jOkRB_l_1050333052_L","LocationType":"point","DisplayPosition":{"Latitude":51.76693,"Longitude":6.40382},"MapView":{"TopLeft":{"Latitude":51.76693,"Longitude":6.40295},"BottomRight":{"Latitude":51.76685,"Longitude":6.40382}},"Address":{"Label":"Weseler Landstraße, 46459 Rees, Deutschland","Country":"DEU","State":"Nordrhein-Westfalen","County":"Kleve","City":"Rees","District":"Rees","Street":"Weseler Landstraße","PostalCode":"46459","AdditionalData":[{"value":"Deutschland","key":"CountryName"},{"value":"Nordrhein-Westfalen","key":"StateName"},{"value":"Kleve","key":"CountyName"}]},"MapReference":{"ReferenceId":"1050333052","Spot":1.0,"SideOfStreet":"left","CountryId":"20147700","StateId":"20157369","CountyId":"20157516","CityId":"20157595","DistrictId":"20157601"}}},{"Relevance":1.0,"Distance":68.9,"MatchLevel":"street","MatchQuality":{"Country":1.0,"State":1.0,"County":1.0,"City":1.0,"District":1.0,"Street":[1.0],"PostalCode":1.0},"Location":{"LocationId":"NT_q46W5unAuMB8QOx1gW7YVD_l_1050335806_L","LocationType":"point","DisplayPosition":{"Latitude":51.76703,"Longitude":6.40468},"MapView":{"TopLeft":{"Latitude":51.76713,"Longitude":6.40468},"BottomRight":{"Latitude":51.76703,"Longitude":6.40525}},"Address":{"Label":"Weseler Landstraße, 46459 Rees, Deutschland","Country":"DEU","State":"Nordrhein-Westfalen","County":"Kleve","City":"Rees","District":"Rees","Street":"Weseler Landstraße","PostalCode":"46459","AdditionalData":[{"value":"Deutschland","key":"CountryName"},{"value":"Nordrhein-Westfalen","key":"StateName"},{"value":"Kleve","key":"CountyName"}]},"MapReference":{"ReferenceId":"1050335806","Spot":0.0,"SideOfStreet":"left","CountryId":"20147700","StateId":"20157369","CountyId":"20157516","CityId":"20157595","DistrictId":"20157601"}}},{"Relevance":1.0,"Distance":69.5,"MatchLevel":"houseNumber","MatchQuality":{"Country":1.0,"State":1.0,"County":1.0,"City":1.0,"District":1.0,"Street":[1.0],"HouseNumber":1.0,"PostalCode":1.0},"MatchType":"interpolated","Location":{"LocationId":"NT_4ZjJl2DuxKv2MwjuQvr.aA_3YD","LocationType":"point","DisplayPosition":{"Latitude":51.76812,"Longitude":6.40388},"MapView":{"TopLeft":{"Latitude":51.7692442,"Longitude":6.4020635},"BottomRight":{"Latitude":51.7669958,"Longitude":6.4056965}},"Address":{"Label":"Melatenweg 76, 46459 Rees, Deutschland","Country":"DEU","State":"Nordrhein-Westfalen","County":"Kleve","City":"Rees","District":"Rees","Street":"Melatenweg","HouseNumber":"76","PostalCode":"46459","AdditionalData":[{"value":"Deutschland","key":"CountryName"},{"value":"Nordrhein-Westfalen","key":"StateName"},{"value":"Kleve","key":"CountyName"}]},"MapReference":{"ReferenceId":"69231271","Spot":0.07,"SideOfStreet":"right","CountryId":"20147700","StateId":"20157369","CountyId":"20157516","CityId":"20157595","DistrictId":"20157601","AddressId":"195692822","RoadLinkId":"35335118"}}}]}]}}