{"Response":{"MetaInfo":{"Timestamp":"2020-03-28T10:36:18.886+0000","NextPageInformation":"2"},"View":[{"_type":"SearchResultsViewType","ViewId":0,"Result":[{"Relevance":1.0,"Distance":0.0,"Direction":0.0,"MatchLevel":"district","MatchQuality":{"Country":1.0,"State":1.0,"County":1.0,"City":1.0,"District":1.0,"PostalCode":1.0},"Location":{"LocationId":"NT_MAP9KhNDr.K9-bJqgIduED","LocationType":"point","DisplayPosition":{"Latitude":51.7373709,"Longitude":-0.4703307},"MapView":{"TopLeft":{"Latitude":51.74201,"Longitude":-0.4737},"BottomRight":{"Latitude":51.73137,"Longitude":-0.46005}},"Address":{"Label":"Apsley, Hemel Hempstead, England, United Kingdom","Country":"GBR","State":"England","County":"Hertfordshire","City":"Hemel Hempstead","District":"Apsley","PostalCode":"HP3 9","AdditionalData":[{"value":"United Kingdom","key":"CountryName"},{"value":"England","key":"StateName"},{"value":"Hertfordshire","key":"CountyName"}]},"MapReference":{"ReferenceId":"836757662","SideOfStreet":"neither","StateId":"20248595","CountyId":"20336428","CityId":"20336512","DistrictId":"26591079"}}},{"Relevance":1.0,"Distance":7.4,"MatchLevel":"street","MatchQuality":{"Country":1.0,"State":1.0,"County":1.0,"City":1.0,"District":1.0,"Street":[1.0],"PostalCode":1.0},"Location":{"LocationId":"NT_GyLYFP8vxbXxXP6a0r6pjD_l_1001233531_R","LocationType":"point","DisplayPosition":{"Latitude":51.7374229,"Longitude":-0.4703988},"MapView":{"TopLeft":{"Latitude":51.73776,"Longitude":-0.47063},"BottomRight":{"Latitude":51.73712,"Longitude":-0.46988}},"Address":{"Label":"Sealy Way, Hemel Hempstead, HP3 9, United Kingdom","Country":"GBR","State":"England","County":"Hertfordshire","City":"Hemel Hempstead","District":"Apsley","Street":"Sealy Way","PostalCode":"HP3 9","AdditionalData":[{"value":"United Kingdom","key":"CountryName"},{"value":"England","key":"StateName"},{"value":"Hertfordshire","key":"CountyName"}]},"MapReference":{"ReferenceId":"1001233531","Spot":0.38,"SideOfStreet":"right","StateId":"20248595","CountyId":"20336428","CityId":"20336512","DistrictId":"26591079"}}},{"Relevance":1.0,"Distance":27.0,"MatchLevel":"houseNumber","MatchQuality":{"Country":1.0,"State":1.0,"County":1.0,"City":1.0,"District":1.0,"Street":[1.0],"HouseNumber":1.0,"PostalCode":1.0},"MatchType":"interpolated","Location":{"LocationId":"NT_LDLLMWzeAV.cu7ldvAiIXD_l_1001233527_R_1QD","LocationType":"point","DisplayPosition":{"Latitude":51.737,"Longitude":-0.4704225},"MapView":{"TopLeft":{"Latitude":51.7381242,"Longitude":-0.4722378},"BottomRight":{"Latitude":51.7358759,"Longitude":-0.4686072}},"Address":{"Label":"54 Weymouth Street, Hemel Hempstead, HP3 9SJ, United Kingdom","Country":"GBR","State":"England","County":"Hertfordshire","City":"Hemel Hempstead","District":"Apsley","Street":"Weymouth Street","HouseNumber":"54","PostalCode":"HP3 9SJ","AdditionalData":[{"value":"United Kingdom","key":"CountryName"},{"value":"England","key":"StateName"},{"value":"Hertfordshire","key":"CountyName"}]},"MapReference":{"ReferenceId":"1001233527","Spot":0.56,"SideOfStreet":"right","StateId":"20248595","CountyId":"20336428","CityId":"20336512","DistrictId":"26591079"}}},{"Relevance":1.0,"Distance":27.2,"MatchLevel":"houseNumber","MatchQuality":{"Country":1.0,"State":1.0,"County":1.0,"City":1.0,"District":1.0,"Street":[1.0],"HouseNumber":1.0,"PostalCode":1.0},"MatchType":"interpolated","Location":{"LocationId":"NT_LDLLMWzeAV.cu7ldvAiIXD_l_1001233528_R_1ID","LocationType":"point","DisplayPosition":{"Latitude":51.7372,"Longitude":-0.4707901},"MapView":{"TopLeft":{"Latitude":51.7383242,"Longitude":-0.4726054},"BottomRight":{"Latitude":51.7360759,"Longitude":-0.4689748}},"Address":{"Label":"52 Weymouth Street, Hemel Hempstead, HP3 9SJ, United Kingdom","Country":"GBR","State":"England","County":"Hertfordshire","City":"Hemel Hempstead","District":"Apsley","Street":"Weymouth Street","HouseNumber":"52","PostalCode":"HP3 9SJ","AdditionalData":[{"value":"United Kingdom","key":"CountryName"},{"value":"England","key":"StateName"},{"value":"Hertfordshire","key":"CountyName"}]},"MapReference":{"ReferenceId":"1001233528","Spot":0.18,"SideOfStreet":"right","StateId":"20248595","CountyId":"20336428","CityId":"20336512","DistrictId":"26591079"}}},{"Relevance":1.0,"Distance":38.1,"MatchLevel":"houseNumber","MatchQuality":{"Country":1.0,"State":1.0,"County":1.0,"City":1.0,"District":1.0,"Street":[1.0],"HouseNumber":1.0,"PostalCode":1.0},"MatchType":"interpolated","Location":{"LocationId":"NT_Sgx8drZeUvVXNlS.fYwlWA_l_1001233530_L_xgzM","LocationType":"point","DisplayPosition":{"Latitude":51.73782,"Longitude":-0.4700701},"MapView":{"TopLeft":{"Latitude":51.7389442,"Longitude":-0.4718854},"BottomRight":{"Latitude":51.7366959,"Longitude":-0.4682547}},"Address":{"Label":"183 London Road, Hemel Hempstead, HP3 9, United Kingdom","Country":"GBR","State":"England","County":"Hertfordshire","City":"Hemel Hempstead","District":"Apsley","Street":"London Road","HouseNumber":"183","PostalCode":"HP3 9","AdditionalData":[{"value":"United Kingdom","key":"CountryName"},{"value":"England","key":"StateName"},{"value":"Hertfordshire","key":"CountyName"}]},"MapReference":{"ReferenceId":"1001233530","Spot":0.29,"SideOfStreet":"left","StateId":"20248595","CountyId":"20336428","CityId":"20336512","DistrictId":"26591079"}}},{"Relevance":1.0,"Distance":40.9,"MatchLevel":"houseNumber","MatchQuality":{"Country":1.0,"State":1.0,"County":1.0,"City":1.0,"District":1.0,"Street":[1.0],"HouseNumber":1.0,"PostalCode":1.0},"MatchType":"interpolated","Location":{"LocationId":"NT_Sgx8drZeUvVXNlS.fYwlWA_l_1001233529_L_xgTM","LocationType":"point","DisplayPosition":{"Latitude":51.7377513,"Longitude":-0.469851},"MapView":{"TopLeft":{"Latitude":51.7388754,"Longitude":-0.4716663},"BottomRight":{"Latitude":51.7366271,"Longitude":-0.4680357}},"Address":{"Label":"181 London Road, Hemel Hempstead, HP3 9, United Kingdom","Country":"GBR","State":"England","County":"Hertfordshire","City":"Hemel Hempstead","District":"Apsley","Street":"London Road","HouseNumber":"181","PostalCode":"HP3 9","AdditionalData":[{"value":"United Kingdom","key":"CountryName"},{"value":"England","key":"StateName"},{"value":"Hertfordshire","key":"CountyName"}]},"MapReference":{"ReferenceId":"1001233529","Spot":0.91,"SideOfStreet":"left","StateId":"20248595","CountyId":"20336428","CityId":"20336512","DistrictId":"26591079"}}},{"Relevance":1.0,"Distance":42.9,"MatchLevel":"postalCode","MatchQuality":{"PostalCode":1.0},"MatchType":"interpolated","Location":{"LocationId":"NT_LDLLMWzeAV.cu7ldvAiIXD_l_1001233528_R_1ID","LocationType":"point","DisplayPosition":{"Latitude":51.73723,"Longitude":-0.47091},"MapView":{"TopLeft":{"Latitude":51.7462232,"Longitude":-0.4854323},"BottomRight":{"Latitude":51.7282368,"Longitude":-0.4563877}},"Address":{"Label":"HP3 9SL, Hemel Hempstead, England, United Kingdom","Country":"GBR","State":"England","County":"Hertfordshire","City":"Hemel Hempstead","PostalCode":"HP3 9SL","AdditionalData":[{"value":"United Kingdom","key":"CountryName"},{"value":"England","key":"StateName"},{"value":"Hertfordshire","key":"CountyName"}]},"MapReference":{"ReferenceId":"1001233528","Spot":0.18,"SideOfStreet":"neither","StateId":"20248595","CountyId":"20336428","CityId":"20336512"}}},{"Relevance":1.0,"Distance":55.9,"MatchLevel":"postalCode","MatchQuality":{"PostalCode":1.0},"MatchType":"interpolated","Location":{"LocationId":"NT_Sgx8drZeUvVXNlS.fYwlWA_l_1001233530_L_xgzM","LocationType":"point","DisplayPosition":{"Latitude":51.73787,"Longitude":-0.47023},"MapView":{"TopLeft":{"Latitude":51.7468632,"Longitude":-0.4847525},"BottomRight":{"Latitude":51.7288768,"Longitude":-0.4557075}},"Address":{"Label":"HP3 9HP, Hemel Hempstead, England, United Kingdom","Country":"GBR","State":"England","County":"Hertfordshire","City":"Hemel Hempstead","PostalCode":"HP3 9HP","AdditionalData":[{"value":"United Kingdom","key":"CountryName"},{"value":"England","key":"StateName"},{"value":"Hertfordshire","key":"CountyName"}]},"MapReference":{"ReferenceId":"1001233530","Spot":0.29,"SideOfStreet":"neither","StateId":"20248595","CountyId":"20336428","CityId":"20336512"}}},{"Relevance":1.0,"Distance":59.2,"MatchLevel":"street","MatchQuality":{"Country":1.0,"State":1.0,"County":1.0,"City":1.0,"District":1.0,"Street":[1.0],"PostalCode":1.0},"Location":{"LocationId":"NT_7hXFZHIRiISmiuIAmDBRKA_l_1001233526_L","LocationType":"point","DisplayPosition":{"Latitude":51.73685,"Longitude":-0.47015},"MapView":{"TopLeft":{"Latitude":51.73685,"Longitude":-0.47062},"BottomRight":{"Latitude":51.73658,"Longitude":-0.47015}},"Address":{"Label":"Aston Close, Hemel Hempstead, HP3 9, United Kingdom","Country":"GBR","State":"England","County":"Hertfordshire","City":"Hemel Hempstead","District":"Apsley","Street":"Aston Close","PostalCode":"HP3 9","AdditionalData":[{"value":"United Kingdom","key":"CountryName"},{"value":"England","key":"StateName"},{"value":"Hertfordshire","key":"CountyName"}]},"MapReference":{"ReferenceId":"1001233526","Spot":1.0,"SideOfStreet":"left","StateId":"20248595","CountyId":"20336428","CityId":"20336512","DistrictId":"26591079"}}},{"Relevance":1.0,"Distance":67.5,"MatchLevel":"houseNumber","MatchQuality":{"Country":1.0,"State":1.0,"County":1.0,"City":1.0,"District":1.0,"Street":[1.0],"HouseNumber":1.0,"PostalCode":1.0},"MatchType":"interpolated","Location":{"LocationId":"NT_.m82h1.dEkt3muSmst62KA_l_1040748934_L_xMD","LocationType":"point","DisplayPosition":{"Latitude":51.737812,"Longitude":-0.4710033},"MapView":{"TopLeft":{"Latitude":51.7389362,"Longitude":-0.4728186},"BottomRight":{"Latitude":51.7366879,"Longitude":-0.4691879}},"Address":{"Label":"13 Storey Street, Hemel Hempstead, HP3 9SG, United Kingdom","Country":"GBR","State":"England","County":"Hertfordshire","City":"Hemel Hempstead","District":"Apsley","Street":"Storey Street","HouseNumber":"13","PostalCode":"HP3 9SG","AdditionalData":[{"value":"United Kingdom","key":"CountryName"},{"value":"England","key":"StateName"},{"value":"Hertfordshire","key":"CountyName"}]},"MapReference":{"ReferenceId":"1040748934","Spot":0.52,"SideOfStreet":"left","StateId":"20248595","CountyId":"20336428","CityId":"20336512","DistrictId":"26591079"}}}]}]}}