{"Response":{"MetaInfo":{"Timestamp":"2020-03-28T11:58:03.634+0000","NextPageInformation":"2"},"View":[{"_type":"SearchResultsViewType","ViewId":0,"Result":[{"Relevance":1.0,"Distance":0.0,"Direction":0.0,"MatchLevel":"district","MatchQuality":{"Country":1.0,"State":1.0,"County":1.0,"City":1.0,"District":1.0,"PostalCode":1.0},"Location":{"LocationId":"NT_-KZLl7.OYbibPqeqGSrRIB","LocationType":"point","DisplayPosition":{"Latitude":51.7589351,"Longitude":-0.5598055},"MapView":{"TopLeft":{"Latitude":51.77774,"Longitude":-0.60339},"BottomRight":{"Latitude":51.74955,"Longitude":-0.54331}},"Address":{"Label":"Berkhamsted, England, United Kingdom","Country":"GBR","State":"England","County":"Hertfordshire","City":"Berkhamsted","District":"Berkhamsted","PostalCode":"HP4 3","AdditionalData":[{"value":"United Kingdom","key":"CountryName"},{"value":"England","key":"StateName"},{"value":"Hertfordshire","key":"CountyName"}]},"MapReference":{"ReferenceId":"25784878","SideOfStreet":"neither","StateId":"20248595","CountyId":"20336428","CityId":"20336450","DistrictId":"20336451"}}},{"Relevance":1.0,"Distance":2.3,"MatchLevel":"houseNumber","MatchQuality":{"Country":1.0,"State":1.0,"County":1.0,"City":1.0,"District":1.0,"Street":[1.0],"HouseNumber":1.0,"PostalCode":1.0},"MatchType":"interpolated","Location":{"LocationId":"NT_heAjn8aybVry2XMln7wEKD_l_1001230825_R_xcD","LocationType":"point","DisplayPosition":{"Latitude":51.75905,"Longitude":-0.55988},"MapView":{"TopLeft":{"Latitude":51.7601742,"Longitude":-0.5616961},"BottomRight":{"Latitude":51.7579259,"Longitude":-0.5580638}},"Address":{"Label":"17 Manor Street, Berkhamsted, HP4 2BN, United Kingdom","Country":"GBR","State":"England","County":"Hertfordshire","City":"Berkhamsted","District":"Berkhamsted","Street":"Manor Street","HouseNumber":"17","PostalCode":"HP4 2BN","AdditionalData":[{"value":"United Kingdom","key":"CountryName"},{"value":"England","key":"StateName"},{"value":"Hertfordshire","key":"CountyName"}]},"MapReference":{"ReferenceId":"1001230825","Spot":0.2,"SideOfStreet":"right","StateId":"20248595","CountyId":"20336428","CityId":"20336450","DistrictId":"20336451"}}},{"Relevance":1.0,"Distance":9.0,"MatchLevel":"street","MatchQuality":{"Country":1.0,"State":1.0,"County":1.0,"City":1.0,"District":1.0,"Street":[1.0],"PostalCode":1.0},"Location":{"LocationId":"NT_sWEwj7F76Ujoa9jpPXpNzC_l_1064158084_R","LocationType":"point","DisplayPosition":{"Latitude":51.75891,"Longitude":-0.55993},"MapView":{"TopLeft":{"Latitude":51.75891,"Longitude":-0.56059},"BottomRight":{"Latitude":51.75774,"Longitude":-0.55993}},"Address":{"Label":"Three Close Lane, Berkhamsted, HP4 2, United Kingdom","Country":"GBR","State":"England","County":"Hertfordshire","City":"Berkhamsted","District":"Berkhamsted","Street":"Three Close Lane","PostalCode":"HP4 2","AdditionalData":[{"value":"United Kingdom","key":"CountryName"},{"value":"England","key":"StateName"},{"value":"Hertfordshire","key":"CountyName"}]},"MapReference":{"ReferenceId":"1064158084","Spot":1.0,"SideOfStreet":"right","StateId":"20248595","CountyId":"20336428","CityId":"20336450","DistrictId":"20336451"}}},{"Relevance":1.0,"Distance":11.4,"MatchLevel":"houseNumber","MatchQuality":{"Country":1.0,"State":1.0,"County":1.0,"City":1.0,"District":1.0,"Street":[1.0],"HouseNumber":1.0,"PostalCode":1.0},"MatchType":"interpolated","Location":{"LocationId":"NT_tdbAahAa05fMkVEgbGLyVA_l_25785201_R_3gD","LocationType":"point","DisplayPosition":{"Latitude":51.7588081,"Longitude":-0.5596843},"MapView":{"TopLeft":{"Latitude":51.7599323,"Longitude":-0.5615005},"BottomRight":{"Latitude":51.757684,"Longitude":-0.5578682}},"Address":{"Label":"78 High Street, Berkhamsted, HP4 2BW, United Kingdom","Country":"GBR","State":"England","County":"Hertfordshire","City":"Berkhamsted","District":"Berkhamsted","Street":"High Street","HouseNumber":"78","PostalCode":"HP4 2BW","AdditionalData":[{"value":"United Kingdom","key":"CountryName"},{"value":"England","key":"StateName"},{"value":"Hertfordshire","key":"CountyName"}]},"MapReference":{"ReferenceId":"25785201","Spot":0.59,"SideOfStreet":"right","StateId":"20248595","CountyId":"20336428","CityId":"20336450","DistrictId":"20336451"}}},{"Relevance":1.0,"Distance":11.6,"MatchLevel":"houseNumber","MatchQuality":{"Country":1.0,"State":1.0,"County":1.0,"City":1.0,"District":1.0,"Street":[1.0],"HouseNumber":1.0,"PostalCode":1.0},"MatchType":"interpolated","Location":{"LocationId":"NT_tdbAahAa05fMkVEgbGLyVA_l_25785150_R_4AD","LocationType":"point","DisplayPosition":{"Latitude":51.758926,"Longitude":-0.5599727},"MapView":{"TopLeft":{"Latitude":51.7600502,"Longitude":-0.5617889},"BottomRight":{"Latitude":51.7578019,"Longitude":-0.5581566}},"Address":{"Label":"80 High Street, Berkhamsted, HP4 2BW, United Kingdom","Country":"GBR","State":"England","County":"Hertfordshire","City":"Berkhamsted","District":"Berkhamsted","Street":"High Street","HouseNumber":"80","PostalCode":"HP4 2BW","AdditionalData":[{"value":"United Kingdom","key":"CountryName"},{"value":"England","key":"StateName"},{"value":"Hertfordshire","key":"CountyName"}]},"MapReference":{"ReferenceId":"25785150","Spot":0.53,"SideOfStreet":"right","StateId":"20248595","CountyId":"20336428","CityId":"20336450","DistrictId":"20336451"}}},{"Relevance":1.0,"Distance":16.8,"MatchLevel":"postalCode","MatchQuality":{"PostalCode":1.0},"MatchType":"interpolated","Location":{"LocationId":"NT_tdbAahAa05fMkVEgbGLyVA_l_25785201_R_3gD","LocationType":"point","DisplayPosition":{"Latitude":51.75879,"Longitude":-0.55974},"MapView":{"TopLeft":{"Latitude":51.7677832,"Longitude":-0.5742692},"BottomRight":{"Latitude":51.7497968,"Longitude":-0.5452108}},"Address":{"Label":"HP4 2DF, Berkhamsted, England, United Kingdom","Country":"GBR","State":"England","County":"Hertfordshire","City":"Berkhamsted","PostalCode":"HP4 2DF","AdditionalData":[{"value":"United Kingdom","key":"CountryName"},{"value":"England","key":"StateName"},{"value":"Hertfordshire","key":"CountyName"}]},"MapReference":{"ReferenceId":"25785201","Spot":0.59,"SideOfStreet":"neither","StateId":"20248595","CountyId":"20336428","CityId":"20336450"}}},{"Relevance":1.0,"Distance":27.4,"MatchLevel":"houseNumber","MatchQuality":{"Country":1.0,"State":1.0,"County":1.0,"City":1.0,"District":1.0,"Street":[1.0],"HouseNumber":1.0,"PostalCode":1.0},"MatchType":"interpolated","Location":{"LocationId":"NT_p0yZ7NGvp4PmpSHi2AIT6D_l_565989370_R_4ID","LocationType":"point","DisplayPosition":{"Latitude":51.7590001,"Longitude":-0.5601901},"MapView":{"TopLeft":{"Latitude":51.7601242,"Longitude":-0.5620063},"BottomRight":{"Latitude":51.7578759,"Longitude":-0.558374}},"Address":{"Label":"82 High Street, Berkhamsted, HP4 2, United Kingdom","Country":"GBR","State":"England","County":"Hertfordshire","City":"Berkhamsted","District":"Berkhamsted","Street":"High Street","HouseNumber":"82","PostalCode":"HP4 2","AdditionalData":[{"value":"United Kingdom","key":"CountryName"},{"value":"England","key":"StateName"},{"value":"Hertfordshire","key":"CountyName"}]},"MapReference":{"ReferenceId":"565989370","Spot":0.41,"SideOfStreet":"right","StateId":"20248595","CountyId":"20336428","CityId":"20336450","DistrictId":"20336451"}}},{"Relevance":1.0,"Distance":33.2,"MatchLevel":"postalCode","MatchQuality":{"PostalCode":1.0},"Location":{"LocationId":"NT_sWEwj7F76Ujoa9jpPXpNzC_l_1064158084_R","LocationType":"point","DisplayPosition":{"Latitude":51.75872,"Longitude":-0.56014},"MapView":{"TopLeft":{"Latitude":51.7677132,"Longitude":-0.5746692},"BottomRight":{"Latitude":51.7497268,"Longitude":-0.5456108}},"Address":{"Label":"HP4 2FG, Berkhamsted, England, United Kingdom","Country":"GBR","State":"England","County":"Hertfordshire","City":"Berkhamsted","PostalCode":"HP4 2FG","AdditionalData":[{"value":"United Kingdom","key":"CountryName"},{"value":"England","key":"StateName"},{"value":"Hertfordshire","key":"CountyName"}]},"MapReference":{"ReferenceId":"1064158084","Spot":1.0,"SideOfStreet":"neither","StateId":"20248595","CountyId":"20336428","CityId":"20336450"}}},{"Relevance":1.0,"Distance":38.2,"MatchLevel":"houseNumber","MatchQuality":{"Country":1.0,"State":1.0,"County":1.0,"City":1.0,"District":1.0,"Street":[1.0],"HouseNumber":1.0,"PostalCode":1.0},"MatchType":"interpolated","Location":{"LocationId":"NT_iRrfcUJTloGpykostZzPCA_l_1064158086_L_yA","LocationType":"point","DisplayPosition":{"Latitude":51.7585175,"Longitude":-0.5594415},"MapView":{"TopLeft":{"Latitude":51.7596417,"Longitude":-0.5612576},"BottomRight":{"Latitude":51.7573934,"Longitude":-0.5576253}},"Address":{"Label":"2 Victoria Road, Berkhamsted, HP4 2JT, United Kingdom","Country":"GBR","State":"England","County":"Hertfordshire","City":"Berkhamsted","District":"Berkhamsted","Street":"Victoria Road","HouseNumber":"2","PostalCode":"HP4 2JT","AdditionalData":[{"value":"United Kingdom","key":"CountryName"},{"value":"England","key":"StateName"},{"value":"Hertfordshire","key":"CountyName"}]},"MapReference":{"ReferenceId":"1064158086","Spot":0.85,"SideOfStreet":"left","StateId":"20248595","CountyId":"20336428","CityId":"20336450","DistrictId":"20336451"}}},{"Relevance":1.0,"Distance":43.0,"MatchLevel":"postalCode","MatchQuality":{"PostalCode":1.0},"MatchType":"interpolated","Location":{"LocationId":"NT_p0yZ7NGvp4PmpSHi2AIT6D_l_565989370_R_4ID","LocationType":"point","DisplayPosition":{"Latitude":51.75863,"Longitude":-0.56019},"MapView":{"TopLeft":{"Latitude":51.7676232,"Longitude":-0.5747192},"BottomRight":{"Latitude":51.7496368,"Longitude":-0.5456608}},"Address":{"Label":"HP4 2BT, Berkhamsted, England, United Kingdom","Country":"GBR","State":"England","County":"Hertfordshire","City":"Berkhamsted","PostalCode":"HP4 2BT","AdditionalData":[{"value":"United Kingdom","key":"CountryName"},{"value":"England","key":"StateName"},{"value":"Hertfordshire","key":"CountyName"}]},"MapReference":{"ReferenceId":"565989370","Spot":0.41,"SideOfStreet":"neither","StateId":"20248595","CountyId":"20336428","CityId":"20336450"}}}]}]}}