{"Response":{"MetaInfo":{"Timestamp":"2020-03-28T10:05:10.410+0000","NextPageInformation":"2"},"View":[{"_type":"SearchResultsViewType","ViewId":0,"Result":[{"Relevance":1.0,"Distance":0.0,"Direction":0.0,"MatchLevel":"district","MatchQuality":{"Country":1.0,"State":1.0,"County":1.0,"City":1.0,"District":1.0,"PostalCode":1.0},"Location":{"LocationId":"NT_J-xLtbhN2CY3fRBS3ibj3B","LocationType":"point","DisplayPosition":{"Latitude":51.7632908,"Longitude":8.9457839},"MapView":{"TopLeft":{"Latitude":51.77926,"Longitude":8.92704},"BottomRight":{"Latitude":51.74958,"Longitude":8.96059}},"Address":{"Label":"Altenbeken, Nordrhein-Westfalen, Deutschland","Country":"DEU","State":"Nordrhein-Westfalen","County":"Paderborn","City":"Altenbeken","District":"Altenbeken","PostalCode":"33184","AdditionalData":[{"value":"Deutschland","key":"CountryName"},{"value":"Nordrhein-Westfalen","key":"StateName"},{"value":"Paderborn","key":"CountyName"}]},"MapReference":{"ReferenceId":"842379504","SideOfStreet":"neither","CountryId":"20147700","StateId":"20157369","CountyId":"20160071","CityId":"20160072","DistrictId":"20160076"}}},{"Relevance":1.0,"Distance":5.9,"MatchLevel":"houseNumber","MatchQuality":{"Country":1.0,"State":1.0,"County":1.0,"City":1.0,"District":1.0,"Street":[1.0],"HouseNumber":1.0,"PostalCode":1.0},"MatchType":"interpolated","Location":{"LocationId":"NT_lZM1G7bqGV5V8Dw7Fge7xB_xA","LocationType":"point","DisplayPosition":{"Latitude":51.76326,"Longitude":8.94561},"MapView":{"TopLeft":{"Latitude":51.7643842,"Longitude":8.9437937},"BottomRight":{"Latitude":51.7621358,"Longitude":8.9474263}},"Address":{"Label":"Hüttenstraße 1, 33184 Altenbeken, Deutschland","Country":"DEU","State":"Nordrhein-Westfalen","County":"Paderborn","City":"Altenbeken","District":"Altenbeken","Street":"Hüttenstraße","HouseNumber":"1","PostalCode":"33184","AdditionalData":[{"value":"Deutschland","key":"CountryName"},{"value":"Nordrhein-Westfalen","key":"StateName"},{"value":"Paderborn","key":"CountyName"}]},"MapReference":{"ReferenceId":"842379501","Spot":0.85,"SideOfStreet":"right","CountryId":"20147700","StateId":"20157369","CountyId":"20160071","CityId":"20160072","DistrictId":"20160076","AddressId":"193240712","RoadLinkId":"224341785"}}},{"Relevance":1.0,"Distance":13.8,"MatchLevel":"street","MatchQuality":{"Country":1.0,"State":1.0,"County":1.0,"City":1.0,"District":1.0,"Street":[1.0],"PostalCode":1.0},"Location":{"LocationId":"NT_lZM1G7bqGV5V8Dw7Fge7xB_l_74899481_R","LocationType":"point","DisplayPosition":{"Latitude":51.76317,"Longitude":8.94574},"MapView":{"TopLeft":{"Latitude":51.76317,"Longitude":8.94574},"BottomRight":{"Latitude":51.76298,"Longitude":8.946}},"Address":{"Label":"Hüttenstraße, 33184 Altenbeken, Deutschland","Country":"DEU","State":"Nordrhein-Westfalen","County":"Paderborn","City":"Altenbeken","District":"Altenbeken","Street":"Hüttenstraße","PostalCode":"33184","AdditionalData":[{"value":"Deutschland","key":"CountryName"},{"value":"Nordrhein-Westfalen","key":"StateName"},{"value":"Paderborn","key":"CountyName"}]},"MapReference":{"ReferenceId":"74899481","Spot":1.0,"SideOfStreet":"right","CountryId":"20147700","StateId":"20157369","CountyId":"20160071","CityId":"20160072","DistrictId":"20160076"}}},{"Relevance":1.0,"Distance":19.3,"MatchLevel":"houseNumber","MatchQuality":{"Country":1.0,"State":1.0,"County":1.0,"City":1.0,"District":1.0,"Street":[1.0],"HouseNumber":1.0,"PostalCode":1.0},"MatchType":"interpolated","Location":{"LocationId":"NT_lZM1G7bqGV5V8Dw7Fge7xB_yA","LocationType":"point","DisplayPosition":{"Latitude":51.76333,"Longitude":8.94551},"MapView":{"TopLeft":{"Latitude":51.7644542,"Longitude":8.9436937},"BottomRight":{"Latitude":51.7622058,"Longitude":8.9473263}},"Address":{"Label":"Hüttenstraße 2, 33184 Altenbeken, Deutschland","Country":"DEU","State":"Nordrhein-Westfalen","County":"Paderborn","City":"Altenbeken","District":"Altenbeken","Street":"Hüttenstraße","HouseNumber":"2","PostalCode":"33184","AdditionalData":[{"value":"Deutschland","key":"CountryName"},{"value":"Nordrhein-Westfalen","key":"StateName"},{"value":"Paderborn","key":"CountyName"}]},"MapReference":{"ReferenceId":"842379502","Spot":0.6,"SideOfStreet":"left","CountryId":"20147700","StateId":"20157369","CountyId":"20160071","CityId":"20160072","DistrictId":"20160076","AddressId":"192645850","RoadLinkId":"224341786"}}},{"Relevance":1.0,"Distance":24.0,"MatchLevel":"street","MatchQuality":{"Country":1.0,"State":1.0,"County":1.0,"City":1.0,"District":1.0,"Street":[1.0],"PostalCode":1.0},"Location":{"LocationId":"NT_Fg0o5Tlh7B5YCUUPwx4pwA_l_74867713_R","LocationType":"point","DisplayPosition":{"Latitude":51.76337,"Longitude":8.94546},"MapView":{"TopLeft":{"Latitude":51.76347,"Longitude":8.94507},"BottomRight":{"Latitude":51.76337,"Longitude":8.94546}},"Address":{"Label":"Hüttenstraße, 33184 Altenbeken, Deutschland","Country":"DEU","State":"Nordrhein-Westfalen","County":"Paderborn","City":"Altenbeken","District":"Altenbeken","Street":"Hüttenstraße","PostalCode":"33184","AdditionalData":[{"value":"Deutschland","key":"CountryName"},{"value":"Nordrhein-Westfalen","key":"StateName"},{"value":"Paderborn","key":"CountyName"}]},"MapReference":{"ReferenceId":"74867713","Spot":0.0,"SideOfStreet":"right","CountryId":"20147700","StateId":"20157369","CountyId":"20160071","CityId":"20160072","DistrictId":"20160076"}}},{"Relevance":1.0,"Distance":31.8,"MatchLevel":"houseNumber","MatchQuality":{"Country":1.0,"State":1.0,"County":1.0,"City":1.0,"District":1.0,"Street":[1.0],"HouseNumber":1.0,"PostalCode":1.0},"MatchType":"interpolated","Location":{"LocationId":"NT_-bviDbHTyFSoH.J5TVGrGB_0A","LocationType":"point","DisplayPosition":{"Latitude":51.76356,"Longitude":8.94604},"MapView":{"TopLeft":{"Latitude":51.7646842,"Longitude":8.9442237},"BottomRight":{"Latitude":51.7624358,"Longitude":8.9478563}},"Address":{"Label":"Untere Sage 4, 33184 Altenbeken, Deutschland","Country":"DEU","State":"Nordrhein-Westfalen","County":"Paderborn","City":"Altenbeken","District":"Altenbeken","Street":"Untere Sage","HouseNumber":"4","PostalCode":"33184","AdditionalData":[{"value":"Deutschland","key":"CountryName"},{"value":"Nordrhein-Westfalen","key":"StateName"},{"value":"Paderborn","key":"CountyName"}]},"MapReference":{"ReferenceId":"74867739","Spot":0.47,"SideOfStreet":"right","CountryId":"20147700","StateId":"20157369","CountyId":"20160071","CityId":"20160072","DistrictId":"20160076","AddressId":"193240998","RoadLinkId":"35181295"}}},{"Relevance":1.0,"Distance":33.5,"MatchLevel":"houseNumber","MatchQuality":{"Country":1.0,"State":1.0,"County":1.0,"City":1.0,"District":1.0,"Street":[1.0],"HouseNumber":1.0,"PostalCode":1.0},"MatchType":"interpolated","Location":{"LocationId":"NT_FQl8Dptg1PFG8kKVQe46OA_yA","LocationType":"point","DisplayPosition":{"Latitude":51.76317,"Longitude":8.94627},"MapView":{"TopLeft":{"Latitude":51.7642942,"Longitude":8.9444537},"BottomRight":{"Latitude":51.7620458,"Longitude":8.9480863}},"Address":{"Label":"Ahornstraße 2, 33184 Altenbeken, Deutschland","Country":"DEU","State":"Nordrhein-Westfalen","County":"Paderborn","City":"Altenbeken","District":"Altenbeken","Street":"Ahornstraße","HouseNumber":"2","PostalCode":"33184","AdditionalData":[{"value":"Deutschland","key":"CountryName"},{"value":"Nordrhein-Westfalen","key":"StateName"},{"value":"Paderborn","key":"CountyName"}]},"MapReference":{"ReferenceId":"877411494","Spot":0.43,"SideOfStreet":"left","CountryId":"20147700","StateId":"20157369","CountyId":"20160071","CityId":"20160072","DistrictId":"20160076","AddressId":"249453487","RoadLinkId":"247466437"}}},{"Relevance":1.0,"Distance":39.2,"MatchLevel":"street","MatchQuality":{"Country":1.0,"State":1.0,"County":1.0,"City":1.0,"District":1.0,"Street":[1.0],"PostalCode":1.0},"Location":{"LocationId":"NT_3DUn28grwCHo5mji5AaB-D_l_74867738_L","LocationType":"point","DisplayPosition":{"Latitude":51.7629472,"Longitude":8.9459119},"MapView":{"TopLeft":{"Latitude":51.76298,"Longitude":8.94549},"BottomRight":{"Latitude":51.76279,"Longitude":8.946}},"Address":{"Label":"Dr.-Pentrup-Straße, 33184 Altenbeken, Deutschland","Country":"DEU","State":"Nordrhein-Westfalen","County":"Paderborn","City":"Altenbeken","District":"Altenbeken","Street":"Dr.-Pentrup-Straße","PostalCode":"33184","AdditionalData":[{"value":"Deutschland","key":"CountryName"},{"value":"Nordrhein-Westfalen","key":"StateName"},{"value":"Paderborn","key":"CountyName"}]},"MapReference":{"ReferenceId":"74867738","Spot":0.83,"SideOfStreet":"left","CountryId":"20147700","StateId":"20157369","CountyId":"20160071","CityId":"20160072","DistrictId":"20160076"}}},{"Relevance":1.0,"Distance":53.0,"MatchLevel":"street","MatchQuality":{"Country":1.0,"State":1.0,"County":1.0,"City":1.0,"District":1.0,"PostalCode":1.0},"Location":{"LocationId":"NT_UJYs0cx45.JCudai2bR7UB_l_74867731_R","LocationType":"point","DisplayPosition":{"Latitude":51.76347,"Longitude":8.94507},"MapView":{"TopLeft":{"Latitude":51.76366,"Longitude":8.94505},"BottomRight":{"Latitude":51.76347,"Longitude":8.94507}},"Address":{"Label":"33184 Altenbeken, Deutschland","Country":"DEU","State":"Nordrhein-Westfalen","County":"Paderborn","City":"Altenbeken","District":"Altenbeken","PostalCode":"33184","AdditionalData":[{"value":"Deutschland","key":"CountryName"},{"value":"Nordrhein-Westfalen","key":"StateName"},{"value":"Paderborn","key":"CountyName"}]},"MapReference":{"ReferenceId":"74867731","Spot":0.0,"SideOfStreet":"right","CountryId":"20147700","StateId":"20157369","CountyId":"20160071","CityId":"20160072","DistrictId":"20160076"}}},{"Relevance":1.0,"Distance":59.2,"MatchLevel":"street","MatchQuality":{"Country":1.0,"State":1.0,"County":1.0,"City":1.0,"District":1.0,"Street":[1.0],"PostalCode":1.0},"Location":{"LocationId":"NT_3DUn28grwCHo5mji5AaB-D_l_1124389141_R","LocationType":"point","DisplayPosition":{"Latitude":51.76279,"Longitude":8.94549},"MapView":{"TopLeft":{"Latitude":51.763,"Longitude":8.94407},"BottomRight":{"Latitude":51.76279,"Longitude":8.94549}},"Address":{"Label":"Dr.-Pentrup-Straße, 33184 Altenbeken, Deutschland","Country":"DEU","State":"Nordrhein-Westfalen","County":"Paderborn","City":"Altenbeken","District":"Altenbeken","Street":"Dr.-Pentrup-Straße","PostalCode":"33184","AdditionalData":[{"value":"Deutschland","key":"CountryName"},{"value":"Nordrhein-Westfalen","key":"StateName"},{"value":"Paderborn","key":"CountyName"}]},"MapReference":{"ReferenceId":"1124389141","Spot":0.0,"SideOfStreet":"right","CountryId":"20147700","StateId":"20157369","CountyId":"20160071","CityId":"20160072","DistrictId":"20160076"}}}]}]}}