{"Response":{"MetaInfo":{"Timestamp":"2020-03-28T10:40:18.857+0000","NextPageInformation":"2"},"View":[{"_type":"SearchResultsViewType","ViewId":0,"Result":[{"Relevance":1.0,"Distance":0.0,"Direction":0.0,"MatchLevel":"district","MatchQuality":{"Country":1.0,"State":1.0,"County":1.0,"City":1.0,"District":1.0,"PostalCode":1.0},"Location":{"LocationId":"NT_Xpoxk52mL0xTBQzlwZWkZD","LocationType":"point","DisplayPosition":{"Latitude":51.7597725,"Longitude":-0.3416353},"MapView":{"TopLeft":{"Latitude":51.77511,"Longitude":-0.36791},"BottomRight":{"Latitude":51.72976,"Longitude":-0.27177}},"Address":{"Label":"St Albans, England, United Kingdom","Country":"GBR","State":"England","County":"Hertfordshire","City":"St Albans","District":"St Albans","PostalCode":"AL1 3","AdditionalData":[{"value":"United Kingdom","key":"CountryName"},{"value":"England","key":"StateName"},{"value":"Hertfordshire","key":"CountyName"}]},"MapReference":{"ReferenceId":"836021684","SideOfStreet":"neither","StateId":"20248595","CountyId":"20336428","CityId":"20336631","DistrictId":"20336632"}}},{"Relevance":1.0,"Distance":16.2,"MatchLevel":"street","MatchQuality":{"Country":1.0,"State":1.0,"County":1.0,"City":1.0,"District":1.0,"Street":[1.0],"PostalCode":1.0},"Location":{"LocationId":"NT_AYGUQ3aH2diZGxD1gJomTD_l_565991513_R","LocationType":"point","DisplayPosition":{"Latitude":51.75969,"Longitude":-0.34183},"MapView":{"TopLeft":{"Latitude":51.76002,"Longitude":-0.34229},"BottomRight":{"Latitude":51.75959,"Longitude":-0.34181}},"Address":{"Label":"Falmouth Court, St Albans, AL3 5, United Kingdom","Country":"GBR","State":"England","County":"Hertfordshire","City":"St Albans","District":"St Albans","Street":"Falmouth Court","PostalCode":"AL3 5","AdditionalData":[{"value":"United Kingdom","key":"CountryName"},{"value":"England","key":"StateName"},{"value":"Hertfordshire","key":"CountyName"}]},"MapReference":{"ReferenceId":"565991513","Spot":0.15,"SideOfStreet":"right","StateId":"20248595","CountyId":"20336428","CityId":"20336631","DistrictId":"20336632"}}},{"Relevance":1.0,"Distance":19.4,"MatchLevel":"street","MatchQuality":{"Country":1.0,"State":1.0,"County":1.0,"City":1.0,"District":1.0,"Street":[1.0],"PostalCode":1.0},"Location":{"LocationId":"NT_p9Sk1Xzs0m8RE2E5nxYuAA_l_565991512_L","LocationType":"point","DisplayPosition":{"Latitude":51.7595983,"Longitude":-0.3416274},"MapView":{"TopLeft":{"Latitude":51.75961,"Longitude":-0.34181},"BottomRight":{"Latitude":51.75959,"Longitude":-0.34137}},"Address":{"Label":"Goldsmith Way, St Albans, AL3 5, United Kingdom","Country":"GBR","State":"England","County":"Hertfordshire","City":"St Albans","District":"St Albans","Street":"Goldsmith Way","PostalCode":"AL3 5","AdditionalData":[{"value":"United Kingdom","key":"CountryName"},{"value":"England","key":"StateName"},{"value":"Hertfordshire","key":"CountyName"}]},"MapReference":{"ReferenceId":"565991512","Spot":0.42,"SideOfStreet":"left","StateId":"20248595","CountyId":"20336428","CityId":"20336631","DistrictId":"20336632"}}},{"Relevance":1.0,"Distance":19.7,"MatchLevel":"postalCode","MatchQuality":{"PostalCode":1.0},"MatchType":"interpolated","Location":{"LocationId":"NT_tre3rkKUu6n6Keyx5I6Y6D_l_25784186_R_3ID","LocationType":"point","DisplayPosition":{"Latitude":51.75979,"Longitude":-0.34135},"MapView":{"TopLeft":{"Latitude":51.7687832,"Longitude":-0.3558796},"BottomRight":{"Latitude":51.7507968,"Longitude":-0.3268204}},"Address":{"Label":"AL3 5NP, St Albans, England, United Kingdom","Country":"GBR","State":"England","County":"Hertfordshire","City":"St Albans","PostalCode":"AL3 5NP","AdditionalData":[{"value":"United Kingdom","key":"CountryName"},{"value":"England","key":"StateName"},{"value":"Hertfordshire","key":"CountyName"}]},"MapReference":{"ReferenceId":"25784186","Spot":0.25,"SideOfStreet":"neither","StateId":"20248595","CountyId":"20336428","CityId":"20336631"}}},{"Relevance":1.0,"Distance":22.7,"MatchLevel":"houseNumber","MatchQuality":{"Country":1.0,"State":1.0,"County":1.0,"City":1.0,"District":1.0,"Street":[1.0],"HouseNumber":1.0,"PostalCode":1.0},"MatchType":"interpolated","Location":{"LocationId":"NT_tre3rkKUu6n6Keyx5I6Y6D_l_25784186_R_3ID","LocationType":"point","DisplayPosition":{"Latitude":51.75974,"Longitude":-0.34131},"MapView":{"TopLeft":{"Latitude":51.7608642,"Longitude":-0.3431262},"BottomRight":{"Latitude":51.7586159,"Longitude":-0.3394938}},"Address":{"Label":"72 Normandy Road, St Albans, AL3 5PW, United Kingdom","Country":"GBR","State":"England","County":"Hertfordshire","City":"St Albans","District":"St Albans","Street":"Normandy Road","HouseNumber":"72","PostalCode":"AL3 5PW","AdditionalData":[{"value":"United Kingdom","key":"CountryName"},{"value":"England","key":"StateName"},{"value":"Hertfordshire","key":"CountyName"}]},"MapReference":{"ReferenceId":"25784186","Spot":0.25,"SideOfStreet":"right","StateId":"20248595","CountyId":"20336428","CityId":"20336631","DistrictId":"20336632"}}},{"Relevance":1.0,"Distance":23.6,"MatchLevel":"street","MatchQuality":{"Country":1.0,"State":1.0,"County":1.0,"City":1.0,"District":1.0,"Street":[1.0],"PostalCode":1.0},"Location":{"LocationId":"NT_p9Sk1Xzs0m8RE2E5nxYuAA_l_565991511_L","LocationType":"point","DisplayPosition":{"Latitude":51.75959,"Longitude":-0.34181},"MapView":{"TopLeft":{"Latitude":51.75959,"Longitude":-0.34238},"BottomRight":{"Latitude":51.75952,"Longitude":-0.34181}},"Address":{"Label":"Goldsmith Way, St Albans, AL3 5, United Kingdom","Country":"GBR","State":"England","County":"Hertfordshire","City":"St Albans","District":"St Albans","Street":"Goldsmith Way","PostalCode":"AL3 5","AdditionalData":[{"value":"United Kingdom","key":"CountryName"},{"value":"England","key":"StateName"},{"value":"Hertfordshire","key":"CountyName"}]},"MapReference":{"ReferenceId":"565991511","Spot":1.0,"SideOfStreet":"left","StateId":"20248595","CountyId":"20336428","CityId":"20336631","DistrictId":"20336632"}}},{"Relevance":1.0,"Distance":42.2,"MatchLevel":"houseNumber","MatchQuality":{"Country":1.0,"State":1.0,"County":1.0,"City":1.0,"District":1.0,"Street":[1.0],"HouseNumber":1.0,"PostalCode":1.0},"MatchType":"interpolated","Location":{"LocationId":"NT_tre3rkKUu6n6Keyx5I6Y6D_l_25784301_L_5ED","LocationType":"point","DisplayPosition":{"Latitude":51.7594586,"Longitude":-0.34129},"MapView":{"TopLeft":{"Latitude":51.7605827,"Longitude":-0.3431062},"BottomRight":{"Latitude":51.7583344,"Longitude":-0.3394738}},"Address":{"Label":"91 Normandy Road, St Albans, AL3 5PU, United Kingdom","Country":"GBR","State":"England","County":"Hertfordshire","City":"St Albans","District":"St Albans","Street":"Normandy Road","HouseNumber":"91","PostalCode":"AL3 5PU","AdditionalData":[{"value":"United Kingdom","key":"CountryName"},{"value":"England","key":"StateName"},{"value":"Hertfordshire","key":"CountyName"}]},"MapReference":{"ReferenceId":"25784301","Spot":0.62,"SideOfStreet":"left","StateId":"20248595","CountyId":"20336428","CityId":"20336631","DistrictId":"20336632"}}},{"Relevance":1.0,"Distance":48.4,"MatchLevel":"postalCode","MatchQuality":{"PostalCode":1.0},"MatchType":"interpolated","Location":{"LocationId":"NT_tre3rkKUu6n6Keyx5I6Y6D_l_25784301_L_5ED","LocationType":"point","DisplayPosition":{"Latitude":51.75939,"Longitude":-0.3413},"MapView":{"TopLeft":{"Latitude":51.7683832,"Longitude":-0.3558294},"BottomRight":{"Latitude":51.7503968,"Longitude":-0.3267706}},"Address":{"Label":"AL3 5PU, St Albans, England, United Kingdom","Country":"GBR","State":"England","County":"Hertfordshire","City":"St Albans","PostalCode":"AL3 5PU","AdditionalData":[{"value":"United Kingdom","key":"CountryName"},{"value":"England","key":"StateName"},{"value":"Hertfordshire","key":"CountyName"}]},"MapReference":{"ReferenceId":"25784301","Spot":0.62,"SideOfStreet":"neither","StateId":"20248595","CountyId":"20336428","CityId":"20336631"}}},{"Relevance":1.0,"Distance":50.1,"MatchLevel":"postalCode","MatchQuality":{"PostalCode":1.0},"Location":{"LocationId":"NT_AYGUQ3aH2diZGxD1gJomTD_l_565991513_R","LocationType":"point","DisplayPosition":{"Latitude":51.75997,"Longitude":-0.34229},"MapView":{"TopLeft":{"Latitude":51.7689632,"Longitude":-0.3568196},"BottomRight":{"Latitude":51.7509768,"Longitude":-0.3277604}},"Address":{"Label":"AL3 5LF, St Albans, England, United Kingdom","Country":"GBR","State":"England","County":"Hertfordshire","City":"St Albans","PostalCode":"AL3 5LF","AdditionalData":[{"value":"United Kingdom","key":"CountryName"},{"value":"England","key":"StateName"},{"value":"Hertfordshire","key":"CountyName"}]},"MapReference":{"ReferenceId":"565991513","Spot":0.15,"SideOfStreet":"neither","StateId":"20248595","CountyId":"20336428","CityId":"20336631"}}},{"Relevance":1.0,"Distance":52.3,"MatchLevel":"postalCode","MatchQuality":{"PostalCode":1.0},"Location":{"LocationId":"NT_p9Sk1Xzs0m8RE2E5nxYuAA_l_565991511_L","LocationType":"point","DisplayPosition":{"Latitude":51.76022,"Longitude":-0.34187},"MapView":{"TopLeft":{"Latitude":51.7692132,"Longitude":-0.3563997},"BottomRight":{"Latitude":51.7512268,"Longitude":-0.3273403}},"Address":{"Label":"AL3 5LE, St Albans, England, United Kingdom","Country":"GBR","State":"England","County":"Hertfordshire","City":"St Albans","PostalCode":"AL3 5LE","AdditionalData":[{"value":"United Kingdom","key":"CountryName"},{"value":"England","key":"StateName"},{"value":"Hertfordshire","key":"CountyName"}]},"MapReference":{"ReferenceId":"565991511","Spot":1.0,"SideOfStreet":"neither","StateId":"20248595","CountyId":"20336428","CityId":"20336631"}}}]}]}}