{"Response":{"MetaInfo":{"Timestamp":"2020-03-28T11:58:07.646+0000","NextPageInformation":"2"},"View":[{"_type":"SearchResultsViewType","ViewId":0,"Result":[{"Relevance":1.0,"Distance":0.0,"Direction":0.0,"MatchLevel":"district","MatchQuality":{"Country":1.0,"State":1.0,"County":1.0,"City":1.0,"District":1.0,"PostalCode":1.0},"Location":{"LocationId":"NT_r9qERQDsnAjjo68qb4e2ZB","LocationType":"point","DisplayPosition":{"Latitude":51.7633231,"Longitude":-0.2264277},"MapView":{"TopLeft":{"Latitude":51.77897,"Longitude":-0.25948},"BottomRight":{"Latitude":51.73165,"Longitude":-0.20688}},"Address":{"Label":"Hatfield, England, United Kingdom","Country":"GBR","State":"England","County":"Hertfordshire","City":"Hatfield","District":"Hatfield","PostalCode":"AL10 0","AdditionalData":[{"value":"United Kingdom","key":"CountryName"},{"value":"England","key":"StateName"},{"value":"Hertfordshire","key":"CountyName"}]},"MapReference":{"ReferenceId":"1062418515","SideOfStreet":"neither","StateId":"20248595","CountyId":"20336428","CityId":"20336507","DistrictId":"20336508"}}},{"Relevance":1.0,"Distance":1.7,"MatchLevel":"postalCode","MatchQuality":{"PostalCode":1.0},"MatchType":"interpolated","Location":{"LocationId":"NT_nvoxqOar.HAqroSuYTHh9B_yUD","LocationType":"point","DisplayPosition":{"Latitude":51.76331,"Longitude":-0.22644},"MapView":{"TopLeft":{"Latitude":51.7723032,"Longitude":-0.2409707},"BottomRight":{"Latitude":51.7543168,"Longitude":-0.2119093}},"Address":{"Label":"AL10 0JT, Hatfield, England, United Kingdom","Country":"GBR","State":"England","County":"Hertfordshire","City":"Hatfield","PostalCode":"AL10 0JT","AdditionalData":[{"value":"United Kingdom","key":"CountryName"},{"value":"England","key":"StateName"},{"value":"Hertfordshire","key":"CountyName"}]},"MapReference":{"ReferenceId":"780276129","Spot":0.88,"SideOfStreet":"neither","StateId":"20248595","CountyId":"20336428","CityId":"20336507"}}},{"Relevance":1.0,"Distance":4.0,"MatchLevel":"houseNumber","MatchQuality":{"Country":1.0,"State":1.0,"County":1.0,"City":1.0,"District":1.0,"Street":[1.0],"HouseNumber":1.0,"PostalCode":1.0},"MatchType":"interpolated","Location":{"LocationId":"NT_nvoxqOar.HAqroSuYTHh9B_yUD","LocationType":"point","DisplayPosition":{"Latitude":51.76337,"Longitude":-0.2264},"MapView":{"TopLeft":{"Latitude":51.7644942,"Longitude":-0.2282163},"BottomRight":{"Latitude":51.7622458,"Longitude":-0.2245837}},"Address":{"Label":"25 The Arcade, Hatfield, AL10 0, United Kingdom","Country":"GBR","State":"England","County":"Hertfordshire","City":"Hatfield","District":"Hatfield","Street":"The Arcade","HouseNumber":"25","PostalCode":"AL10 0","AdditionalData":[{"value":"United Kingdom","key":"CountryName"},{"value":"England","key":"StateName"},{"value":"Hertfordshire","key":"CountyName"}]},"MapReference":{"ReferenceId":"780276129","Spot":0.88,"SideOfStreet":"right","StateId":"20248595","CountyId":"20336428","CityId":"20336507","DistrictId":"20336508","AddressId":"160410541","RoadLinkId":"298574772"}}},{"Relevance":1.0,"Distance":27.5,"MatchLevel":"houseNumber","MatchQuality":{"Country":1.0,"State":1.0,"County":1.0,"City":1.0,"District":1.0,"Street":[1.0],"HouseNumber":1.0,"PostalCode":1.0},"MatchType":"interpolated","Location":{"LocationId":"NT_nvoxqOar.HAqroSuYTHh9B_2YD","LocationType":"point","DisplayPosition":{"Latitude":51.76355,"Longitude":-0.22627},"MapView":{"TopLeft":{"Latitude":51.7646742,"Longitude":-0.2280863},"BottomRight":{"Latitude":51.7624258,"Longitude":-0.2244537}},"Address":{"Label":"66 The Arcade, Hatfield, AL10 0, United Kingdom","Country":"GBR","State":"England","County":"Hertfordshire","City":"Hatfield","District":"Hatfield","Street":"The Arcade","HouseNumber":"66","PostalCode":"AL10 0","AdditionalData":[{"value":"United Kingdom","key":"CountryName"},{"value":"England","key":"StateName"},{"value":"Hertfordshire","key":"CountyName"}]},"MapReference":{"ReferenceId":"780276131","Spot":0.21,"SideOfStreet":"right","StateId":"20248595","CountyId":"20336428","CityId":"20336507","DistrictId":"20336508","AddressId":"160405226","RoadLinkId":"298574766"}}},{"Relevance":1.0,"Distance":28.8,"MatchLevel":"street","MatchQuality":{"Country":1.0,"State":1.0,"County":1.0,"City":1.0,"District":1.0,"PostalCode":1.0},"Location":{"LocationId":"NT_fCXEmaYXTmtx3PxJ7sfH5B_l_1062489620_L","LocationType":"point","DisplayPosition":{"Latitude":51.76338,"Longitude":-0.22602},"MapView":{"TopLeft":{"Latitude":51.76348,"Longitude":-0.22602},"BottomRight":{"Latitude":51.76304,"Longitude":-0.2256}},"Address":{"Label":"Hatfield, AL10 0, United Kingdom","Country":"GBR","State":"England","County":"Hertfordshire","City":"Hatfield","District":"Hatfield","PostalCode":"AL10 0","AdditionalData":[{"value":"United Kingdom","key":"CountryName"},{"value":"England","key":"StateName"},{"value":"Hertfordshire","key":"CountyName"}]},"MapReference":{"ReferenceId":"1062489620","Spot":0.47,"SideOfStreet":"left","StateId":"20248595","CountyId":"20336428","CityId":"20336507","DistrictId":"20336508"}}},{"Relevance":1.0,"Distance":33.7,"MatchLevel":"postalCode","MatchQuality":{"PostalCode":1.0},"Location":{"LocationId":"NT_yBrVGVaiuK2myI-K58lC0B_l_780276072_R","LocationType":"point","DisplayPosition":{"Latitude":51.76352,"Longitude":-0.2268},"MapView":{"TopLeft":{"Latitude":51.7725132,"Longitude":-0.2413308},"BottomRight":{"Latitude":51.7545268,"Longitude":-0.2122692}},"Address":{"Label":"AL10 0JL, Hatfield, England, United Kingdom","Country":"GBR","State":"England","County":"Hertfordshire","City":"Hatfield","PostalCode":"AL10 0JL","AdditionalData":[{"value":"United Kingdom","key":"CountryName"},{"value":"England","key":"StateName"},{"value":"Hertfordshire","key":"CountyName"}]},"MapReference":{"ReferenceId":"780276072","Spot":0.0,"SideOfStreet":"neither","StateId":"20248595","CountyId":"20336428","CityId":"20336507"}}},{"Relevance":1.0,"Distance":33.8,"MatchLevel":"houseNumber","MatchQuality":{"Country":1.0,"State":1.0,"County":1.0,"City":1.0,"District":1.0,"Street":[1.0],"HouseNumber":1.0,"PostalCode":1.0},"MatchType":"interpolated","Location":{"LocationId":"NT_nvoxqOar.HAqroSuYTHh9B_yA","LocationType":"point","DisplayPosition":{"Latitude":51.76346,"Longitude":-0.22599},"MapView":{"TopLeft":{"Latitude":51.7645842,"Longitude":-0.2278063},"BottomRight":{"Latitude":51.7623358,"Longitude":-0.2241737}},"Address":{"Label":"2 The Arcade, Hatfield, AL10 0JY, United Kingdom","Country":"GBR","State":"England","County":"Hertfordshire","City":"Hatfield","District":"Hatfield","Street":"The Arcade","HouseNumber":"2","PostalCode":"AL10 0JY","AdditionalData":[{"value":"United Kingdom","key":"CountryName"},{"value":"England","key":"StateName"},{"value":"Hertfordshire","key":"CountyName"}]},"MapReference":{"ReferenceId":"1062489599","Spot":0.33,"SideOfStreet":"right","StateId":"20248595","CountyId":"20336428","CityId":"20336507","DistrictId":"20336508","AddressId":"160414637","RoadLinkId":"384617818"}}},{"Relevance":1.0,"Distance":34.8,"MatchLevel":"street","MatchQuality":{"Country":1.0,"State":1.0,"County":1.0,"City":1.0,"District":1.0,"Street":[1.0],"PostalCode":1.0},"Location":{"LocationId":"NT_N9Kur6qMXD7G.ChQ0Mo1oD_l_955580665_L","LocationType":"point","DisplayPosition":{"Latitude":51.7630132,"Longitude":-0.2263582},"MapView":{"TopLeft":{"Latitude":51.7631,"Longitude":-0.22711},"BottomRight":{"Latitude":51.76281,"Longitude":-0.22592}},"Address":{"Label":"Dog Kennel Lane, Hatfield, AL10 0, United Kingdom","Country":"GBR","State":"England","County":"Hertfordshire","City":"Hatfield","District":"Hatfield","Street":"Dog Kennel Lane","PostalCode":"AL10 0","AdditionalData":[{"value":"United Kingdom","key":"CountryName"},{"value":"England","key":"StateName"},{"value":"Hertfordshire","key":"CountyName"}]},"MapReference":{"ReferenceId":"955580665","Spot":0.6,"SideOfStreet":"left","StateId":"20248595","CountyId":"20336428","CityId":"20336507","DistrictId":"20336508"}}},{"Relevance":1.0,"Distance":37.6,"MatchLevel":"street","MatchQuality":{"Country":1.0,"State":1.0,"County":1.0,"City":1.0,"District":1.0,"Street":[1.0],"PostalCode":1.0},"Location":{"LocationId":"NT_yBrVGVaiuK2myI-K58lC0B_l_780276072_R","LocationType":"point","DisplayPosition":{"Latitude":51.76357,"Longitude":-0.2268},"MapView":{"TopLeft":{"Latitude":51.76391,"Longitude":-0.227},"BottomRight":{"Latitude":51.76357,"Longitude":-0.2268}},"Address":{"Label":"Robin Hood Lane, Hatfield, AL10 0, United Kingdom","Country":"GBR","State":"England","County":"Hertfordshire","City":"Hatfield","District":"Hatfield","Street":"Robin Hood Lane","PostalCode":"AL10 0","AdditionalData":[{"value":"United Kingdom","key":"CountryName"},{"value":"England","key":"StateName"},{"value":"Hertfordshire","key":"CountyName"}]},"MapReference":{"ReferenceId":"780276072","Spot":0.0,"SideOfStreet":"right","StateId":"20248595","CountyId":"20336428","CityId":"20336507","DistrictId":"20336508"}}},{"Relevance":1.0,"Distance":46.5,"MatchLevel":"landmark","MatchQuality":{"Country":1.0,"State":1.0,"County":1.0,"City":1.0,"District":1.0,"PostalCode":1.0,"Name":1.0},"Location":{"LocationId":"NT_ECBAgQCTc5lV63440cBVhD","LocationType":"shoppingCentre","Name":"Town Centre","DisplayPosition":{"Latitude":51.76274,"Longitude":-0.22899},"MapView":{"TopLeft":{"Latitude":51.76376,"Longitude":-0.23125},"BottomRight":{"Latitude":51.76172,"Longitude":-0.22471}},"Address":{"Label":"Hatfield, AL10 0, United Kingdom","Country":"GBR","State":"England","County":"Hertfordshire","City":"Hatfield","District":"Hatfield","PostalCode":"AL10 0","AdditionalData":[{"value":"United Kingdom","key":"CountryName"},{"value":"England","key":"StateName"},{"value":"Hertfordshire","key":"CountyName"}]},"MapReference":{"StateId":"20248595","CountyId":"20336428","CityId":"20336507","DistrictId":"20336508","PlaceId":"1407329062"}}}]}]}}