{"Response":{"MetaInfo":{"Timestamp":"2020-03-28T11:32:18.329+0000","NextPageInformation":"2"},"View":[{"_type":"SearchResultsViewType","ViewId":0,"Result":[{"Relevance":1.0,"Distance":0.0,"Direction":0.0,"MatchLevel":"district","MatchQuality":{"Country":1.0,"State":1.0,"County":1.0,"City":1.0,"District":1.0,"Subdistrict":1.0,"PostalCode":1.0},"Location":{"LocationId":"NT_vcH9696PtTngc5vN2HK4.A","LocationType":"point","DisplayPosition":{"Latitude":51.8011994,"Longitude":19.4359862},"MapView":{"TopLeft":{"Latitude":51.8324,"Longitude":19.34385},"BottomRight":{"Latitude":51.78353,"Longitude":19.5149}},"Address":{"Label":"Bałuty, Łódź, Woj. Łódzkie, Polska","Country":"POL","State":"Woj. Łódzkie","County":"Łódź","City":"Łódź","District":"Łódź","Subdistrict":"Bałuty","PostalCode":"91-357","AdditionalData":[{"value":"Polska","key":"CountryName"},{"value":"Woj. Łódzkie","key":"StateName"},{"value":"Łódź","key":"CountyName"}]},"MapReference":{"ReferenceId":"595653990","SideOfStreet":"neither","CountryId":"20624059","StateId":"20625723","CountyId":"20625724","CityId":"20625725","DistrictId":"20646758"}}},{"Relevance":1.0,"Distance":7.8,"MatchLevel":"landmark","MatchQuality":{"Country":1.0,"State":1.0,"County":1.0,"City":1.0,"District":1.0,"PostalCode":1.0,"Name":1.0},"Location":{"LocationId":"NT_JGiPFLhPhqTtAOikuEkN2C","LocationType":"hospital","Name":"Woj. Szpital Spec. im. Biegańskiego","DisplayPosition":{"Latitude":51.80063,"Longitude":19.43919},"MapView":{"TopLeft":{"Latitude":51.80168,"Longitude":19.4361},"BottomRight":{"Latitude":51.79958,"Longitude":19.44251}},"Address":{"Label":"90-132 Łódź, Polska","Country":"POL","State":"Woj. Łódzkie","County":"Łódź","City":"Łódź","District":"Łódź","PostalCode":"90-132","AdditionalData":[{"value":"Polska","key":"CountryName"},{"value":"Woj. Łódzkie","key":"StateName"},{"value":"Łódź","key":"CountyName"}]},"MapReference":{"CountryId":"20624059","StateId":"20625723","CountyId":"20625724","CityId":"20625725","DistrictId":"20646758","PlaceId":"561326607"}}},{"Relevance":1.0,"Distance":20.3,"MatchLevel":"street","MatchQuality":{"Country":1.0,"State":1.0,"County":1.0,"City":1.0,"District":1.0,"Subdistrict":1.0,"PostalCode":1.0},"Location":{"LocationId":"NT_u1RiKO80iaTx6mgq.2rIpA_l_1198866496_R","LocationType":"point","DisplayPosition":{"Latitude":51.80138,"Longitude":19.43603},"MapView":{"TopLeft":{"Latitude":51.80156,"Longitude":19.43595},"BottomRight":{"Latitude":51.80138,"Longitude":19.43634}},"Address":{"Label":"91-348 Łódź, Polska","Country":"POL","State":"Woj. Łódzkie","County":"Łódź","City":"Łódź","District":"Łódź","Subdistrict":"Bałuty","PostalCode":"91-348","AdditionalData":[{"value":"Polska","key":"CountryName"},{"value":"Woj. Łódzkie","key":"StateName"},{"value":"Łódź","key":"CountyName"}]},"MapReference":{"ReferenceId":"1198866496","Spot":0.23,"SideOfStreet":"right","CountryId":"20624059","StateId":"20625723","CountyId":"20625724","CityId":"20625725","DistrictId":"20646758"}}},{"Relevance":1.0,"Distance":25.4,"MatchLevel":"houseNumber","MatchQuality":{"Country":1.0,"State":1.0,"County":1.0,"City":1.0,"District":1.0,"Subdistrict":1.0,"Street":[1.0],"HouseNumber":1.0,"PostalCode":1.0},"MatchType":"interpolated","Location":{"LocationId":"NT_BaEs09zj15gGGURyPRXScC_2A","LocationType":"point","DisplayPosition":{"Latitude":51.80133,"Longitude":19.43535},"MapView":{"TopLeft":{"Latitude":51.8024542,"Longitude":19.4335321},"BottomRight":{"Latitude":51.8002058,"Longitude":19.4371679}},"Address":{"Label":"ulica Morwowa 6, 91-348 Łódź, Polska","Country":"POL","State":"Woj. Łódzkie","County":"Łódź","City":"Łódź","District":"Łódź","Subdistrict":"Bałuty","Street":"ulica Morwowa","HouseNumber":"6","PostalCode":"91-348","AdditionalData":[{"value":"Polska","key":"CountryName"},{"value":"Woj. Łódzkie","key":"StateName"},{"value":"Łódź","key":"CountyName"}]},"MapReference":{"ReferenceId":"595641695","Spot":0.11,"SideOfStreet":"right","CountryId":"20624059","StateId":"20625723","CountyId":"20625724","CityId":"20625725","DistrictId":"20646758","AddressId":"211509741","RoadLinkId":"95659867"}}},{"Relevance":1.0,"Distance":29.1,"MatchLevel":"street","MatchQuality":{"Country":1.0,"State":1.0,"County":1.0,"City":1.0,"District":1.0,"Subdistrict":1.0,"PostalCode":1.0},"Location":{"LocationId":"NT_u1RiKO80iaTx6mgq.2rIpA_l_1198866497_R","LocationType":"point","DisplayPosition":{"Latitude":51.80146,"Longitude":19.43595},"MapView":{"TopLeft":{"Latitude":51.8017,"Longitude":19.43592},"BottomRight":{"Latitude":51.80146,"Longitude":19.43595}},"Address":{"Label":"91-348 Łódź, Polska","Country":"POL","State":"Woj. Łódzkie","County":"Łódź","City":"Łódź","District":"Łódź","Subdistrict":"Bałuty","PostalCode":"91-348","AdditionalData":[{"value":"Polska","key":"CountryName"},{"value":"Woj. Łódzkie","key":"StateName"},{"value":"Łódź","key":"CountyName"}]},"MapReference":{"ReferenceId":"1198866497","Spot":0.0,"SideOfStreet":"right","CountryId":"20624059","StateId":"20625723","CountyId":"20625724","CityId":"20625725","DistrictId":"20646758"}}},{"Relevance":1.0,"Distance":31.5,"MatchLevel":"street","MatchQuality":{"Country":1.0,"State":1.0,"County":1.0,"City":1.0,"District":1.0,"Subdistrict":1.0,"PostalCode":1.0},"Location":{"LocationId":"NT_t8cq0XExHvxDfh10ZcQ3IA_l_1198867019_L","LocationType":"point","DisplayPosition":{"Latitude":51.80094,"Longitude":19.43617},"MapView":{"TopLeft":{"Latitude":51.80124,"Longitude":19.4361},"BottomRight":{"Latitude":51.80089,"Longitude":19.43823}},"Address":{"Label":"91-347 Łódź, Polska","Country":"POL","State":"Woj. Łódzkie","County":"Łódź","City":"Łódź","District":"Łódź","Subdistrict":"Bałuty","PostalCode":"91-347","AdditionalData":[{"value":"Polska","key":"CountryName"},{"value":"Woj. Łódzkie","key":"StateName"},{"value":"Łódź","key":"CountyName"}]},"MapReference":{"ReferenceId":"1198867019","Spot":0.04,"SideOfStreet":"left","CountryId":"20624059","StateId":"20625723","CountyId":"20625724","CityId":"20625725","DistrictId":"20646758"}}},{"Relevance":1.0,"Distance":35.3,"MatchLevel":"street","MatchQuality":{"Country":1.0,"State":1.0,"County":1.0,"City":1.0,"District":1.0,"Subdistrict":1.0,"PostalCode":1.0},"Location":{"LocationId":"NT_t8cq0XExHvxDfh10ZcQ3IA_l_1198867018_L","LocationType":"point","DisplayPosition":{"Latitude":51.80089,"Longitude":19.4361},"MapView":{"TopLeft":{"Latitude":51.80089,"Longitude":19.43594},"BottomRight":{"Latitude":51.80052,"Longitude":19.4361}},"Address":{"Label":"91-347 Łódź, Polska","Country":"POL","State":"Woj. Łódzkie","County":"Łódź","City":"Łódź","District":"Łódź","Subdistrict":"Bałuty","PostalCode":"91-347","AdditionalData":[{"value":"Polska","key":"CountryName"},{"value":"Woj. Łódzkie","key":"StateName"},{"value":"Łódź","key":"CountyName"}]},"MapReference":{"ReferenceId":"1198867018","Spot":1.0,"SideOfStreet":"left","CountryId":"20624059","StateId":"20625723","CountyId":"20625724","CityId":"20625725","DistrictId":"20646758"}}},{"Relevance":1.0,"Distance":46.9,"MatchLevel":"street","MatchQuality":{"Country":1.0,"State":1.0,"County":1.0,"City":1.0,"District":1.0,"Subdistrict":1.0,"PostalCode":1.0},"Location":{"LocationId":"NT_u1RiKO80iaTx6mgq.2rIpA_l_1198866494_L","LocationType":"point","DisplayPosition":{"Latitude":51.80156,"Longitude":19.43634},"MapView":{"TopLeft":{"Latitude":51.80156,"Longitude":19.43634},"BottomRight":{"Latitude":51.80149,"Longitude":19.43649}},"Address":{"Label":"91-348 Łódź, Polska","Country":"POL","State":"Woj. Łódzkie","County":"Łódź","City":"Łódź","District":"Łódź","Subdistrict":"Bałuty","PostalCode":"91-348","AdditionalData":[{"value":"Polska","key":"CountryName"},{"value":"Woj. Łódzkie","key":"StateName"},{"value":"Łódź","key":"CountyName"}]},"MapReference":{"ReferenceId":"1198866494","Spot":1.0,"SideOfStreet":"left","CountryId":"20624059","StateId":"20625723","CountyId":"20625724","CityId":"20625725","DistrictId":"20646758"}}},{"Relevance":1.0,"Distance":47.4,"MatchLevel":"street","MatchQuality":{"Country":1.0,"State":1.0,"County":1.0,"City":1.0,"District":1.0,"Subdistrict":1.0,"PostalCode":1.0},"Location":{"LocationId":"NT_u1RiKO80iaTx6mgq.2rIpA_l_1196246579_R","LocationType":"point","DisplayPosition":{"Latitude":51.80149,"Longitude":19.43649},"MapView":{"TopLeft":{"Latitude":51.80194,"Longitude":19.43649},"BottomRight":{"Latitude":51.80149,"Longitude":19.43805}},"Address":{"Label":"91-348 Łódź, Polska","Country":"POL","State":"Woj. Łódzkie","County":"Łódź","City":"Łódź","District":"Łódź","Subdistrict":"Bałuty","PostalCode":"91-348","AdditionalData":[{"value":"Polska","key":"CountryName"},{"value":"Woj. Łódzkie","key":"StateName"},{"value":"Łódź","key":"CountyName"}]},"MapReference":{"ReferenceId":"1196246579","Spot":0.0,"SideOfStreet":"right","CountryId":"20624059","StateId":"20625723","CountyId":"20625724","CityId":"20625725","DistrictId":"20646758"}}},{"Relevance":1.0,"Distance":55.8,"MatchLevel":"street","MatchQuality":{"Country":1.0,"State":1.0,"County":1.0,"City":1.0,"District":1.0,"Subdistrict":1.0,"PostalCode":1.0},"Location":{"LocationId":"NT_u1RiKO80iaTx6mgq.2rIpA_l_1198866495_L","LocationType":"point","DisplayPosition":{"Latitude":51.8017,"Longitude":19.43592},"MapView":{"TopLeft":{"Latitude":51.80174,"Longitude":19.43592},"BottomRight":{"Latitude":51.80156,"Longitude":19.43634}},"Address":{"Label":"91-348 Łódź, Polska","Country":"POL","State":"Woj. Łódzkie","County":"Łódź","City":"Łódź","District":"Łódź","Subdistrict":"Bałuty","PostalCode":"91-348","AdditionalData":[{"value":"Polska","key":"CountryName"},{"value":"Woj. Łódzkie","key":"StateName"},{"value":"Łódź","key":"CountyName"}]},"MapReference":{"ReferenceId":"1198866495","Spot":1.0,"SideOfStreet":"left","CountryId":"20624059","StateId":"20625723","CountyId":"20625724","CityId":"20625725","DistrictId":"20646758"}}}]}]}}