{"Response":{"MetaInfo":{"Timestamp":"2020-03-28T10:40:45.692+0000","NextPageInformation":"2"},"View":[{"_type":"SearchResultsViewType","ViewId":0,"Result":[{"Relevance":1.0,"Distance":0.0,"Direction":0.0,"MatchLevel":"district","MatchQuality":{"Country":1.0,"State":1.0,"County":1.0,"City":1.0,"District":1.0,"PostalCode":1.0},"Location":{"LocationId":"NT_cY3.QczJgKGGPlk4oENX6A","LocationType":"point","DisplayPosition":{"Latitude":51.8142978,"Longitude":-0.3570011},"MapView":{"TopLeft":{"Latitude":51.83216,"Longitude":-0.39036},"BottomRight":{"Latitude":51.78963,"Longitude":-0.31992}},"Address":{"Label":"Harpenden, England, United Kingdom","Country":"GBR","State":"England","County":"Hertfordshire","City":"Harpenden","District":"Harpenden","PostalCode":"AL5 2","AdditionalData":[{"value":"United Kingdom","key":"CountryName"},{"value":"England","key":"StateName"},{"value":"Hertfordshire","key":"CountyName"}]},"MapReference":{"ReferenceId":"836006570","SideOfStreet":"neither","StateId":"20248595","CountyId":"20336428","CityId":"20336505","DistrictId":"20336506"}}},{"Relevance":1.0,"Distance":5.8,"MatchLevel":"houseNumber","MatchQuality":{"Country":1.0,"State":1.0,"County":1.0,"City":1.0,"District":1.0,"Street":[1.0],"HouseNumber":1.0,"PostalCode":1.0},"MatchType":"interpolated","Location":{"LocationId":"NT_JzF.9JGzYE2Jao8fDwa2oA_l_25866866_R_0A","LocationType":"point","DisplayPosition":{"Latitude":51.8143488,"Longitude":-0.3570185},"MapView":{"TopLeft":{"Latitude":51.815473,"Longitude":-0.3588369},"BottomRight":{"Latitude":51.8132247,"Longitude":-0.3552001}},"Address":{"Label":"4 Amenbury Lane, Harpenden, AL5 2BT, United Kingdom","Country":"GBR","State":"England","County":"Hertfordshire","City":"Harpenden","District":"Harpenden","Street":"Amenbury Lane","HouseNumber":"4","PostalCode":"AL5 2BT","AdditionalData":[{"value":"United Kingdom","key":"CountryName"},{"value":"England","key":"StateName"},{"value":"Hertfordshire","key":"CountyName"}]},"MapReference":{"ReferenceId":"25866866","Spot":0.51,"SideOfStreet":"right","StateId":"20248595","CountyId":"20336428","CityId":"20336505","DistrictId":"20336506"}}},{"Relevance":1.0,"Distance":13.3,"MatchLevel":"postalCode","MatchQuality":{"PostalCode":1.0},"MatchType":"interpolated","Location":{"LocationId":"NT_JzF.9JGzYE2Jao8fDwa2oA_l_25866866_R_0A","LocationType":"point","DisplayPosition":{"Latitude":51.81427,"Longitude":-0.35719},"MapView":{"TopLeft":{"Latitude":51.8232632,"Longitude":-0.3717371},"BottomRight":{"Latitude":51.8052768,"Longitude":-0.3426429}},"Address":{"Label":"AL5 2EJ, Harpenden, England, United Kingdom","Country":"GBR","State":"England","County":"Hertfordshire","City":"Harpenden","PostalCode":"AL5 2EJ","AdditionalData":[{"value":"United Kingdom","key":"CountryName"},{"value":"England","key":"StateName"},{"value":"Hertfordshire","key":"CountyName"}]},"MapReference":{"ReferenceId":"25866866","Spot":0.51,"SideOfStreet":"neither","StateId":"20248595","CountyId":"20336428","CityId":"20336505"}}},{"Relevance":1.0,"Distance":30.2,"MatchLevel":"houseNumber","MatchQuality":{"Country":1.0,"State":1.0,"County":1.0,"City":1.0,"District":1.0,"Street":[1.0],"HouseNumber":1.0,"PostalCode":1.0},"MatchType":"interpolated","Location":{"LocationId":"NT_r7A7nwUr48ZhwavVKSsBlD_l_25866849_L_xQD","LocationType":"point","DisplayPosition":{"Latitude":51.8146329,"Longitude":-0.3566387},"MapView":{"TopLeft":{"Latitude":51.8157571,"Longitude":-0.3584571},"BottomRight":{"Latitude":51.8135088,"Longitude":-0.3548203}},"Address":{"Label":"14 Leyton Green, Harpenden, AL5 2, United Kingdom","Country":"GBR","State":"England","County":"Hertfordshire","City":"Harpenden","District":"Harpenden","Street":"Leyton Green","HouseNumber":"14","PostalCode":"AL5 2","AdditionalData":[{"value":"United Kingdom","key":"CountryName"},{"value":"England","key":"StateName"},{"value":"Hertfordshire","key":"CountyName"}]},"MapReference":{"ReferenceId":"25866849","Spot":0.25,"SideOfStreet":"left","StateId":"20248595","CountyId":"20336428","CityId":"20336505","DistrictId":"20336506"}}},{"Relevance":1.0,"Distance":51.0,"MatchLevel":"street","MatchQuality":{"Country":1.0,"State":1.0,"County":1.0,"City":1.0,"District":1.0,"Street":[1.0],"PostalCode":1.0},"Location":{"LocationId":"NT_JzF.9JGzYE2Jao8fDwa2oA_l_25866870_R","LocationType":"point","DisplayPosition":{"Latitude":51.81426,"Longitude":-0.35774},"MapView":{"TopLeft":{"Latitude":51.81426,"Longitude":-0.35827},"BottomRight":{"Latitude":51.81421,"Longitude":-0.35774}},"Address":{"Label":"Amenbury Lane, Harpenden, AL5 2, United Kingdom","Country":"GBR","State":"England","County":"Hertfordshire","City":"Harpenden","District":"Harpenden","Street":"Amenbury Lane","PostalCode":"AL5 2","AdditionalData":[{"value":"United Kingdom","key":"CountryName"},{"value":"England","key":"StateName"},{"value":"Hertfordshire","key":"CountyName"}]},"MapReference":{"ReferenceId":"25866870","Spot":1.0,"SideOfStreet":"right","StateId":"20248595","CountyId":"20336428","CityId":"20336505","DistrictId":"20336506"}}},{"Relevance":1.0,"Distance":51.6,"MatchLevel":"street","MatchQuality":{"Country":1.0,"State":1.0,"County":1.0,"City":1.0,"District":1.0,"Street":[1.0],"PostalCode":1.0},"Location":{"LocationId":"NT_JzF.9JGzYE2Jao8fDwa2oA_l_25866848_R","LocationType":"point","DisplayPosition":{"Latitude":51.81454,"Longitude":-0.35636},"MapView":{"TopLeft":{"Latitude":51.81462,"Longitude":-0.35636},"BottomRight":{"Latitude":51.81454,"Longitude":-0.35605}},"Address":{"Label":"Amenbury Lane, Harpenden, AL5 2, United Kingdom","Country":"GBR","State":"England","County":"Hertfordshire","City":"Harpenden","District":"Harpenden","Street":"Amenbury Lane","PostalCode":"AL5 2","AdditionalData":[{"value":"United Kingdom","key":"CountryName"},{"value":"England","key":"StateName"},{"value":"Hertfordshire","key":"CountyName"}]},"MapReference":{"ReferenceId":"25866848","Spot":0.0,"SideOfStreet":"right","StateId":"20248595","CountyId":"20336428","CityId":"20336505","DistrictId":"20336506"}}},{"Relevance":1.0,"Distance":52.4,"MatchLevel":"postalCode","MatchQuality":{"PostalCode":1.0},"MatchType":"interpolated","Location":{"LocationId":"NT_r7A7nwUr48ZhwavVKSsBlD_l_25866849_L_xQD","LocationType":"point","DisplayPosition":{"Latitude":51.81476,"Longitude":-0.35685},"MapView":{"TopLeft":{"Latitude":51.8237532,"Longitude":-0.3713973},"BottomRight":{"Latitude":51.8057668,"Longitude":-0.3423027}},"Address":{"Label":"AL5 2TG, Harpenden, England, United Kingdom","Country":"GBR","State":"England","County":"Hertfordshire","City":"Harpenden","PostalCode":"AL5 2TG","AdditionalData":[{"value":"United Kingdom","key":"CountryName"},{"value":"England","key":"StateName"},{"value":"Hertfordshire","key":"CountyName"}]},"MapReference":{"ReferenceId":"25866849","Spot":0.25,"SideOfStreet":"neither","StateId":"20248595","CountyId":"20336428","CityId":"20336505"}}},{"Relevance":1.0,"Distance":54.3,"MatchLevel":"postalCode","MatchQuality":{"PostalCode":1.0},"MatchType":"interpolated","Location":{"LocationId":"NT_cYBt.dtfaAIrTVuayuMEcD_l_25866926_R_xA","LocationType":"point","DisplayPosition":{"Latitude":51.81402,"Longitude":-0.35765},"MapView":{"TopLeft":{"Latitude":51.8230132,"Longitude":-0.372197},"BottomRight":{"Latitude":51.8050268,"Longitude":-0.343103}},"Address":{"Label":"AL5 2HS, Harpenden, England, United Kingdom","Country":"GBR","State":"England","County":"Hertfordshire","City":"Harpenden","PostalCode":"AL5 2HS","AdditionalData":[{"value":"United Kingdom","key":"CountryName"},{"value":"England","key":"StateName"},{"value":"Hertfordshire","key":"CountyName"}]},"MapReference":{"ReferenceId":"25866926","Spot":0.5,"SideOfStreet":"neither","StateId":"20248595","CountyId":"20336428","CityId":"20336505"}}},{"Relevance":1.0,"Distance":57.7,"MatchLevel":"houseNumber","MatchQuality":{"Country":1.0,"State":1.0,"County":1.0,"City":1.0,"District":1.0,"Street":[1.0],"HouseNumber":1.0,"PostalCode":1.0},"MatchType":"interpolated","Location":{"LocationId":"NT_ySbcVJHJp-sEsa7Q5pxGPC_l_586291318_L_xA","LocationType":"point","DisplayPosition":{"Latitude":51.81438,"Longitude":-0.35783},"MapView":{"TopLeft":{"Latitude":51.8155042,"Longitude":-0.3596484},"BottomRight":{"Latitude":51.8132559,"Longitude":-0.3560116}},"Address":{"Label":"1 Amenbury Court, Harpenden, AL5 2BU, United Kingdom","Country":"GBR","State":"England","County":"Hertfordshire","City":"Harpenden","District":"Harpenden","Street":"Amenbury Court","HouseNumber":"1","PostalCode":"AL5 2BU","AdditionalData":[{"value":"United Kingdom","key":"CountryName"},{"value":"England","key":"StateName"},{"value":"Hertfordshire","key":"CountyName"}]},"MapReference":{"ReferenceId":"586291318","Spot":0.17,"SideOfStreet":"left","StateId":"20248595","CountyId":"20336428","CityId":"20336505","DistrictId":"20336506"}}},{"Relevance":1.0,"Distance":61.8,"MatchLevel":"houseNumber","MatchQuality":{"Country":1.0,"State":1.0,"County":1.0,"City":1.0,"District":1.0,"Street":[1.0],"HouseNumber":1.0,"PostalCode":1.0},"MatchType":"interpolated","Location":{"LocationId":"NT_cYBt.dtfaAIrTVuayuMEcD_l_25866926_R_xA","LocationType":"point","DisplayPosition":{"Latitude":51.8137926,"Longitude":-0.3576769},"MapView":{"TopLeft":{"Latitude":51.8149168,"Longitude":-0.3594953},"BottomRight":{"Latitude":51.8126685,"Longitude":-0.3558586}},"Address":{"Label":"1 Hay Lane, Harpenden, AL5 2HS, United Kingdom","Country":"GBR","State":"England","County":"Hertfordshire","City":"Harpenden","District":"Harpenden","Street":"Hay Lane","HouseNumber":"1","PostalCode":"AL5 2HS","AdditionalData":[{"value":"United Kingdom","key":"CountryName"},{"value":"England","key":"StateName"},{"value":"Hertfordshire","key":"CountyName"}]},"MapReference":{"ReferenceId":"25866926","Spot":0.5,"SideOfStreet":"right","StateId":"20248595","CountyId":"20336428","CityId":"20336505","DistrictId":"20336506"}}}]}]}}