{"Response":{"MetaInfo":{"Timestamp":"2020-03-28T10:33:17.745+0000","NextPageInformation":"2"},"View":[{"_type":"SearchResultsViewType","ViewId":0,"Result":[{"Relevance":1.0,"Distance":0.0,"Direction":0.0,"MatchLevel":"district","MatchQuality":{"Country":1.0,"State":1.0,"County":1.0,"City":1.0,"District":1.0,"PostalCode":1.0},"Location":{"LocationId":"NT_AVDeAdyRHX1MuAuv67ocbB","LocationType":"point","DisplayPosition":{"Latitude":51.8927647,"Longitude":-0.3692731},"MapView":{"TopLeft":{"Latitude":51.92863,"Longitude":-0.50593},"BottomRight":{"Latitude":51.86142,"Longitude":-0.3502}},"Address":{"Label":"Luton, England, United Kingdom","Country":"GBR","State":"England","County":"Bedfordshire","City":"Luton","District":"Luton","PostalCode":"LU1 2","AdditionalData":[{"value":"United Kingdom","key":"CountryName"},{"value":"England","key":"StateName"},{"value":"Bedfordshire","key":"CountyName"}]},"MapReference":{"ReferenceId":"996450069","SideOfStreet":"neither","StateId":"20248595","CountyId":"20334253","CityId":"20334401","DistrictId":"20334402"}}},{"Relevance":1.0,"Distance":8.8,"MatchLevel":"street","MatchQuality":{"Country":1.0,"State":1.0,"County":1.0,"City":1.0,"District":1.0,"Street":[1.0],"PostalCode":1.0},"Location":{"LocationId":"NT_lj7oONqo0SbadeTHqoMt9D_l_566014473_R","LocationType":"point","DisplayPosition":{"Latitude":51.8928411,"Longitude":-0.3693087},"MapView":{"TopLeft":{"Latitude":51.89325,"Longitude":-0.37131},"BottomRight":{"Latitude":51.89193,"Longitude":-0.36843}},"Address":{"Label":"Crawley Green Road, Luton, LU2 8, United Kingdom","Country":"GBR","State":"England","County":"Bedfordshire","City":"Luton","District":"Luton","Street":"Crawley Green Road","PostalCode":"LU2 8","AdditionalData":[{"value":"United Kingdom","key":"CountryName"},{"value":"England","key":"StateName"},{"value":"Bedfordshire","key":"CountyName"}]},"MapReference":{"ReferenceId":"566014473","Spot":0.69,"SideOfStreet":"right","StateId":"20248595","CountyId":"20334253","CityId":"20334401","DistrictId":"20334402"}}},{"Relevance":1.0,"Distance":19.4,"MatchLevel":"postalCode","MatchQuality":{"PostalCode":1.0},"Location":{"LocationId":"NT_lj7oONqo0SbadeTHqoMt9D_l_566014473_R","LocationType":"point","DisplayPosition":{"Latitude":51.89268,"Longitude":-0.36952},"MapView":{"TopLeft":{"Latitude":51.9016732,"Longitude":-0.3840925},"BottomRight":{"Latitude":51.8836868,"Longitude":-0.3549475}},"Address":{"Label":"LU2 9SB, Luton, England, United Kingdom","Country":"GBR","State":"England","County":"Bedfordshire","City":"Luton","PostalCode":"LU2 9SB","AdditionalData":[{"value":"United Kingdom","key":"CountryName"},{"value":"England","key":"StateName"},{"value":"Bedfordshire","key":"CountyName"}]},"MapReference":{"ReferenceId":"566014473","Spot":0.69,"SideOfStreet":"neither","StateId":"20248595","CountyId":"20334253","CityId":"20334401"}}},{"Relevance":1.0,"Distance":28.3,"MatchLevel":"houseNumber","MatchQuality":{"Country":1.0,"State":1.0,"County":1.0,"City":1.0,"District":1.0,"Street":[1.0],"HouseNumber":1.0,"PostalCode":1.0},"MatchType":"interpolated","Location":{"LocationId":"NT_LeLfiW.E3b3TWZle4fANMA_l_25927394_L_xID","LocationType":"point","DisplayPosition":{"Latitude":51.8931529,"Longitude":-0.3693025},"MapView":{"TopLeft":{"Latitude":51.8942771,"Longitude":-0.3711241},"BottomRight":{"Latitude":51.8920288,"Longitude":-0.3674809}},"Address":{"Label":"12 Cheslyn Close, Luton, LU2 8UA, United Kingdom","Country":"GBR","State":"England","County":"Bedfordshire","City":"Luton","District":"Luton","Street":"Cheslyn Close","HouseNumber":"12","PostalCode":"LU2 8UA","AdditionalData":[{"value":"United Kingdom","key":"CountryName"},{"value":"England","key":"StateName"},{"value":"Bedfordshire","key":"CountyName"}]},"MapReference":{"ReferenceId":"25927394","Spot":0.17,"SideOfStreet":"left","StateId":"20248595","CountyId":"20334253","CityId":"20334401","DistrictId":"20334402"}}},{"Relevance":1.0,"Distance":54.0,"MatchLevel":"houseNumber","MatchQuality":{"Country":1.0,"State":1.0,"County":1.0,"City":1.0,"District":1.0,"Street":[1.0],"HouseNumber":1.0,"PostalCode":1.0},"MatchType":"interpolated","Location":{"LocationId":"NT_DzuRjoVs624IC1pJEnrG2B_l_25927418_L_yMD","LocationType":"point","DisplayPosition":{"Latitude":51.892756,"Longitude":-0.368412},"MapView":{"TopLeft":{"Latitude":51.8938802,"Longitude":-0.3702336},"BottomRight":{"Latitude":51.8916319,"Longitude":-0.3665904}},"Address":{"Label":"23 Rowington Close, Luton, LU2 9TZ, United Kingdom","Country":"GBR","State":"England","County":"Bedfordshire","City":"Luton","District":"Luton","Street":"Rowington Close","HouseNumber":"23","PostalCode":"LU2 9TZ","AdditionalData":[{"value":"United Kingdom","key":"CountryName"},{"value":"England","key":"StateName"},{"value":"Bedfordshire","key":"CountyName"}]},"MapReference":{"ReferenceId":"25927418","Spot":0.59,"SideOfStreet":"left","StateId":"20248595","CountyId":"20334253","CityId":"20334401","DistrictId":"20334402"}}},{"Relevance":1.0,"Distance":57.0,"MatchLevel":"houseNumber","MatchQuality":{"Country":1.0,"State":1.0,"County":1.0,"City":1.0,"District":1.0,"Street":[1.0],"HouseNumber":1.0,"PostalCode":1.0},"MatchType":"interpolated","Location":{"LocationId":"NT_wJM9WikoThsCBlEiWdZ9uA_l_25927422_R_1gD","LocationType":"point","DisplayPosition":{"Latitude":51.892867,"Longitude":-0.3701487},"MapView":{"TopLeft":{"Latitude":51.8939911,"Longitude":-0.3719703},"BottomRight":{"Latitude":51.8917428,"Longitude":-0.3683272}},"Address":{"Label":"58 Claverley Green, Luton, LU2 8TA, United Kingdom","Country":"GBR","State":"England","County":"Bedfordshire","City":"Luton","District":"Luton","Street":"Claverley Green","HouseNumber":"58","PostalCode":"LU2 8TA","AdditionalData":[{"value":"United Kingdom","key":"CountryName"},{"value":"England","key":"StateName"},{"value":"Bedfordshire","key":"CountyName"}]},"MapReference":{"ReferenceId":"25927422","Spot":0.47,"SideOfStreet":"right","StateId":"20248595","CountyId":"20334253","CityId":"20334401","DistrictId":"20334402"}}},{"Relevance":1.0,"Distance":73.2,"MatchLevel":"postalCode","MatchQuality":{"PostalCode":1.0},"MatchType":"interpolated","Location":{"LocationId":"NT_LeLfiW.E3b3TWZle4fANMA_l_25927394_L_xID","LocationType":"point","DisplayPosition":{"Latitude":51.8934,"Longitude":-0.36955},"MapView":{"TopLeft":{"Latitude":51.9023932,"Longitude":-0.3841227},"BottomRight":{"Latitude":51.8844068,"Longitude":-0.3549773}},"Address":{"Label":"LU2 8UA, Luton, England, United Kingdom","Country":"GBR","State":"England","County":"Bedfordshire","City":"Luton","PostalCode":"LU2 8UA","AdditionalData":[{"value":"United Kingdom","key":"CountryName"},{"value":"England","key":"StateName"},{"value":"Bedfordshire","key":"CountyName"}]},"MapReference":{"ReferenceId":"25927394","Spot":0.17,"SideOfStreet":"neither","StateId":"20248595","CountyId":"20334253","CityId":"20334401"}}},{"Relevance":1.0,"Distance":79.1,"MatchLevel":"street","MatchQuality":{"Country":1.0,"State":1.0,"County":1.0,"City":1.0,"District":1.0,"PostalCode":1.0},"Location":{"LocationId":"NT_77PdXpH6oPRxrb5HgEeh8A_l_25927390_R","LocationType":"point","DisplayPosition":{"Latitude":51.89325,"Longitude":-0.36843},"MapView":{"TopLeft":{"Latitude":51.89327,"Longitude":-0.36843},"BottomRight":{"Latitude":51.89324,"Longitude":-0.36821}},"Address":{"Label":"Luton, LU2 8, United Kingdom","Country":"GBR","State":"England","County":"Bedfordshire","City":"Luton","District":"Luton","PostalCode":"LU2 8","AdditionalData":[{"value":"United Kingdom","key":"CountryName"},{"value":"England","key":"StateName"},{"value":"Bedfordshire","key":"CountyName"}]},"MapReference":{"ReferenceId":"25927390","Spot":0.0,"SideOfStreet":"right","StateId":"20248595","CountyId":"20334253","CityId":"20334401","DistrictId":"20334402"}}},{"Relevance":1.0,"Distance":81.8,"MatchLevel":"houseNumber","MatchQuality":{"Country":1.0,"State":1.0,"County":1.0,"City":1.0,"District":1.0,"Street":[1.0],"HouseNumber":1.0,"PostalCode":1.0},"MatchType":"interpolated","Location":{"LocationId":"NT_HAzzQK5qTDPtdhtX6.r10B_l_25927376_L_xQDN","LocationType":"point","DisplayPosition":{"Latitude":51.8935444,"Longitude":-0.3686455},"MapView":{"TopLeft":{"Latitude":51.8946685,"Longitude":-0.3704671},"BottomRight":{"Latitude":51.8924202,"Longitude":-0.3668239}},"Address":{"Label":"144 Rochford Drive, Luton, LU2 8SU, United Kingdom","Country":"GBR","State":"England","County":"Bedfordshire","City":"Luton","District":"Luton","Street":"Rochford Drive","HouseNumber":"144","PostalCode":"LU2 8SU","AdditionalData":[{"value":"United Kingdom","key":"CountryName"},{"value":"England","key":"StateName"},{"value":"Bedfordshire","key":"CountyName"}]},"MapReference":{"ReferenceId":"25927376","Spot":0.51,"SideOfStreet":"left","StateId":"20248595","CountyId":"20334253","CityId":"20334401","DistrictId":"20334402"}}},{"Relevance":1.0,"Distance":81.9,"MatchLevel":"street","MatchQuality":{"Country":1.0,"State":1.0,"County":1.0,"City":1.0,"District":1.0,"PostalCode":1.0},"Location":{"LocationId":"NT_77PdXpH6oPRxrb5HgEeh8A_l_25927389_L","LocationType":"point","DisplayPosition":{"Latitude":51.89332,"Longitude":-0.36849},"MapView":{"TopLeft":{"Latitude":51.89341,"Longitude":-0.36849},"BottomRight":{"Latitude":51.89325,"Longitude":-0.36843}},"Address":{"Label":"Luton, LU2 8, United Kingdom","Country":"GBR","State":"England","County":"Bedfordshire","City":"Luton","District":"Luton","PostalCode":"LU2 8","AdditionalData":[{"value":"United Kingdom","key":"CountryName"},{"value":"England","key":"StateName"},{"value":"Bedfordshire","key":"CountyName"}]},"MapReference":{"ReferenceId":"25927389","Spot":0.46,"SideOfStreet":"left","StateId":"20248595","CountyId":"20334253","CityId":"20334401","DistrictId":"20334402"}}}]}]}}