{"Response":{"MetaInfo":{"Timestamp":"2020-03-28T10:45:27.905+0000","NextPageInformation":"2"},"View":[{"_type":"SearchResultsViewType","ViewId":0,"Result":[{"Relevance":1.0,"Distance":0.0,"Direction":0.0,"MatchLevel":"district","MatchQuality":{"Country":1.0,"State":1.0,"County":1.0,"City":1.0,"District":1.0,"PostalCode":1.0},"Location":{"LocationId":"NT_smzs8Nh6vcfMOMDNwuKqSD","LocationType":"point","DisplayPosition":{"Latitude":51.8020246,"Longitude":15.6931719},"MapView":{"TopLeft":{"Latitude":51.83966,"Longitude":15.67856},"BottomRight":{"Latitude":51.77046,"Longitude":15.73619}},"Address":{"Label":"Nowa Sól, Woj. Lubuskie, Polska","Country":"POL","State":"Woj. Lubuskie","County":"Powiat Nowosolski","City":"Nowa Sól","District":"Nowa Sól","PostalCode":"67-100","AdditionalData":[{"value":"Polska","key":"CountryName"},{"value":"Woj. Lubuskie","key":"StateName"},{"value":"Powiat Nowosolski","key":"CountyName"}]},"MapReference":{"ReferenceId":"950200229","SideOfStreet":"neither","CountryId":"20624059","StateId":"20626579","CountyId":"20626630","CityId":"20685262","DistrictId":"20685263"}}},{"Relevance":1.0,"Distance":19.1,"MatchLevel":"street","MatchQuality":{"Country":1.0,"State":1.0,"County":1.0,"City":1.0,"District":1.0,"Street":[1.0],"PostalCode":1.0},"Location":{"LocationId":"NT_EwjUXFKLhUO91AHZifVbTA_l_950151629_R","LocationType":"point","DisplayPosition":{"Latitude":51.80186,"Longitude":15.69309},"MapView":{"TopLeft":{"Latitude":51.80186,"Longitude":15.69309},"BottomRight":{"Latitude":51.80152,"Longitude":15.69322}},"Address":{"Label":"osiedle Konstytucji 3 Maja, 67-100 Nowa Sól, Polska","Country":"POL","State":"Woj. Lubuskie","County":"Powiat Nowosolski","City":"Nowa Sól","District":"Nowa Sól","Street":"osiedle Konstytucji 3 Maja","PostalCode":"67-100","AdditionalData":[{"value":"Polska","key":"CountryName"},{"value":"Woj. Lubuskie","key":"StateName"},{"value":"Powiat Nowosolski","key":"CountyName"}]},"MapReference":{"ReferenceId":"950151629","Spot":1.0,"SideOfStreet":"right","CountryId":"20624059","StateId":"20626579","CountyId":"20626630","CityId":"20685262","DistrictId":"20685263"}}},{"Relevance":1.0,"Distance":37.7,"MatchLevel":"houseNumber","MatchQuality":{"Country":1.0,"State":1.0,"County":1.0,"City":1.0,"District":1.0,"Street":[1.0],"HouseNumber":1.0,"PostalCode":1.0},"MatchType":"interpolated","Location":{"LocationId":"NT_EwjUXFKLhUO91AHZifVbTA_4oE","LocationType":"point","DisplayPosition":{"Latitude":51.80218,"Longitude":15.69366},"MapView":{"TopLeft":{"Latitude":51.8033042,"Longitude":15.6918421},"BottomRight":{"Latitude":51.8010558,"Longitude":15.6954779}},"Address":{"Label":"osiedle Konstytucji 3 Maja 8J, 67-100 Nowa Sól, Polska","Country":"POL","State":"Woj. Lubuskie","County":"Powiat Nowosolski","City":"Nowa Sól","District":"Nowa Sól","Street":"osiedle Konstytucji 3 Maja","HouseNumber":"8J","PostalCode":"67-100","AdditionalData":[{"value":"Polska","key":"CountryName"},{"value":"Woj. Lubuskie","key":"StateName"},{"value":"Powiat Nowosolski","key":"CountyName"}]},"MapReference":{"ReferenceId":"950151630","Spot":0.39,"SideOfStreet":"right","CountryId":"20624059","StateId":"20626579","CountyId":"20626630","CityId":"20685262","DistrictId":"20685263","AddressId":"353259931","RoadLinkId":"297075219"}}},{"Relevance":1.0,"Distance":55.2,"MatchLevel":"street","MatchQuality":{"Country":1.0,"State":1.0,"County":1.0,"City":1.0,"District":1.0,"Street":[1.0],"PostalCode":1.0},"Location":{"LocationId":"NT_xRCNAh5jkrbCznMDPa7xdA_l_950151618_L","LocationType":"point","DisplayPosition":{"Latitude":51.8015325,"Longitude":15.693278},"MapView":{"TopLeft":{"Latitude":51.80163,"Longitude":15.69322},"BottomRight":{"Latitude":51.80152,"Longitude":15.69373}},"Address":{"Label":"ulica 1 Maja, 67-100 Nowa Sól, Polska","Country":"POL","State":"Woj. Lubuskie","County":"Powiat Nowosolski","City":"Nowa Sól","District":"Nowa Sól","Street":"ulica 1 Maja","PostalCode":"67-100","AdditionalData":[{"value":"Polska","key":"CountryName"},{"value":"Woj. Lubuskie","key":"StateName"},{"value":"Powiat Nowosolski","key":"CountyName"}]},"MapReference":{"ReferenceId":"950151618","Spot":0.11,"SideOfStreet":"left","CountryId":"20624059","StateId":"20626579","CountyId":"20626630","CityId":"20685262","DistrictId":"20685263"}}},{"Relevance":1.0,"Distance":56.2,"MatchLevel":"street","MatchQuality":{"Country":1.0,"State":1.0,"County":1.0,"City":1.0,"District":1.0,"Street":[1.0],"PostalCode":1.0},"Location":{"LocationId":"NT_xRCNAh5jkrbCznMDPa7xdA_l_950151622_L","LocationType":"point","DisplayPosition":{"Latitude":51.80152,"Longitude":15.69322},"MapView":{"TopLeft":{"Latitude":51.80152,"Longitude":15.69273},"BottomRight":{"Latitude":51.80143,"Longitude":15.69322}},"Address":{"Label":"ulica 1 Maja, 67-100 Nowa Sól, Polska","Country":"POL","State":"Woj. Lubuskie","County":"Powiat Nowosolski","City":"Nowa Sól","District":"Nowa Sól","Street":"ulica 1 Maja","PostalCode":"67-100","AdditionalData":[{"value":"Polska","key":"CountryName"},{"value":"Woj. Lubuskie","key":"StateName"},{"value":"Powiat Nowosolski","key":"CountyName"}]},"MapReference":{"ReferenceId":"950151622","Spot":1.0,"SideOfStreet":"left","CountryId":"20624059","StateId":"20626579","CountyId":"20626630","CityId":"20685262","DistrictId":"20685263"}}},{"Relevance":1.0,"Distance":58.3,"MatchLevel":"street","MatchQuality":{"Country":1.0,"State":1.0,"County":1.0,"City":1.0,"District":1.0,"Street":[1.0],"PostalCode":1.0},"Location":{"LocationId":"NT_xRCNAh5jkrbCznMDPa7xdA_l_950151619_L","LocationType":"point","DisplayPosition":{"Latitude":51.80163,"Longitude":15.69373},"MapView":{"TopLeft":{"Latitude":51.80176,"Longitude":15.69373},"BottomRight":{"Latitude":51.80163,"Longitude":15.69423}},"Address":{"Label":"ulica 1 Maja, 67-100 Nowa Sól, Polska","Country":"POL","State":"Woj. Lubuskie","County":"Powiat Nowosolski","City":"Nowa Sól","District":"Nowa Sól","Street":"ulica 1 Maja","PostalCode":"67-100","AdditionalData":[{"value":"Polska","key":"CountryName"},{"value":"Woj. Lubuskie","key":"StateName"},{"value":"Powiat Nowosolski","key":"CountyName"}]},"MapReference":{"ReferenceId":"950151619","Spot":0.0,"SideOfStreet":"left","CountryId":"20624059","StateId":"20626579","CountyId":"20626630","CityId":"20685262","DistrictId":"20685263"}}},{"Relevance":1.0,"Distance":58.3,"MatchLevel":"street","MatchQuality":{"Country":1.0,"State":1.0,"County":1.0,"City":1.0,"District":1.0,"PostalCode":1.0},"Location":{"LocationId":"NT_zkV5nJy-0RikSF9weg50oD_l_950151620_L","LocationType":"point","DisplayPosition":{"Latitude":51.80163,"Longitude":15.69373},"MapView":{"TopLeft":{"Latitude":51.80163,"Longitude":15.69373},"BottomRight":{"Latitude":51.80126,"Longitude":15.69394}},"Address":{"Label":"67-100 Nowa Sól, Polska","Country":"POL","State":"Woj. Lubuskie","County":"Powiat Nowosolski","City":"Nowa Sól","District":"Nowa Sól","PostalCode":"67-100","AdditionalData":[{"value":"Polska","key":"CountryName"},{"value":"Woj. Lubuskie","key":"StateName"},{"value":"Powiat Nowosolski","key":"CountyName"}]},"MapReference":{"ReferenceId":"950151620","Spot":1.0,"SideOfStreet":"left","CountryId":"20624059","StateId":"20626579","CountyId":"20626630","CityId":"20685262","DistrictId":"20685263"}}},{"Relevance":1.0,"Distance":64.8,"MatchLevel":"houseNumber","MatchQuality":{"Country":1.0,"State":1.0,"County":1.0,"City":1.0,"District":1.0,"Street":[1.0],"HouseNumber":1.0,"PostalCode":1.0},"MatchType":"interpolated","Location":{"LocationId":"NT_xRCNAh5jkrbCznMDPa7xdA_ygD","LocationType":"point","DisplayPosition":{"Latitude":51.80182,"Longitude":15.69212},"MapView":{"TopLeft":{"Latitude":51.8029442,"Longitude":15.6903021},"BottomRight":{"Latitude":51.8006958,"Longitude":15.6939379}},"Address":{"Label":"ulica 1 Maja 28, 67-100 Nowa Sól, Polska","Country":"POL","State":"Woj. Lubuskie","County":"Powiat Nowosolski","City":"Nowa Sól","District":"Nowa Sól","Street":"ulica 1 Maja","HouseNumber":"28","PostalCode":"67-100","AdditionalData":[{"value":"Polska","key":"CountryName"},{"value":"Woj. Lubuskie","key":"StateName"},{"value":"Powiat Nowosolski","key":"CountyName"}]},"MapReference":{"ReferenceId":"950530112","Spot":0.46,"SideOfStreet":"left","CountryId":"20624059","StateId":"20626579","CountyId":"20626630","CityId":"20685262","DistrictId":"20685263","AddressId":"731740863","RoadLinkId":"297420589"}}},{"Relevance":1.0,"Distance":72.0,"MatchLevel":"houseNumber","MatchQuality":{"Country":1.0,"State":1.0,"County":1.0,"City":1.0,"District":1.0,"Street":[1.0],"HouseNumber":1.0,"PostalCode":1.0},"MatchType":"interpolated","Location":{"LocationId":"NT_wY4xqeCH6uM5sCh7zM2bZB_xA","LocationType":"point","DisplayPosition":{"Latitude":51.80138,"Longitude":15.69327},"MapView":{"TopLeft":{"Latitude":51.8025042,"Longitude":15.6914521},"BottomRight":{"Latitude":51.8002558,"Longitude":15.6950879}},"Address":{"Label":"ulica Kosmonautów 1, 67-100 Nowa Sól, Polska","Country":"POL","State":"Woj. Lubuskie","County":"Powiat Nowosolski","City":"Nowa Sól","District":"Nowa Sól","Street":"ulica Kosmonautów","HouseNumber":"1","PostalCode":"67-100","AdditionalData":[{"value":"Polska","key":"CountryName"},{"value":"Woj. Lubuskie","key":"StateName"},{"value":"Powiat Nowosolski","key":"CountyName"}]},"MapReference":{"ReferenceId":"778992948","Spot":0.85,"SideOfStreet":"right","CountryId":"20624059","StateId":"20626579","CountyId":"20626630","CityId":"20685262","DistrictId":"20685263","AddressId":"211142836","RoadLinkId":"172481055"}}},{"Relevance":1.0,"Distance":72.8,"MatchLevel":"street","MatchQuality":{"Country":1.0,"State":1.0,"County":1.0,"City":1.0,"District":1.0,"Street":[1.0],"PostalCode":1.0},"Location":{"LocationId":"NT_xRCNAh5jkrbCznMDPa7xdA_l_950151627_R","LocationType":"point","DisplayPosition":{"Latitude":51.80143,"Longitude":15.69273},"MapView":{"TopLeft":{"Latitude":51.80161,"Longitude":15.69139},"BottomRight":{"Latitude":51.80142,"Longitude":15.69273}},"Address":{"Label":"ulica 1 Maja, 67-100 Nowa Sól, Polska","Country":"POL","State":"Woj. Lubuskie","County":"Powiat Nowosolski","City":"Nowa Sól","District":"Nowa Sól","Street":"ulica 1 Maja","PostalCode":"67-100","AdditionalData":[{"value":"Polska","key":"CountryName"},{"value":"Woj. Lubuskie","key":"StateName"},{"value":"Powiat Nowosolski","key":"CountyName"}]},"MapReference":{"ReferenceId":"950151627","Spot":0.0,"SideOfStreet":"right","CountryId":"20624059","StateId":"20626579","CountyId":"20626630","CityId":"20685262","DistrictId":"20685263"}}}]}]}}