{"Response":{"MetaInfo":{"Timestamp":"2020-03-28T11:44:24.656+0000","NextPageInformation":"2"},"View":[{"_type":"SearchResultsViewType","ViewId":0,"Result":[{"Relevance":1.0,"Distance":0.0,"Direction":0.0,"MatchLevel":"district","MatchQuality":{"Country":1.0,"State":1.0,"County":1.0,"City":1.0,"District":1.0,"PostalCode":1.0},"Location":{"LocationId":"NT_ZJOKgs6LJ1TJHUgOHAvYEB","LocationType":"point","DisplayPosition":{"Latitude":51.8960089,"Longitude":8.3663736},"MapView":{"TopLeft":{"Latitude":51.9331,"Longitude":8.34525},"BottomRight":{"Latitude":51.87651,"Longitude":8.44348}},"Address":{"Label":"Gütersloh, Nordrhein-Westfalen, Deutschland","Country":"DEU","State":"Nordrhein-Westfalen","County":"Gütersloh","City":"Gütersloh","District":"Gütersloh","PostalCode":"33330","AdditionalData":[{"value":"Deutschland","key":"CountryName"},{"value":"Nordrhein-Westfalen","key":"StateName"},{"value":"Gütersloh","key":"CountyName"}]},"MapReference":{"ReferenceId":"76165886","SideOfStreet":"neither","CountryId":"20147700","StateId":"20157369","CountyId":"20159554","CityId":"20159560","DistrictId":"20159568"}}},{"Relevance":1.0,"Distance":18.2,"MatchLevel":"houseNumber","MatchQuality":{"Country":1.0,"State":1.0,"County":1.0,"City":1.0,"District":1.0,"Street":[1.0],"HouseNumber":1.0,"PostalCode":1.0},"MatchType":"interpolated","Location":{"LocationId":"NT_gsEM.FHoIM-030H8DlRL2B_xID","LocationType":"point","DisplayPosition":{"Latitude":51.89575,"Longitude":8.36659},"MapView":{"TopLeft":{"Latitude":51.8968742,"Longitude":8.3647683},"BottomRight":{"Latitude":51.8946258,"Longitude":8.3684117}},"Address":{"Label":"Rhedaer Straße 12, 33330 Gütersloh, Deutschland","Country":"DEU","State":"Nordrhein-Westfalen","County":"Gütersloh","City":"Gütersloh","District":"Gütersloh","Street":"Rhedaer Straße","HouseNumber":"12","PostalCode":"33330","AdditionalData":[{"value":"Deutschland","key":"CountryName"},{"value":"Nordrhein-Westfalen","key":"StateName"},{"value":"Gütersloh","key":"CountyName"}]},"MapReference":{"ReferenceId":"52706126","Spot":0.46,"SideOfStreet":"left","CountryId":"20147700","StateId":"20157369","CountyId":"20159554","CityId":"20159560","DistrictId":"20159568","AddressId":"195086800","RoadLinkId":"34996516"}}},{"Relevance":1.0,"Distance":35.1,"MatchLevel":"houseNumber","MatchQuality":{"Country":1.0,"State":1.0,"County":1.0,"City":1.0,"District":1.0,"Street":[1.0],"HouseNumber":1.0,"PostalCode":1.0},"MatchType":"interpolated","Location":{"LocationId":"NT_B0SEvu386KaL9SW-gWNUOB_zEE","LocationType":"point","DisplayPosition":{"Latitude":51.89646,"Longitude":8.36627},"MapView":{"TopLeft":{"Latitude":51.8975842,"Longitude":8.3644483},"BottomRight":{"Latitude":51.8953358,"Longitude":8.3680917}},"Address":{"Label":"Diekstraße 3A, 33330 Gütersloh, Deutschland","Country":"DEU","State":"Nordrhein-Westfalen","County":"Gütersloh","City":"Gütersloh","District":"Gütersloh","Street":"Diekstraße","HouseNumber":"3A","PostalCode":"33330","AdditionalData":[{"value":"Deutschland","key":"CountryName"},{"value":"Nordrhein-Westfalen","key":"StateName"},{"value":"Gütersloh","key":"CountyName"}]},"MapReference":{"ReferenceId":"52706124","Spot":0.57,"SideOfStreet":"left","CountryId":"20147700","StateId":"20157369","CountyId":"20159554","CityId":"20159560","DistrictId":"20159568","AddressId":"196252245","RoadLinkId":"35362550"}}},{"Relevance":1.0,"Distance":72.3,"MatchLevel":"houseNumber","MatchQuality":{"Country":1.0,"State":1.0,"County":1.0,"City":1.0,"District":1.0,"Street":[1.0],"HouseNumber":1.0,"PostalCode":1.0},"MatchType":"interpolated","Location":{"LocationId":"NT_Gh8di6nb48Jq6YFZx1ASPA_xkD","LocationType":"point","DisplayPosition":{"Latitude":51.89612,"Longitude":8.36515},"MapView":{"TopLeft":{"Latitude":51.8972442,"Longitude":8.3633283},"BottomRight":{"Latitude":51.8949958,"Longitude":8.3669717}},"Address":{"Label":"Ludwigstraße 19, 33330 Gütersloh, Deutschland","Country":"DEU","State":"Nordrhein-Westfalen","County":"Gütersloh","City":"Gütersloh","District":"Gütersloh","Street":"Ludwigstraße","HouseNumber":"19","PostalCode":"33330","AdditionalData":[{"value":"Deutschland","key":"CountryName"},{"value":"Nordrhein-Westfalen","key":"StateName"},{"value":"Gütersloh","key":"CountyName"}]},"MapReference":{"ReferenceId":"52704577","Spot":0.69,"SideOfStreet":"right","CountryId":"20147700","StateId":"20157369","CountyId":"20159554","CityId":"20159560","DistrictId":"20159568","AddressId":"195565608","RoadLinkId":"35018690"}}},{"Relevance":1.0,"Distance":99.7,"MatchLevel":"street","MatchQuality":{"Country":1.0,"State":1.0,"County":1.0,"City":1.0,"District":1.0,"Street":[1.0],"PostalCode":1.0},"Location":{"LocationId":"NT_B0SEvu386KaL9SW-gWNUOB_l_52706128_L","LocationType":"point","DisplayPosition":{"Latitude":51.89646,"Longitude":8.36763},"MapView":{"TopLeft":{"Latitude":51.89646,"Longitude":8.36763},"BottomRight":{"Latitude":51.89635,"Longitude":8.36775}},"Address":{"Label":"Diekstraße, 33330 Gütersloh, Deutschland","Country":"DEU","State":"Nordrhein-Westfalen","County":"Gütersloh","City":"Gütersloh","District":"Gütersloh","Street":"Diekstraße","PostalCode":"33330","AdditionalData":[{"value":"Deutschland","key":"CountryName"},{"value":"Nordrhein-Westfalen","key":"StateName"},{"value":"Gütersloh","key":"CountyName"}]},"MapReference":{"ReferenceId":"52706128","Spot":1.0,"SideOfStreet":"left","CountryId":"20147700","StateId":"20157369","CountyId":"20159554","CityId":"20159560","DistrictId":"20159568"}}},{"Relevance":1.0,"Distance":101.5,"MatchLevel":"houseNumber","MatchQuality":{"Country":1.0,"State":1.0,"County":1.0,"City":1.0,"District":1.0,"Street":[1.0],"HouseNumber":1.0,"PostalCode":1.0},"MatchType":"interpolated","Location":{"LocationId":"NT_B0SEvu386KaL9SW-gWNUOB_yA","LocationType":"point","DisplayPosition":{"Latitude":51.89646,"Longitude":8.36766},"MapView":{"TopLeft":{"Latitude":51.8975842,"Longitude":8.3658383},"BottomRight":{"Latitude":51.8953358,"Longitude":8.3694817}},"Address":{"Label":"Diekstraße 2, 33330 Gütersloh, Deutschland","Country":"DEU","State":"Nordrhein-Westfalen","County":"Gütersloh","City":"Gütersloh","District":"Gütersloh","Street":"Diekstraße","HouseNumber":"2","PostalCode":"33330","AdditionalData":[{"value":"Deutschland","key":"CountryName"},{"value":"Nordrhein-Westfalen","key":"StateName"},{"value":"Gütersloh","key":"CountyName"}]},"MapReference":{"ReferenceId":"52706125","Spot":0.07,"SideOfStreet":"left","CountryId":"20147700","StateId":"20157369","CountyId":"20159554","CityId":"20159560","DistrictId":"20159568","AddressId":"193149179","RoadLinkId":"35628359"}}},{"Relevance":1.0,"Distance":104.2,"MatchLevel":"houseNumber","MatchQuality":{"Country":1.0,"State":1.0,"County":1.0,"City":1.0,"District":1.0,"Street":[1.0],"HouseNumber":1.0,"PostalCode":1.0},"MatchType":"interpolated","Location":{"LocationId":"NT_gsEM.FHoIM-030H8DlRL2B_yAD","LocationType":"point","DisplayPosition":{"Latitude":51.89527,"Longitude":8.36544},"MapView":{"TopLeft":{"Latitude":51.8963942,"Longitude":8.3636183},"BottomRight":{"Latitude":51.8941458,"Longitude":8.3672617}},"Address":{"Label":"Rhedaer Straße 20, 33330 Gütersloh, Deutschland","Country":"DEU","State":"Nordrhein-Westfalen","County":"Gütersloh","City":"Gütersloh","District":"Gütersloh","Street":"Rhedaer Straße","HouseNumber":"20","PostalCode":"33330","AdditionalData":[{"value":"Deutschland","key":"CountryName"},{"value":"Nordrhein-Westfalen","key":"StateName"},{"value":"Gütersloh","key":"CountyName"}]},"MapReference":{"ReferenceId":"52704615","Spot":0.93,"SideOfStreet":"left","CountryId":"20147700","StateId":"20157369","CountyId":"20159554","CityId":"20159560","DistrictId":"20159568","AddressId":"193151845","RoadLinkId":"35579965"}}},{"Relevance":1.0,"Distance":106.7,"MatchLevel":"houseNumber","MatchQuality":{"Country":1.0,"State":1.0,"County":1.0,"City":1.0,"District":1.0,"Street":[1.0],"HouseNumber":1.0,"PostalCode":1.0},"MatchType":"interpolated","Location":{"LocationId":"NT_Gh8di6nb48Jq6YFZx1ASPA_xMD","LocationType":"point","DisplayPosition":{"Latitude":51.89695,"Longitude":8.36533},"MapView":{"TopLeft":{"Latitude":51.8980742,"Longitude":8.3635083},"BottomRight":{"Latitude":51.8958258,"Longitude":8.3671517}},"Address":{"Label":"Ludwigstraße 13, 33330 Gütersloh, Deutschland","Country":"DEU","State":"Nordrhein-Westfalen","County":"Gütersloh","City":"Gütersloh","District":"Gütersloh","Street":"Ludwigstraße","HouseNumber":"13","PostalCode":"33330","AdditionalData":[{"value":"Deutschland","key":"CountryName"},{"value":"Nordrhein-Westfalen","key":"StateName"},{"value":"Gütersloh","key":"CountyName"}]},"MapReference":{"ReferenceId":"52704518","Spot":0.25,"SideOfStreet":"right","CountryId":"20147700","StateId":"20157369","CountyId":"20159554","CityId":"20159560","DistrictId":"20159568","AddressId":"192742974","RoadLinkId":"35628270"}}},{"Relevance":1.0,"Distance":106.9,"MatchLevel":"houseNumber","MatchQuality":{"Country":1.0,"State":1.0,"County":1.0,"City":1.0,"District":1.0,"Street":[1.0],"HouseNumber":1.0,"PostalCode":1.0},"MatchType":"interpolated","Location":{"LocationId":"NT_B0SEvu386KaL9SW-gWNUOB_xED","LocationType":"point","DisplayPosition":{"Latitude":51.89657,"Longitude":8.36499},"MapView":{"TopLeft":{"Latitude":51.8976942,"Longitude":8.3631683},"BottomRight":{"Latitude":51.8954458,"Longitude":8.3668117}},"Address":{"Label":"Diekstraße 11, 33330 Gütersloh, Deutschland","Country":"DEU","State":"Nordrhein-Westfalen","County":"Gütersloh","City":"Gütersloh","District":"Gütersloh","Street":"Diekstraße","HouseNumber":"11","PostalCode":"33330","AdditionalData":[{"value":"Deutschland","key":"CountryName"},{"value":"Nordrhein-Westfalen","key":"StateName"},{"value":"Gütersloh","key":"CountyName"}]},"MapReference":{"ReferenceId":"52704519","Spot":0.84,"SideOfStreet":"right","CountryId":"20147700","StateId":"20157369","CountyId":"20159554","CityId":"20159560","DistrictId":"20159568","AddressId":"195216628","RoadLinkId":"35575584"}}},{"Relevance":1.0,"Distance":113.6,"MatchLevel":"houseNumber","MatchQuality":{"Country":1.0,"State":1.0,"County":1.0,"City":1.0,"District":1.0,"Street":[1.0],"HouseNumber":1.0,"PostalCode":1.0},"MatchType":"interpolated","Location":{"LocationId":"NT_gsEM.FHoIM-030H8DlRL2B_zA","LocationType":"point","DisplayPosition":{"Latitude":51.89642,"Longitude":8.36789},"MapView":{"TopLeft":{"Latitude":51.8975442,"Longitude":8.3660683},"BottomRight":{"Latitude":51.8952958,"Longitude":8.3697117}},"Address":{"Label":"Rhedaer Straße 3, 33330 Gütersloh, Deutschland","Country":"DEU","State":"Nordrhein-Westfalen","County":"Gütersloh","City":"Gütersloh","District":"Gütersloh","Street":"Rhedaer Straße","HouseNumber":"3","PostalCode":"33330","AdditionalData":[{"value":"Deutschland","key":"CountryName"},{"value":"Nordrhein-Westfalen","key":"StateName"},{"value":"Gütersloh","key":"CountyName"}]},"MapReference":{"ReferenceId":"52706127","Spot":0.47,"SideOfStreet":"right","CountryId":"20147700","StateId":"20157369","CountyId":"20159554","CityId":"20159560","DistrictId":"20159568","AddressId":"196006798","RoadLinkId":"35673670"}}}]}]}}