{"Response":{"MetaInfo":{"Timestamp":"2020-03-28T11:17:35.155+0000","NextPageInformation":"2"},"View":[{"_type":"SearchResultsViewType","ViewId":0,"Result":[{"Relevance":1.0,"Distance":0.0,"Direction":0.0,"MatchLevel":"district","MatchQuality":{"Country":1.0,"State":1.0,"County":1.0,"City":1.0,"District":1.0,"PostalCode":1.0},"Location":{"LocationId":"NT_AVDeAdyRHX1MuAuv67ocbB","LocationType":"point","DisplayPosition":{"Latitude":51.897439,"Longitude":-0.4753562},"MapView":{"TopLeft":{"Latitude":51.92863,"Longitude":-0.50593},"BottomRight":{"Latitude":51.86142,"Longitude":-0.3502}},"Address":{"Label":"Luton, England, United Kingdom","Country":"GBR","State":"England","County":"Bedfordshire","City":"Luton","District":"Luton","PostalCode":"LU1 2","AdditionalData":[{"value":"United Kingdom","key":"CountryName"},{"value":"England","key":"StateName"},{"value":"Bedfordshire","key":"CountyName"}]},"MapReference":{"ReferenceId":"996450069","SideOfStreet":"neither","StateId":"20248595","CountyId":"20334253","CityId":"20334401","DistrictId":"20334402"}}},{"Relevance":1.0,"Distance":9.3,"MatchLevel":"street","MatchQuality":{"Country":1.0,"State":1.0,"County":1.0,"City":1.0,"District":1.0,"PostalCode":1.0},"Location":{"LocationId":"NT_tCdB1jRZRrWyUSegN6CyJA_l_25864148_R","LocationType":"point","DisplayPosition":{"Latitude":51.89736,"Longitude":-0.4754},"MapView":{"TopLeft":{"Latitude":51.89736,"Longitude":-0.47613},"BottomRight":{"Latitude":51.89581,"Longitude":-0.47438}},"Address":{"Label":"Luton, LU4 0, United Kingdom","Country":"GBR","State":"England","County":"Bedfordshire","City":"Luton","District":"Luton","PostalCode":"LU4 0","AdditionalData":[{"value":"United Kingdom","key":"CountryName"},{"value":"England","key":"StateName"},{"value":"Bedfordshire","key":"CountyName"}]},"MapReference":{"ReferenceId":"25864148","Spot":0.71,"SideOfStreet":"right","StateId":"20248595","CountyId":"20334253","CityId":"20334401","DistrictId":"20334402"}}},{"Relevance":1.0,"Distance":20.6,"MatchLevel":"houseNumber","MatchQuality":{"Country":1.0,"State":1.0,"County":1.0,"City":1.0,"District":1.0,"Street":[1.0],"HouseNumber":1.0,"PostalCode":1.0},"MatchType":"interpolated","Location":{"LocationId":"NT_U97hFWO8nFPunWfJgtfXBC_l_25868943_L_ykD","LocationType":"point","DisplayPosition":{"Latitude":51.8976018,"Longitude":-0.4754981},"MapView":{"TopLeft":{"Latitude":51.898726,"Longitude":-0.4773199},"BottomRight":{"Latitude":51.8964777,"Longitude":-0.4736764}},"Address":{"Label":"29 Lime Avenue, Luton, LU4 0EG, United Kingdom","Country":"GBR","State":"England","County":"Bedfordshire","City":"Luton","District":"Luton","Street":"Lime Avenue","HouseNumber":"29","PostalCode":"LU4 0EG","AdditionalData":[{"value":"United Kingdom","key":"CountryName"},{"value":"England","key":"StateName"},{"value":"Bedfordshire","key":"CountyName"}]},"MapReference":{"ReferenceId":"25868943","Spot":0.68,"SideOfStreet":"left","StateId":"20248595","CountyId":"20334253","CityId":"20334401","DistrictId":"20334402"}}},{"Relevance":1.0,"Distance":42.5,"MatchLevel":"postalCode","MatchQuality":{"PostalCode":1.0},"MatchType":"interpolated","Location":{"LocationId":"NT_U97hFWO8nFPunWfJgtfXBC_l_25868943_L_ykD","LocationType":"point","DisplayPosition":{"Latitude":51.89769,"Longitude":-0.47489},"MapView":{"TopLeft":{"Latitude":51.9066832,"Longitude":-0.4894641},"BottomRight":{"Latitude":51.8886968,"Longitude":-0.4603159}},"Address":{"Label":"LU4 0FB, Luton, England, United Kingdom","Country":"GBR","State":"England","County":"Bedfordshire","City":"Luton","PostalCode":"LU4 0FB","AdditionalData":[{"value":"United Kingdom","key":"CountryName"},{"value":"England","key":"StateName"},{"value":"Bedfordshire","key":"CountyName"}]},"MapReference":{"ReferenceId":"25868943","Spot":0.68,"SideOfStreet":"neither","StateId":"20248595","CountyId":"20334253","CityId":"20334401"}}},{"Relevance":1.0,"Distance":43.0,"MatchLevel":"houseNumber","MatchQuality":{"Country":1.0,"State":1.0,"County":1.0,"City":1.0,"District":1.0,"Street":[1.0],"HouseNumber":1.0,"PostalCode":1.0},"MatchType":"interpolated","Location":{"LocationId":"NT_SBFHGIqxC9fIczzOVO2HiB_l_25864051_L_xA","LocationType":"point","DisplayPosition":{"Latitude":51.8978701,"Longitude":-0.4749},"MapView":{"TopLeft":{"Latitude":51.8989942,"Longitude":-0.4767218},"BottomRight":{"Latitude":51.8967459,"Longitude":-0.4730783}},"Address":{"Label":"1 Cotefield, Luton, LU4 0, United Kingdom","Country":"GBR","State":"England","County":"Bedfordshire","City":"Luton","District":"Luton","Street":"Cotefield","HouseNumber":"1","PostalCode":"LU4 0","AdditionalData":[{"value":"United Kingdom","key":"CountryName"},{"value":"England","key":"StateName"},{"value":"Bedfordshire","key":"CountyName"}]},"MapReference":{"ReferenceId":"25864051","Spot":0.18,"SideOfStreet":"left","StateId":"20248595","CountyId":"20334253","CityId":"20334401","DistrictId":"20334402"}}},{"Relevance":1.0,"Distance":49.5,"MatchLevel":"street","MatchQuality":{"Country":1.0,"State":1.0,"County":1.0,"City":1.0,"District":1.0,"Street":[1.0],"PostalCode":1.0},"Location":{"LocationId":"NT_U97hFWO8nFPunWfJgtfXBC_l_25864050_R","LocationType":"point","DisplayPosition":{"Latitude":51.89775,"Longitude":-0.47484},"MapView":{"TopLeft":{"Latitude":51.8979,"Longitude":-0.47484},"BottomRight":{"Latitude":51.89775,"Longitude":-0.4741}},"Address":{"Label":"Lime Avenue, Luton, LU4 0, United Kingdom","Country":"GBR","State":"England","County":"Bedfordshire","City":"Luton","District":"Luton","Street":"Lime Avenue","PostalCode":"LU4 0","AdditionalData":[{"value":"United Kingdom","key":"CountryName"},{"value":"England","key":"StateName"},{"value":"Bedfordshire","key":"CountyName"}]},"MapReference":{"ReferenceId":"25864050","Spot":0.0,"SideOfStreet":"right","StateId":"20248595","CountyId":"20334253","CityId":"20334401","DistrictId":"20334402"}}},{"Relevance":1.0,"Distance":69.4,"MatchLevel":"postalCode","MatchQuality":{"PostalCode":1.0},"MatchType":"interpolated","Location":{"LocationId":"NT_SBFHGIqxC9fIczzOVO2HiB_l_25864051_L_xA","LocationType":"point","DisplayPosition":{"Latitude":51.89803,"Longitude":-0.47503},"MapView":{"TopLeft":{"Latitude":51.9070232,"Longitude":-0.4896042},"BottomRight":{"Latitude":51.8890368,"Longitude":-0.4604558}},"Address":{"Label":"LU4 0EQ, Luton, England, United Kingdom","Country":"GBR","State":"England","County":"Bedfordshire","City":"Luton","PostalCode":"LU4 0EQ","AdditionalData":[{"value":"United Kingdom","key":"CountryName"},{"value":"England","key":"StateName"},{"value":"Bedfordshire","key":"CountyName"}]},"MapReference":{"ReferenceId":"25864051","Spot":0.18,"SideOfStreet":"neither","StateId":"20248595","CountyId":"20334253","CityId":"20334401"}}},{"Relevance":1.0,"Distance":83.8,"MatchLevel":"houseNumber","MatchQuality":{"Country":1.0,"State":1.0,"County":1.0,"City":1.0,"District":1.0,"Street":[1.0],"HouseNumber":1.0,"PostalCode":1.0},"MatchType":"interpolated","Location":{"LocationId":"NT_q0gX5OPxuLy97EUvBjdE8A_l_25868956_R_yAD","LocationType":"point","DisplayPosition":{"Latitude":51.8982933,"Longitude":-0.4757411},"MapView":{"TopLeft":{"Latitude":51.8994175,"Longitude":-0.4775629},"BottomRight":{"Latitude":51.8971692,"Longitude":-0.4739193}},"Address":{"Label":"20 Seabrook, Luton, LU4 0EH, United Kingdom","Country":"GBR","State":"England","County":"Bedfordshire","City":"Luton","District":"Luton","Street":"Seabrook","HouseNumber":"20","PostalCode":"LU4 0EH","AdditionalData":[{"value":"United Kingdom","key":"CountryName"},{"value":"England","key":"StateName"},{"value":"Bedfordshire","key":"CountyName"}]},"MapReference":{"ReferenceId":"25868956","Spot":0.72,"SideOfStreet":"right","StateId":"20248595","CountyId":"20334253","CityId":"20334401","DistrictId":"20334402"}}},{"Relevance":1.0,"Distance":86.1,"MatchLevel":"postalCode","MatchQuality":{"PostalCode":1.0},"Location":{"LocationId":"NT_yW4XbHGpVg96XkJr8WW-yB_l_834113818_L","LocationType":"point","DisplayPosition":{"Latitude":51.89673,"Longitude":-0.47586},"MapView":{"TopLeft":{"Latitude":51.9057232,"Longitude":-0.4904338},"BottomRight":{"Latitude":51.8877368,"Longitude":-0.4612862}},"Address":{"Label":"LU4 0FG, Luton, England, United Kingdom","Country":"GBR","State":"England","County":"Bedfordshire","City":"Luton","PostalCode":"LU4 0FG","AdditionalData":[{"value":"United Kingdom","key":"CountryName"},{"value":"England","key":"StateName"},{"value":"Bedfordshire","key":"CountyName"}]},"MapReference":{"ReferenceId":"834113818","Spot":1.0,"SideOfStreet":"neither","StateId":"20248595","CountyId":"20334253","CityId":"20334401"}}},{"Relevance":1.0,"Distance":90.9,"MatchLevel":"street","MatchQuality":{"Country":1.0,"State":1.0,"County":1.0,"City":1.0,"District":1.0,"Street":[1.0],"PostalCode":1.0},"Location":{"LocationId":"NT_yW4XbHGpVg96XkJr8WW-yB_l_834113818_L","LocationType":"point","DisplayPosition":{"Latitude":51.89668,"Longitude":-0.47585},"MapView":{"TopLeft":{"Latitude":51.89668,"Longitude":-0.47644},"BottomRight":{"Latitude":51.89658,"Longitude":-0.47585}},"Address":{"Label":"Morecambe Close, Luton, LU4 0, United Kingdom","Country":"GBR","State":"England","County":"Bedfordshire","City":"Luton","District":"Luton","Street":"Morecambe Close","PostalCode":"LU4 0","AdditionalData":[{"value":"United Kingdom","key":"CountryName"},{"value":"England","key":"StateName"},{"value":"Bedfordshire","key":"CountyName"}]},"MapReference":{"ReferenceId":"834113818","Spot":1.0,"SideOfStreet":"left","StateId":"20248595","CountyId":"20334253","CityId":"20334401","DistrictId":"20334402"}}}]}]}}