{"Response":{"MetaInfo":{"Timestamp":"2020-03-28T09:52:07.533+0000","NextPageInformation":"2"},"View":[{"_type":"SearchResultsViewType","ViewId":0,"Result":[{"Relevance":1.0,"Distance":0.0,"Direction":0.0,"MatchLevel":"district","MatchQuality":{"Country":1.0,"State":1.0,"County":1.0,"City":1.0,"District":1.0,"PostalCode":1.0},"Location":{"LocationId":"NT_GSSfCAqiPyh3jMWXg1EBxC","LocationType":"point","DisplayPosition":{"Latitude":51.8984537,"Longitude":0.9378334},"MapView":{"TopLeft":{"Latitude":51.92561,"Longitude":0.81813},"BottomRight":{"Latitude":51.85328,"Longitude":0.95288}},"Address":{"Label":"Colchester, England, United Kingdom","Country":"GBR","State":"England","County":"Essex","City":"Colchester","District":"Colchester","PostalCode":"CO2 7","AdditionalData":[{"value":"United Kingdom","key":"CountryName"},{"value":"England","key":"StateName"},{"value":"Essex","key":"CountyName"}]},"MapReference":{"ReferenceId":"25759867","SideOfStreet":"neither","StateId":"20248595","CountyId":"20335385","CityId":"20335523","DistrictId":"20335524"}}},{"Relevance":1.0,"Distance":11.9,"MatchLevel":"houseNumber","MatchQuality":{"Country":1.0,"State":1.0,"County":1.0,"City":1.0,"District":1.0,"Street":[1.0],"HouseNumber":1.0,"PostalCode":1.0},"MatchType":"interpolated","Location":{"LocationId":"NT_vmhwDUM5kVc74qrxxApuAC_l_836143715_R_zcD","LocationType":"point","DisplayPosition":{"Latitude":51.89855,"Longitude":0.9375},"MapView":{"TopLeft":{"Latitude":51.8996742,"Longitude":0.9356782},"BottomRight":{"Latitude":51.8974259,"Longitude":0.9393218}},"Address":{"Label":"37 Parsons Heath, Colchester, CO4 3HT, United Kingdom","Country":"GBR","State":"England","County":"Essex","City":"Colchester","District":"Colchester","Street":"Parsons Heath","HouseNumber":"37","PostalCode":"CO4 3HT","AdditionalData":[{"value":"United Kingdom","key":"CountryName"},{"value":"England","key":"StateName"},{"value":"Essex","key":"CountyName"}]},"MapReference":{"ReferenceId":"836143715","Spot":0.17,"SideOfStreet":"right","StateId":"20248595","CountyId":"20335385","CityId":"20335523","DistrictId":"20335524"}}},{"Relevance":1.0,"Distance":31.2,"MatchLevel":"houseNumber","MatchQuality":{"Country":1.0,"State":1.0,"County":1.0,"City":1.0,"District":1.0,"Street":[1.0],"HouseNumber":1.0,"PostalCode":1.0},"MatchType":"interpolated","Location":{"LocationId":"NT_cFFdn8gpmthoQk5aAr-tbA_l_565988817_R_zUD","LocationType":"point","DisplayPosition":{"Latitude":51.8982318,"Longitude":0.9374584},"MapView":{"TopLeft":{"Latitude":51.899356,"Longitude":0.9356367},"BottomRight":{"Latitude":51.8971077,"Longitude":0.9392802}},"Address":{"Label":"35 Parsons Heath, Colchester, CO4 3HS, United Kingdom","Country":"GBR","State":"England","County":"Essex","City":"Colchester","District":"Colchester","Street":"Parsons Heath","HouseNumber":"35","PostalCode":"CO4 3HS","AdditionalData":[{"value":"United Kingdom","key":"CountryName"},{"value":"England","key":"StateName"},{"value":"Essex","key":"CountyName"}]},"MapReference":{"ReferenceId":"565988817","Spot":0.73,"SideOfStreet":"right","StateId":"20248595","CountyId":"20335385","CityId":"20335523","DistrictId":"20335524"}}},{"Relevance":1.0,"Distance":38.8,"MatchLevel":"houseNumber","MatchQuality":{"Country":1.0,"State":1.0,"County":1.0,"City":1.0,"District":1.0,"Street":[1.0],"HouseNumber":1.0,"PostalCode":1.0},"MatchType":"interpolated","Location":{"LocationId":"NT_pycniUfhOlgd-c1QcJHnND_l_25758628_R_1UD","LocationType":"point","DisplayPosition":{"Latitude":51.89842,"Longitude":0.93727},"MapView":{"TopLeft":{"Latitude":51.8995442,"Longitude":0.9354482},"BottomRight":{"Latitude":51.8972958,"Longitude":0.9390918}},"Address":{"Label":"55 Churnwood Road, Colchester, CO4 3EY, United Kingdom","Country":"GBR","State":"England","County":"Essex","City":"Colchester","District":"Colchester","Street":"Churnwood Road","HouseNumber":"55","PostalCode":"CO4 3EY","AdditionalData":[{"value":"United Kingdom","key":"CountryName"},{"value":"England","key":"StateName"},{"value":"Essex","key":"CountyName"}]},"MapReference":{"ReferenceId":"25758628","Spot":0.21,"SideOfStreet":"right","StateId":"20248595","CountyId":"20335385","CityId":"20335523","DistrictId":"20335524"}}},{"Relevance":1.0,"Distance":41.5,"MatchLevel":"postalCode","MatchQuality":{"PostalCode":1.0},"MatchType":"interpolated","Location":{"LocationId":"NT_vmhwDUM5kVc74qrxxApuAC_l_836143715_R_zcD","LocationType":"point","DisplayPosition":{"Latitude":51.89879,"Longitude":0.93757},"MapView":{"TopLeft":{"Latitude":51.9077832,"Longitude":0.9229955},"BottomRight":{"Latitude":51.8897968,"Longitude":0.9521445}},"Address":{"Label":"CO4 3HT, Colchester, England, United Kingdom","Country":"GBR","State":"England","County":"Essex","City":"Colchester","PostalCode":"CO4 3HT","AdditionalData":[{"value":"United Kingdom","key":"CountryName"},{"value":"England","key":"StateName"},{"value":"Essex","key":"CountyName"}]},"MapReference":{"ReferenceId":"836143715","Spot":0.17,"SideOfStreet":"neither","StateId":"20248595","CountyId":"20335385","CityId":"20335523"}}},{"Relevance":1.0,"Distance":45.9,"MatchLevel":"postalCode","MatchQuality":{"PostalCode":1.0},"Location":{"LocationId":"NT_C5Ybt0ouqnMSsczFyrLJzC_l_25758620_L","LocationType":"point","DisplayPosition":{"Latitude":51.89858,"Longitude":0.93847},"MapView":{"TopLeft":{"Latitude":51.9075732,"Longitude":0.9238956},"BottomRight":{"Latitude":51.8895868,"Longitude":0.9530444}},"Address":{"Label":"CO4 3HH, Colchester, England, United Kingdom","Country":"GBR","State":"England","County":"Essex","City":"Colchester","PostalCode":"CO4 3HH","AdditionalData":[{"value":"United Kingdom","key":"CountryName"},{"value":"England","key":"StateName"},{"value":"Essex","key":"CountyName"}]},"MapReference":{"ReferenceId":"25758620","Spot":0.0,"SideOfStreet":"neither","StateId":"20248595","CountyId":"20335385","CityId":"20335523"}}},{"Relevance":1.0,"Distance":46.7,"MatchLevel":"street","MatchQuality":{"Country":1.0,"State":1.0,"County":1.0,"City":1.0,"District":1.0,"Street":[1.0],"PostalCode":1.0},"Location":{"LocationId":"NT_C5Ybt0ouqnMSsczFyrLJzC_l_25758620_L","LocationType":"point","DisplayPosition":{"Latitude":51.89854,"Longitude":0.9385},"MapView":{"TopLeft":{"Latitude":51.89864,"Longitude":0.9385},"BottomRight":{"Latitude":51.89854,"Longitude":0.93894}},"Address":{"Label":"Paul Spendlove Court, Colchester, CO4 3, United Kingdom","Country":"GBR","State":"England","County":"Essex","City":"Colchester","District":"Colchester","Street":"Paul Spendlove Court","PostalCode":"CO4 3","AdditionalData":[{"value":"United Kingdom","key":"CountryName"},{"value":"England","key":"StateName"},{"value":"Essex","key":"CountyName"}]},"MapReference":{"ReferenceId":"25758620","Spot":0.0,"SideOfStreet":"left","StateId":"20248595","CountyId":"20335385","CityId":"20335523","DistrictId":"20335524"}}},{"Relevance":1.0,"Distance":64.6,"MatchLevel":"houseNumber","MatchQuality":{"Country":1.0,"State":1.0,"County":1.0,"City":1.0,"District":1.0,"Street":[1.0],"HouseNumber":1.0,"PostalCode":1.0},"MatchType":"interpolated","Location":{"LocationId":"NT_RSz65y7FjJO.PUDb9Htv1D_l_25758604_L_2A","LocationType":"point","DisplayPosition":{"Latitude":51.89903,"Longitude":0.93721},"MapView":{"TopLeft":{"Latitude":51.9001541,"Longitude":0.9353881},"BottomRight":{"Latitude":51.8979058,"Longitude":0.9390318}},"Address":{"Label":"6 Eldon Close, Colchester, CO4 3HA, United Kingdom","Country":"GBR","State":"England","County":"Essex","City":"Colchester","District":"Colchester","Street":"Eldon Close","HouseNumber":"6","PostalCode":"CO4 3HA","AdditionalData":[{"value":"United Kingdom","key":"CountryName"},{"value":"England","key":"StateName"},{"value":"Essex","key":"CountyName"}]},"MapReference":{"ReferenceId":"25758604","Spot":0.19,"SideOfStreet":"left","StateId":"20248595","CountyId":"20335385","CityId":"20335523","DistrictId":"20335524"}}},{"Relevance":1.0,"Distance":71.4,"MatchLevel":"postalCode","MatchQuality":{"PostalCode":1.0},"MatchType":"interpolated","Location":{"LocationId":"NT_pycniUfhOlgd-c1QcJHnND_l_25758628_R_1UD","LocationType":"point","DisplayPosition":{"Latitude":51.89838,"Longitude":0.9368},"MapView":{"TopLeft":{"Latitude":51.9073732,"Longitude":0.9222257},"BottomRight":{"Latitude":51.8893868,"Longitude":0.9513743}},"Address":{"Label":"CO4 3EY, Colchester, England, United Kingdom","Country":"GBR","State":"England","County":"Essex","City":"Colchester","PostalCode":"CO4 3EY","AdditionalData":[{"value":"United Kingdom","key":"CountryName"},{"value":"England","key":"StateName"},{"value":"Essex","key":"CountyName"}]},"MapReference":{"ReferenceId":"25758628","Spot":0.21,"SideOfStreet":"neither","StateId":"20248595","CountyId":"20335385","CityId":"20335523"}}},{"Relevance":1.0,"Distance":73.6,"MatchLevel":"houseNumber","MatchQuality":{"Country":1.0,"State":1.0,"County":1.0,"City":1.0,"District":1.0,"Street":[1.0],"HouseNumber":1.0,"PostalCode":1.0},"MatchType":"interpolated","Location":{"LocationId":"NT_w95MFo6nUvVXbvcrNO8roB_l_25758615_L_1QD","LocationType":"point","DisplayPosition":{"Latitude":51.8987701,"Longitude":0.93896},"MapView":{"TopLeft":{"Latitude":51.8998942,"Longitude":0.9371382},"BottomRight":{"Latitude":51.8976459,"Longitude":0.9407818}},"Address":{"Label":"54 Roach Vale, Colchester, CO4 3YN, United Kingdom","Country":"GBR","State":"England","County":"Essex","City":"Colchester","District":"Colchester","Street":"Roach Vale","HouseNumber":"54","PostalCode":"CO4 3YN","AdditionalData":[{"value":"United Kingdom","key":"CountryName"},{"value":"England","key":"StateName"},{"value":"Essex","key":"CountyName"}]},"MapReference":{"ReferenceId":"25758615","Spot":0.21,"SideOfStreet":"left","StateId":"20248595","CountyId":"20335385","CityId":"20335523","DistrictId":"20335524"}}}]}]}}