{"Response":{"MetaInfo":{"Timestamp":"2020-03-28T10:33:36.072+0000","NextPageInformation":"2"},"View":[{"_type":"SearchResultsViewType","ViewId":0,"Result":[{"Relevance":1.0,"Distance":0.0,"Direction":0.0,"MatchLevel":"district","MatchQuality":{"Country":1.0,"State":1.0,"County":1.0,"City":1.0,"District":1.0,"PostalCode":1.0},"Location":{"LocationId":"NT_BVg2MG2blopZMqFYx2hAjB","LocationType":"point","DisplayPosition":{"Latitude":51.8679628,"Longitude":-0.5888153},"MapView":{"TopLeft":{"Latitude":51.87053,"Longitude":-0.59327},"BottomRight":{"Latitude":51.86075,"Longitude":-0.57874}},"Address":{"Label":"Edlesborough, Dunstable, England, United Kingdom","Country":"GBR","State":"England","County":"Bedfordshire","City":"Dunstable","District":"Edlesborough","PostalCode":"LU6 2","AdditionalData":[{"value":"United Kingdom","key":"CountryName"},{"value":"England","key":"StateName"},{"value":"Bedfordshire","key":"CountyName"}]},"MapReference":{"ReferenceId":"836069318","SideOfStreet":"neither","StateId":"20248595","CountyId":"20334253","CityId":"20334347","DistrictId":"20334352"}}},{"Relevance":1.0,"Distance":35.9,"MatchLevel":"street","MatchQuality":{"Country":1.0,"State":1.0,"County":1.0,"City":1.0,"District":1.0,"Street":[1.0],"PostalCode":1.0},"Location":{"LocationId":"NT_v07BmQUflGwgcO-i-NXwdB_l_1152353287_L","LocationType":"point","DisplayPosition":{"Latitude":51.86826,"Longitude":-0.58861},"MapView":{"TopLeft":{"Latitude":51.86826,"Longitude":-0.58861},"BottomRight":{"Latitude":51.8681,"Longitude":-0.58832}},"Address":{"Label":"Cow Lane, Dunstable, LU6 2, United Kingdom","Country":"GBR","State":"England","County":"Bedfordshire","City":"Dunstable","District":"Edlesborough","Street":"Cow Lane","PostalCode":"LU6 2","AdditionalData":[{"value":"United Kingdom","key":"CountryName"},{"value":"England","key":"StateName"},{"value":"Bedfordshire","key":"CountyName"}]},"MapReference":{"ReferenceId":"1152353287","Spot":1.0,"SideOfStreet":"left","StateId":"20248595","CountyId":"20334253","CityId":"20334347","DistrictId":"20334352"}}},{"Relevance":1.0,"Distance":37.3,"MatchLevel":"street","MatchQuality":{"Country":1.0,"State":1.0,"County":1.0,"City":1.0,"District":1.0,"Street":[1.0],"PostalCode":1.0},"Location":{"LocationId":"NT_v07BmQUflGwgcO-i-NXwdB_l_1152353286_L","LocationType":"point","DisplayPosition":{"Latitude":51.8681,"Longitude":-0.58832},"MapView":{"TopLeft":{"Latitude":51.8681,"Longitude":-0.58832},"BottomRight":{"Latitude":51.86771,"Longitude":-0.58766}},"Address":{"Label":"Cow Lane, Dunstable, LU6 2, United Kingdom","Country":"GBR","State":"England","County":"Bedfordshire","City":"Dunstable","District":"Edlesborough","Street":"Cow Lane","PostalCode":"LU6 2","AdditionalData":[{"value":"United Kingdom","key":"CountryName"},{"value":"England","key":"StateName"},{"value":"Bedfordshire","key":"CountyName"}]},"MapReference":{"ReferenceId":"1152353286","Spot":1.0,"SideOfStreet":"left","StateId":"20248595","CountyId":"20334253","CityId":"20334347","DistrictId":"20334352"}}},{"Relevance":1.0,"Distance":41.1,"MatchLevel":"postalCode","MatchQuality":{"PostalCode":1.0},"Location":{"LocationId":"NT_v07BmQUflGwgcO-i-NXwdB_l_1152353287_L","LocationType":"point","DisplayPosition":{"Latitude":51.8683,"Longitude":-0.58857},"MapView":{"TopLeft":{"Latitude":51.8772932,"Longitude":-0.6031346},"BottomRight":{"Latitude":51.8593068,"Longitude":-0.5740054}},"Address":{"Label":"LU6 2FQ, Dunstable, England, United Kingdom","Country":"GBR","State":"England","County":"Bedfordshire","City":"Dunstable","PostalCode":"LU6 2FQ","AdditionalData":[{"value":"United Kingdom","key":"CountryName"},{"value":"England","key":"StateName"},{"value":"Bedfordshire","key":"CountyName"}]},"MapReference":{"ReferenceId":"1152353287","Spot":1.0,"SideOfStreet":"neither","StateId":"20248595","CountyId":"20334253","CityId":"20334347"}}},{"Relevance":1.0,"Distance":46.7,"MatchLevel":"postalCode","MatchQuality":{"PostalCode":1.0},"MatchType":"interpolated","Location":{"LocationId":"NT_v07BmQUflGwgcO-i-NXwdB_l_1152353288_L_xED","LocationType":"point","DisplayPosition":{"Latitude":51.86838,"Longitude":-0.58874},"MapView":{"TopLeft":{"Latitude":51.8773732,"Longitude":-0.6033046},"BottomRight":{"Latitude":51.8593868,"Longitude":-0.5741754}},"Address":{"Label":"LU6 2HT, Dunstable, England, United Kingdom","Country":"GBR","State":"England","County":"Bedfordshire","City":"Dunstable","PostalCode":"LU6 2HT","AdditionalData":[{"value":"United Kingdom","key":"CountryName"},{"value":"England","key":"StateName"},{"value":"Bedfordshire","key":"CountyName"}]},"MapReference":{"ReferenceId":"1152353288","Spot":0.5,"SideOfStreet":"neither","StateId":"20248595","CountyId":"20334253","CityId":"20334347"}}},{"Relevance":1.0,"Distance":52.4,"MatchLevel":"houseNumber","MatchQuality":{"Country":1.0,"State":1.0,"County":1.0,"City":1.0,"District":1.0,"Street":[1.0],"HouseNumber":1.0,"PostalCode":1.0},"MatchType":"interpolated","Location":{"LocationId":"NT_v07BmQUflGwgcO-i-NXwdB_l_1152353288_L_xED","LocationType":"point","DisplayPosition":{"Latitude":51.8685128,"Longitude":-0.5890851},"MapView":{"TopLeft":{"Latitude":51.8696369,"Longitude":-0.5909057},"BottomRight":{"Latitude":51.8673886,"Longitude":-0.5872645}},"Address":{"Label":"11 Cow Lane, Dunstable, LU6 2HT, United Kingdom","Country":"GBR","State":"England","County":"Bedfordshire","City":"Dunstable","District":"Edlesborough","Street":"Cow Lane","HouseNumber":"11","PostalCode":"LU6 2HT","AdditionalData":[{"value":"United Kingdom","key":"CountryName"},{"value":"England","key":"StateName"},{"value":"Bedfordshire","key":"CountyName"}]},"MapReference":{"ReferenceId":"1152353288","Spot":0.5,"SideOfStreet":"left","StateId":"20248595","CountyId":"20334253","CityId":"20334347","DistrictId":"20334352"}}},{"Relevance":1.0,"Distance":65.2,"MatchLevel":"houseNumber","MatchQuality":{"Country":1.0,"State":1.0,"County":1.0,"City":1.0,"District":1.0,"Street":[1.0],"HouseNumber":1.0,"PostalCode":1.0},"MatchType":"interpolated","Location":{"LocationId":"NT_GSKNN5qZcI4oTlYU3TSoQA_l_25865616_L_0A","LocationType":"point","DisplayPosition":{"Latitude":51.867531,"Longitude":-0.5878959},"MapView":{"TopLeft":{"Latitude":51.8686552,"Longitude":-0.5897164},"BottomRight":{"Latitude":51.8664069,"Longitude":-0.5860754}},"Address":{"Label":"4 Wren Walk, Dunstable, LU6 2, United Kingdom","Country":"GBR","State":"England","County":"Bedfordshire","City":"Dunstable","District":"Edlesborough","Street":"Wren Walk","HouseNumber":"4","PostalCode":"LU6 2","AdditionalData":[{"value":"United Kingdom","key":"CountryName"},{"value":"England","key":"StateName"},{"value":"Bedfordshire","key":"CountyName"}]},"MapReference":{"ReferenceId":"25865616","Spot":0.56,"SideOfStreet":"left","StateId":"20248595","CountyId":"20334253","CityId":"20334347","DistrictId":"20334352"}}},{"Relevance":1.0,"Distance":78.0,"MatchLevel":"postalCode","MatchQuality":{"PostalCode":1.0},"MatchType":"interpolated","Location":{"LocationId":"NT_GSKNN5qZcI4oTlYU3TSoQA_l_25865616_L_0A","LocationType":"point","DisplayPosition":{"Latitude":51.86745,"Longitude":-0.58804},"MapView":{"TopLeft":{"Latitude":51.8764432,"Longitude":-0.6026043},"BottomRight":{"Latitude":51.8584568,"Longitude":-0.5734757}},"Address":{"Label":"LU6 2RW, Dunstable, England, United Kingdom","Country":"GBR","State":"England","County":"Bedfordshire","City":"Dunstable","PostalCode":"LU6 2RW","AdditionalData":[{"value":"United Kingdom","key":"CountryName"},{"value":"England","key":"StateName"},{"value":"Bedfordshire","key":"CountyName"}]},"MapReference":{"ReferenceId":"25865616","Spot":0.56,"SideOfStreet":"neither","StateId":"20248595","CountyId":"20334253","CityId":"20334347"}}},{"Relevance":1.0,"Distance":81.8,"MatchLevel":"houseNumber","MatchQuality":{"Country":1.0,"State":1.0,"County":1.0,"City":1.0,"District":1.0,"Street":[1.0],"HouseNumber":1.0,"PostalCode":1.0},"MatchType":"interpolated","Location":{"LocationId":"NT_bkyWuaVRB7J1xPLc1QQ-2B_l_25865594_L_2A","LocationType":"point","DisplayPosition":{"Latitude":51.86777,"Longitude":-0.58755},"MapView":{"TopLeft":{"Latitude":51.8688942,"Longitude":-0.5893705},"BottomRight":{"Latitude":51.8666459,"Longitude":-0.5857294}},"Address":{"Label":"6 Jacksons Close, Dunstable, LU6 2, United Kingdom","Country":"GBR","State":"England","County":"Bedfordshire","City":"Dunstable","District":"Edlesborough","Street":"Jacksons Close","HouseNumber":"6","PostalCode":"LU6 2","AdditionalData":[{"value":"United Kingdom","key":"CountryName"},{"value":"England","key":"StateName"},{"value":"Bedfordshire","key":"CountyName"}]},"MapReference":{"ReferenceId":"25865594","Spot":0.0,"SideOfStreet":"left","StateId":"20248595","CountyId":"20334253","CityId":"20334347","DistrictId":"20334352"}}},{"Relevance":1.0,"Distance":103.3,"MatchLevel":"street","MatchQuality":{"Country":1.0,"State":1.0,"County":1.0,"City":1.0,"District":1.0,"Street":[1.0],"PostalCode":1.0},"Location":{"LocationId":"NT_v07BmQUflGwgcO-i-NXwdB_l_25868458_L","LocationType":"point","DisplayPosition":{"Latitude":51.86877,"Longitude":-0.58956},"MapView":{"TopLeft":{"Latitude":51.87064,"Longitude":-0.59312},"BottomRight":{"Latitude":51.86877,"Longitude":-0.58956}},"Address":{"Label":"Cow Lane, Dunstable, LU6 2, United Kingdom","Country":"GBR","State":"England","County":"Bedfordshire","City":"Dunstable","District":"Edlesborough","Street":"Cow Lane","PostalCode":"LU6 2","AdditionalData":[{"value":"United Kingdom","key":"CountryName"},{"value":"England","key":"StateName"},{"value":"Bedfordshire","key":"CountyName"}]},"MapReference":{"ReferenceId":"25868458","Spot":0.0,"SideOfStreet":"left","StateId":"20248595","CountyId":"20334253","CityId":"20334347","DistrictId":"20334352"}}}]}]}}