{"Response":{"MetaInfo":{"Timestamp":"2020-03-28T12:01:04.233+0000","NextPageInformation":"2"},"View":[{"_type":"SearchResultsViewType","ViewId":0,"Result":[{"Relevance":1.0,"Distance":0.0,"Direction":0.0,"MatchLevel":"district","MatchQuality":{"Country":1.0,"State":1.0,"County":1.0,"City":1.0,"District":1.0,"PostalCode":1.0},"Location":{"LocationId":"NT_E3IP0jiYz4rguinWffXCbC","LocationType":"point","DisplayPosition":{"Latitude":51.8728633,"Longitude":-1.4830211},"MapView":{"TopLeft":{"Latitude":51.87854,"Longitude":-1.48741},"BottomRight":{"Latitude":51.86505,"Longitude":-1.47033}},"Address":{"Label":"Charlbury, Chipping Norton, England, United Kingdom","Country":"GBR","State":"England","County":"Oxfordshire","City":"Chipping Norton","District":"Charlbury","PostalCode":"OX7 3","AdditionalData":[{"value":"United Kingdom","key":"CountryName"},{"value":"England","key":"StateName"},{"value":"Oxfordshire","key":"CountyName"}]},"MapReference":{"ReferenceId":"836633259","SideOfStreet":"neither","StateId":"20248595","CountyId":"20337811","CityId":"20338000","DistrictId":"20338007"}}},{"Relevance":1.0,"Distance":18.0,"MatchLevel":"postalCode","MatchQuality":{"PostalCode":1.0},"MatchType":"interpolated","Location":{"LocationId":"NT_DDkCNrh.Sjf.GYp16DIhcD_l_25871569_R_4A","LocationType":"point","DisplayPosition":{"Latitude":51.87294,"Longitude":-1.48279},"MapView":{"TopLeft":{"Latitude":51.8819332,"Longitude":-1.4973561},"BottomRight":{"Latitude":51.8639468,"Longitude":-1.4682239}},"Address":{"Label":"OX7 3PL, Chipping Norton, England, United Kingdom","Country":"GBR","State":"England","County":"Oxfordshire","City":"Chipping Norton","PostalCode":"OX7 3PL","AdditionalData":[{"value":"United Kingdom","key":"CountryName"},{"value":"England","key":"StateName"},{"value":"Oxfordshire","key":"CountyName"}]},"MapReference":{"ReferenceId":"25871569","Spot":0.25,"SideOfStreet":"neither","StateId":"20248595","CountyId":"20337811","CityId":"20338000"}}},{"Relevance":1.0,"Distance":26.6,"MatchLevel":"houseNumber","MatchQuality":{"Country":1.0,"State":1.0,"County":1.0,"City":1.0,"District":1.0,"Street":[1.0],"HouseNumber":1.0,"PostalCode":1.0},"MatchType":"interpolated","Location":{"LocationId":"NT_DDkCNrh.Sjf.GYp16DIhcD_l_25871569_R_4A","LocationType":"point","DisplayPosition":{"Latitude":51.8730858,"Longitude":-1.4828775},"MapView":{"TopLeft":{"Latitude":51.87421,"Longitude":-1.4846983},"BottomRight":{"Latitude":51.8719617,"Longitude":-1.4810567}},"Address":{"Label":"8 Market Street, Chipping Norton, OX7 3PN, United Kingdom","Country":"GBR","State":"England","County":"Oxfordshire","City":"Chipping Norton","District":"Charlbury","Street":"Market Street","HouseNumber":"8","PostalCode":"OX7 3PN","AdditionalData":[{"value":"United Kingdom","key":"CountryName"},{"value":"England","key":"StateName"},{"value":"Oxfordshire","key":"CountyName"}]},"MapReference":{"ReferenceId":"25871569","Spot":0.25,"SideOfStreet":"right","StateId":"20248595","CountyId":"20337811","CityId":"20338000","DistrictId":"20338007"}}},{"Relevance":1.0,"Distance":41.2,"MatchLevel":"street","MatchQuality":{"Country":1.0,"State":1.0,"County":1.0,"City":1.0,"District":1.0,"Street":[1.0],"PostalCode":1.0},"Location":{"LocationId":"NT_DDkCNrh.Sjf.GYp16DIhcD_l_25871573_L","LocationType":"point","DisplayPosition":{"Latitude":51.87275,"Longitude":-1.48245},"MapView":{"TopLeft":{"Latitude":51.87275,"Longitude":-1.48245},"BottomRight":{"Latitude":51.87268,"Longitude":-1.48235}},"Address":{"Label":"Market Street, Chipping Norton, OX7 3, United Kingdom","Country":"GBR","State":"England","County":"Oxfordshire","City":"Chipping Norton","District":"Charlbury","Street":"Market Street","PostalCode":"OX7 3","AdditionalData":[{"value":"United Kingdom","key":"CountryName"},{"value":"England","key":"StateName"},{"value":"Oxfordshire","key":"CountyName"}]},"MapReference":{"ReferenceId":"25871573","Spot":1.0,"SideOfStreet":"left","StateId":"20248595","CountyId":"20337811","CityId":"20338000","DistrictId":"20338007"}}},{"Relevance":1.0,"Distance":43.5,"MatchLevel":"street","MatchQuality":{"Country":1.0,"State":1.0,"County":1.0,"City":1.0,"District":1.0,"Street":[1.0],"PostalCode":1.0},"Location":{"LocationId":"NT_knXQfpYp.lp.3Fk9cd19VB_l_936289874_L","LocationType":"point","DisplayPosition":{"Latitude":51.872482,"Longitude":-1.4828781},"MapView":{"TopLeft":{"Latitude":51.87268,"Longitude":-1.48303},"BottomRight":{"Latitude":51.87244,"Longitude":-1.48235}},"Address":{"Label":"Church Street, Chipping Norton, OX7 3, United Kingdom","Country":"GBR","State":"England","County":"Oxfordshire","City":"Chipping Norton","District":"Charlbury","Street":"Church Street","PostalCode":"OX7 3","AdditionalData":[{"value":"United Kingdom","key":"CountryName"},{"value":"England","key":"StateName"},{"value":"Oxfordshire","key":"CountyName"}]},"MapReference":{"ReferenceId":"936289874","Spot":0.22,"SideOfStreet":"left","StateId":"20248595","CountyId":"20337811","CityId":"20338000","DistrictId":"20338007"}}},{"Relevance":1.0,"Distance":47.1,"MatchLevel":"street","MatchQuality":{"Country":1.0,"State":1.0,"County":1.0,"City":1.0,"District":1.0,"Street":[1.0],"PostalCode":1.0},"Location":{"LocationId":"NT_knXQfpYp.lp.3Fk9cd19VB_l_936289873_L","LocationType":"point","DisplayPosition":{"Latitude":51.87244,"Longitude":-1.48303},"MapView":{"TopLeft":{"Latitude":51.87244,"Longitude":-1.48403},"BottomRight":{"Latitude":51.87222,"Longitude":-1.48303}},"Address":{"Label":"Church Street, Chipping Norton, OX7 3, United Kingdom","Country":"GBR","State":"England","County":"Oxfordshire","City":"Chipping Norton","District":"Charlbury","Street":"Church Street","PostalCode":"OX7 3","AdditionalData":[{"value":"United Kingdom","key":"CountryName"},{"value":"England","key":"StateName"},{"value":"Oxfordshire","key":"CountyName"}]},"MapReference":{"ReferenceId":"936289873","Spot":1.0,"SideOfStreet":"left","StateId":"20248595","CountyId":"20337811","CityId":"20338000","DistrictId":"20338007"}}},{"Relevance":1.0,"Distance":47.1,"MatchLevel":"street","MatchQuality":{"Country":1.0,"State":1.0,"County":1.0,"City":1.0,"District":1.0,"Street":[1.0],"PostalCode":1.0},"Location":{"LocationId":"NT_knXQfpYp.lp.3Fk9cd19VB_l_936289875_R","LocationType":"point","DisplayPosition":{"Latitude":51.87244,"Longitude":-1.48303},"MapView":{"TopLeft":{"Latitude":51.87244,"Longitude":-1.48303},"BottomRight":{"Latitude":51.87195,"Longitude":-1.48212}},"Address":{"Label":"Church Street, Chipping Norton, OX7 3, United Kingdom","Country":"GBR","State":"England","County":"Oxfordshire","City":"Chipping Norton","District":"Charlbury","Street":"Church Street","PostalCode":"OX7 3","AdditionalData":[{"value":"United Kingdom","key":"CountryName"},{"value":"England","key":"StateName"},{"value":"Oxfordshire","key":"CountyName"}]},"MapReference":{"ReferenceId":"936289875","Spot":1.0,"SideOfStreet":"right","StateId":"20248595","CountyId":"20337811","CityId":"20338000","DistrictId":"20338007"}}},{"Relevance":1.0,"Distance":48.1,"MatchLevel":"houseNumber","MatchQuality":{"Country":1.0,"State":1.0,"County":1.0,"City":1.0,"District":1.0,"Street":[1.0],"HouseNumber":1.0,"PostalCode":1.0},"MatchType":"interpolated","Location":{"LocationId":"NT_TqnUU3lYSuMMlLIWOTN2cB_l_25871568_R_xA","LocationType":"point","DisplayPosition":{"Latitude":51.87286,"Longitude":-1.48232},"MapView":{"TopLeft":{"Latitude":51.8739842,"Longitude":-1.4841407},"BottomRight":{"Latitude":51.8717359,"Longitude":-1.4804992}},"Address":{"Label":"1 Browns Lane, Chipping Norton, OX7 3QW, United Kingdom","Country":"GBR","State":"England","County":"Oxfordshire","City":"Chipping Norton","District":"Charlbury","Street":"Browns Lane","HouseNumber":"1","PostalCode":"OX7 3QW","AdditionalData":[{"value":"United Kingdom","key":"CountryName"},{"value":"England","key":"StateName"},{"value":"Oxfordshire","key":"CountyName"}]},"MapReference":{"ReferenceId":"25871568","Spot":0.13,"SideOfStreet":"right","StateId":"20248595","CountyId":"20337811","CityId":"20338000","DistrictId":"20338007"}}},{"Relevance":1.0,"Distance":50.7,"MatchLevel":"postalCode","MatchQuality":{"PostalCode":1.0},"Location":{"LocationId":"NT_knXQfpYp.lp.3Fk9cd19VB_l_936289874_L","LocationType":"point","DisplayPosition":{"Latitude":51.87259,"Longitude":-1.48243},"MapView":{"TopLeft":{"Latitude":51.8815832,"Longitude":-1.496996},"BottomRight":{"Latitude":51.8635968,"Longitude":-1.467864}},"Address":{"Label":"OX7 3PW, Chipping Norton, England, United Kingdom","Country":"GBR","State":"England","County":"Oxfordshire","City":"Chipping Norton","PostalCode":"OX7 3PW","AdditionalData":[{"value":"United Kingdom","key":"CountryName"},{"value":"England","key":"StateName"},{"value":"Oxfordshire","key":"CountyName"}]},"MapReference":{"ReferenceId":"936289874","Spot":0.22,"SideOfStreet":"neither","StateId":"20248595","CountyId":"20337811","CityId":"20338000"}}},{"Relevance":1.0,"Distance":58.0,"MatchLevel":"postalCode","MatchQuality":{"PostalCode":1.0},"Location":{"LocationId":"NT_knXQfpYp.lp.3Fk9cd19VB_l_936289873_L","LocationType":"point","DisplayPosition":{"Latitude":51.87241,"Longitude":-1.48344},"MapView":{"TopLeft":{"Latitude":51.8814032,"Longitude":-1.4980059},"BottomRight":{"Latitude":51.8634168,"Longitude":-1.4688741}},"Address":{"Label":"OX7 3PR, Chipping Norton, England, United Kingdom","Country":"GBR","State":"England","County":"Oxfordshire","City":"Chipping Norton","PostalCode":"OX7 3PR","AdditionalData":[{"value":"United Kingdom","key":"CountryName"},{"value":"England","key":"StateName"},{"value":"Oxfordshire","key":"CountyName"}]},"MapReference":{"ReferenceId":"936289873","Spot":1.0,"SideOfStreet":"neither","StateId":"20248595","CountyId":"20337811","CityId":"20338000"}}}]}]}}