{"Response":{"MetaInfo":{"Timestamp":"2020-03-28T09:51:05.991+0000","NextPageInformation":"2"},"View":[{"_type":"SearchResultsViewType","ViewId":0,"Result":[{"Relevance":1.0,"Distance":-21.0,"MatchLevel":"landmark","MatchQuality":{"Country":1.0,"State":1.0,"County":1.0,"City":1.0,"District":1.0,"PostalCode":1.0,"Name":1.0},"Location":{"LocationId":"NT_SPFqbJf6rnLoJEq4u.-dtC_p_5LfhQGkVuTI5SRPLzRiwsB","LocationType":"shoppingCentre","Name":"Beechwood Shopping Centre","DisplayPosition":{"Latitude":51.90039,"Longitude":-2.07092},"MapView":{"TopLeft":{"Latitude":51.90111,"Longitude":-2.07326},"BottomRight":{"Latitude":51.89939,"Longitude":-2.07053}},"Address":{"Label":"Cheltenham, GL52 2, United Kingdom","Country":"GBR","State":"England","County":"Gloucestershire","City":"Cheltenham","District":"Cheltenham","PostalCode":"GL52 2","AdditionalData":[{"value":"United Kingdom","key":"CountryName"},{"value":"England","key":"StateName"},{"value":"Gloucestershire","key":"CountyName"}]},"MapReference":{"StateId":"20248595","CountyId":"20334235","CityId":"20348371","DistrictId":"20348372","PlaceId":"18090998"}}},{"Relevance":1.0,"Distance":0.0,"Direction":0.0,"MatchLevel":"district","MatchQuality":{"Country":1.0,"State":1.0,"County":1.0,"City":1.0,"District":1.0,"PostalCode":1.0},"Location":{"LocationId":"NT_kptLSjYEDR0uLS9T8dPNjC","LocationType":"point","DisplayPosition":{"Latitude":51.900331,"Longitude":-2.0726471},"MapView":{"TopLeft":{"Latitude":51.92569,"Longitude":-2.14317},"BottomRight":{"Latitude":51.86626,"Longitude":-2.03151}},"Address":{"Label":"Cheltenham, England, United Kingdom","Country":"GBR","State":"England","County":"Gloucestershire","City":"Cheltenham","District":"Cheltenham","PostalCode":"GL50 1","AdditionalData":[{"value":"United Kingdom","key":"CountryName"},{"value":"England","key":"StateName"},{"value":"Gloucestershire","key":"CountyName"}]},"MapReference":{"ReferenceId":"26590491","SideOfStreet":"neither","StateId":"20248595","CountyId":"20334235","CityId":"20348371","DistrictId":"20348372"}}},{"Relevance":1.0,"Distance":5.4,"MatchLevel":"houseNumber","MatchQuality":{"Country":1.0,"State":1.0,"County":1.0,"City":1.0,"District":1.0,"Street":[1.0],"HouseNumber":1.0,"PostalCode":1.0},"MatchType":"interpolated","Location":{"LocationId":"NT_KXrBvYAGANQmQvNBSopTFD_l_26590291_R_xcD","LocationType":"point","DisplayPosition":{"Latitude":51.9004842,"Longitude":-2.0728071},"MapView":{"TopLeft":{"Latitude":51.9016083,"Longitude":-2.074629},"BottomRight":{"Latitude":51.89936,"Longitude":-2.0709852}},"Address":{"Label":"17 Winchcombe Street, Cheltenham, GL52 2, United Kingdom","Country":"GBR","State":"England","County":"Gloucestershire","City":"Cheltenham","District":"Cheltenham","Street":"Winchcombe Street","HouseNumber":"17","PostalCode":"GL52 2","AdditionalData":[{"value":"United Kingdom","key":"CountryName"},{"value":"England","key":"StateName"},{"value":"Gloucestershire","key":"CountyName"}]},"MapReference":{"ReferenceId":"26590291","Spot":0.42,"SideOfStreet":"right","StateId":"20248595","CountyId":"20334235","CityId":"20348371","DistrictId":"20348372"}}},{"Relevance":1.0,"Distance":27.8,"MatchLevel":"postalCode","MatchQuality":{"PostalCode":1.0},"MatchType":"interpolated","Location":{"LocationId":"NT_KXrBvYAGANQmQvNBSopTFD_l_26590291_R_xcD","LocationType":"point","DisplayPosition":{"Latitude":51.90058,"Longitude":-2.07261},"MapView":{"TopLeft":{"Latitude":51.9095732,"Longitude":-2.0871851},"BottomRight":{"Latitude":51.8915868,"Longitude":-2.0580349}},"Address":{"Label":"GL52 2NA, Cheltenham, England, United Kingdom","Country":"GBR","State":"England","County":"Gloucestershire","City":"Cheltenham","PostalCode":"GL52 2NA","AdditionalData":[{"value":"United Kingdom","key":"CountryName"},{"value":"England","key":"StateName"},{"value":"Gloucestershire","key":"CountyName"}]},"MapReference":{"ReferenceId":"26590291","Spot":0.42,"SideOfStreet":"neither","StateId":"20248595","CountyId":"20334235","CityId":"20348371"}}},{"Relevance":1.0,"Distance":40.2,"MatchLevel":"houseNumber","MatchQuality":{"Country":1.0,"State":1.0,"County":1.0,"City":1.0,"District":1.0,"Street":[1.0],"HouseNumber":1.0,"PostalCode":1.0},"MatchType":"interpolated","Location":{"LocationId":"NT_9RnkWpyUyb6KeCryfFCWrC_l_774473379_R_xUTN","LocationType":"point","DisplayPosition":{"Latitude":51.9000067,"Longitude":-2.0732333},"MapView":{"TopLeft":{"Latitude":51.9011308,"Longitude":-2.0750552},"BottomRight":{"Latitude":51.8988825,"Longitude":-2.0714115}},"Address":{"Label":"155 High Street, Cheltenham, GL50 1, United Kingdom","Country":"GBR","State":"England","County":"Gloucestershire","City":"Cheltenham","District":"Cheltenham","Street":"High Street","HouseNumber":"155","PostalCode":"GL50 1","AdditionalData":[{"value":"United Kingdom","key":"CountryName"},{"value":"England","key":"StateName"},{"value":"Gloucestershire","key":"CountyName"}]},"MapReference":{"ReferenceId":"774473379","Spot":0.83,"SideOfStreet":"right","StateId":"20248595","CountyId":"20334235","CityId":"20348371","DistrictId":"20348372"}}},{"Relevance":1.0,"Distance":44.4,"MatchLevel":"houseNumber","MatchQuality":{"Country":1.0,"State":1.0,"County":1.0,"City":1.0,"District":1.0,"Street":[1.0],"HouseNumber":1.0,"PostalCode":1.0},"MatchType":"interpolated","Location":{"LocationId":"NT_9RnkWpyUyb6KeCryfFCWrC_l_774473378_R_xQzM","LocationType":"point","DisplayPosition":{"Latitude":51.8998656,"Longitude":-2.0730722},"MapView":{"TopLeft":{"Latitude":51.9009897,"Longitude":-2.0748941},"BottomRight":{"Latitude":51.8987414,"Longitude":-2.0712504}},"Address":{"Label":"143 High Street, Cheltenham, GL50 1DQ, United Kingdom","Country":"GBR","State":"England","County":"Gloucestershire","City":"Cheltenham","District":"Cheltenham","Street":"High Street","HouseNumber":"143","PostalCode":"GL50 1DQ","AdditionalData":[{"value":"United Kingdom","key":"CountryName"},{"value":"England","key":"StateName"},{"value":"Gloucestershire","key":"CountyName"}]},"MapReference":{"ReferenceId":"774473378","Spot":0.89,"SideOfStreet":"right","StateId":"20248595","CountyId":"20334235","CityId":"20348371","DistrictId":"20348372"}}},{"Relevance":1.0,"Distance":46.9,"MatchLevel":"houseNumber","MatchQuality":{"Country":1.0,"State":1.0,"County":1.0,"City":1.0,"District":1.0,"Street":[1.0],"HouseNumber":1.0,"PostalCode":1.0},"MatchType":"interpolated","Location":{"LocationId":"NT_9RnkWpyUyb6KeCryfFCWrC_l_774473373_R_xUzN","LocationType":"point","DisplayPosition":{"Latitude":51.90012,"Longitude":-2.0734001},"MapView":{"TopLeft":{"Latitude":51.9012442,"Longitude":-2.0752219},"BottomRight":{"Latitude":51.8989959,"Longitude":-2.0715782}},"Address":{"Label":"157 High Street, Cheltenham, GL50 1, United Kingdom","Country":"GBR","State":"England","County":"Gloucestershire","City":"Cheltenham","District":"Cheltenham","Street":"High Street","HouseNumber":"157","PostalCode":"GL50 1","AdditionalData":[{"value":"United Kingdom","key":"CountryName"},{"value":"England","key":"StateName"},{"value":"Gloucestershire","key":"CountyName"}]},"MapReference":{"ReferenceId":"774473373","Spot":0.44,"SideOfStreet":"right","StateId":"20248595","CountyId":"20334235","CityId":"20348371","DistrictId":"20348372"}}},{"Relevance":1.0,"Distance":58.1,"MatchLevel":"landmark","MatchQuality":{"Country":1.0,"State":1.0,"County":1.0,"City":1.0,"District":1.0,"Street":[1.0],"PostalCode":1.0,"Name":1.0},"Location":{"LocationId":"NT_AMv715dzmoPbXccpSE78LB_p_g2grnS9mvVqbo.D4yWDqHD","LocationType":"shoppingCentre","Name":"Regent Arcade","DisplayPosition":{"Latitude":51.90014,"Longitude":-2.07342},"MapView":{"TopLeft":{"Latitude":51.90024,"Longitude":-2.07697},"BottomRight":{"Latitude":51.89793,"Longitude":-2.0731}},"Address":{"Label":"High Street, Cheltenham, GL50 1, United Kingdom","Country":"GBR","State":"England","County":"Gloucestershire","City":"Cheltenham","District":"Cheltenham","Street":"High Street","PostalCode":"GL50 1","AdditionalData":[{"value":"United Kingdom","key":"CountryName"},{"value":"England","key":"StateName"},{"value":"Gloucestershire","key":"CountyName"}]},"MapReference":{"StateId":"20248595","CountyId":"20334235","CityId":"20348371","DistrictId":"20348372","PlaceId":"18090999"}}},{"Relevance":1.0,"Distance":61.7,"MatchLevel":"postalCode","MatchQuality":{"PostalCode":1.0},"MatchType":"interpolated","Location":{"LocationId":"NT_9RnkWpyUyb6KeCryfFCWrC_l_774473378_R_xQzM","LocationType":"point","DisplayPosition":{"Latitude":51.8998,"Longitude":-2.07291},"MapView":{"TopLeft":{"Latitude":51.9087932,"Longitude":-2.0874848},"BottomRight":{"Latitude":51.8908068,"Longitude":-2.0583352}},"Address":{"Label":"GL50 1DQ, Cheltenham, England, United Kingdom","Country":"GBR","State":"England","County":"Gloucestershire","City":"Cheltenham","PostalCode":"GL50 1DQ","AdditionalData":[{"value":"United Kingdom","key":"CountryName"},{"value":"England","key":"StateName"},{"value":"Gloucestershire","key":"CountyName"}]},"MapReference":{"ReferenceId":"774473378","Spot":0.89,"SideOfStreet":"neither","StateId":"20248595","CountyId":"20334235","CityId":"20348371"}}},{"Relevance":1.0,"Distance":70.0,"MatchLevel":"houseNumber","MatchQuality":{"Country":1.0,"State":1.0,"County":1.0,"City":1.0,"District":1.0,"Street":[1.0],"HouseNumber":1.0,"PostalCode":1.0},"MatchType":"interpolated","Location":{"LocationId":"NT_9RnkWpyUyb6KeCryfFCWrC_l_774473374_R_xcTM","LocationType":"point","DisplayPosition":{"Latitude":51.90034,"Longitude":-2.07372},"MapView":{"TopLeft":{"Latitude":51.9014642,"Longitude":-2.0755419},"BottomRight":{"Latitude":51.8992159,"Longitude":-2.0718981}},"Address":{"Label":"171 High Street, Cheltenham, GL50 1DF, United Kingdom","Country":"GBR","State":"England","County":"Gloucestershire","City":"Cheltenham","District":"Cheltenham","Street":"High Street","HouseNumber":"171","PostalCode":"GL50 1DF","AdditionalData":[{"value":"United Kingdom","key":"CountryName"},{"value":"England","key":"StateName"},{"value":"Gloucestershire","key":"CountyName"}]},"MapReference":{"ReferenceId":"774473374","Spot":0.36,"SideOfStreet":"right","StateId":"20248595","CountyId":"20334235","CityId":"20348371","DistrictId":"20348372"}}}]}]}}