{"Response":{"MetaInfo":{"Timestamp":"2020-03-28T11:40:59.635+0000","NextPageInformation":"2"},"View":[{"_type":"SearchResultsViewType","ViewId":0,"Result":[{"Relevance":1.0,"Distance":0.0,"Direction":0.0,"MatchLevel":"district","MatchQuality":{"Country":1.0,"State":1.0,"County":1.0,"City":1.0,"District":1.0,"PostalCode":1.0},"Location":{"LocationId":"NT_WrZFeyXKv4qqBXrcF0e1ID","LocationType":"point","DisplayPosition":{"Latitude":51.9384373,"Longitude":8.4446162},"MapView":{"TopLeft":{"Latitude":51.94411,"Longitude":8.41937},"BottomRight":{"Latitude":51.90835,"Longitude":8.45516}},"Address":{"Label":"Avenwedde, Gütersloh, Nordrhein-Westfalen, Deutschland","Country":"DEU","State":"Nordrhein-Westfalen","County":"Gütersloh","City":"Gütersloh","District":"Avenwedde","PostalCode":"33335","AdditionalData":[{"value":"Deutschland","key":"CountryName"},{"value":"Nordrhein-Westfalen","key":"StateName"},{"value":"Gütersloh","key":"CountyName"}]},"MapReference":{"ReferenceId":"52701760","SideOfStreet":"neither","CountryId":"20147700","StateId":"20157369","CountyId":"20159554","CityId":"20159560","DistrictId":"20159567"}}},{"Relevance":1.0,"Distance":14.5,"MatchLevel":"houseNumber","MatchQuality":{"Country":1.0,"State":1.0,"County":1.0,"City":1.0,"District":1.0,"Street":[1.0],"HouseNumber":1.0,"PostalCode":1.0},"MatchType":"interpolated","Location":{"LocationId":"NT_bh18NMvZTR1.kyF3RedYvA_2UD","LocationType":"point","DisplayPosition":{"Latitude":51.9382,"Longitude":8.44456},"MapView":{"TopLeft":{"Latitude":51.9393242,"Longitude":8.4427366},"BottomRight":{"Latitude":51.9370758,"Longitude":8.4463834}},"Address":{"Label":"Friedrichsdorfer Straße 65, 33335 Gütersloh, Deutschland","Country":"DEU","State":"Nordrhein-Westfalen","County":"Gütersloh","City":"Gütersloh","District":"Avenwedde","Street":"Friedrichsdorfer Straße","HouseNumber":"65","PostalCode":"33335","AdditionalData":[{"value":"Deutschland","key":"CountryName"},{"value":"Nordrhein-Westfalen","key":"StateName"},{"value":"Gütersloh","key":"CountyName"}]},"MapReference":{"ReferenceId":"52701778","Spot":0.06,"SideOfStreet":"right","CountryId":"20147700","StateId":"20157369","CountyId":"20159554","CityId":"20159560","DistrictId":"20159567","AddressId":"193423885","RoadLinkId":"35475807"}}},{"Relevance":1.0,"Distance":25.7,"MatchLevel":"street","MatchQuality":{"Country":1.0,"State":1.0,"County":1.0,"City":1.0,"District":1.0,"PostalCode":1.0},"Location":{"LocationId":"NT_Ht-J7tMNAHSb9LWEJAVugD_l_52701777_L","LocationType":"point","DisplayPosition":{"Latitude":51.938249,"Longitude":8.4448342},"MapView":{"TopLeft":{"Latitude":51.93905,"Longitude":8.44474},"BottomRight":{"Latitude":51.93814,"Longitude":8.44528}},"Address":{"Label":"33335 Gütersloh, Deutschland","Country":"DEU","State":"Nordrhein-Westfalen","County":"Gütersloh","City":"Gütersloh","District":"Avenwedde","PostalCode":"33335","AdditionalData":[{"value":"Deutschland","key":"CountryName"},{"value":"Nordrhein-Westfalen","key":"StateName"},{"value":"Gütersloh","key":"CountyName"}]},"MapReference":{"ReferenceId":"52701777","Spot":0.13,"SideOfStreet":"left","CountryId":"20147700","StateId":"20157369","CountyId":"20159554","CityId":"20159560","DistrictId":"20159567"}}},{"Relevance":1.0,"Distance":39.5,"MatchLevel":"houseNumber","MatchQuality":{"Country":1.0,"State":1.0,"County":1.0,"City":1.0,"District":1.0,"Street":[1.0],"HouseNumber":1.0,"PostalCode":1.0},"MatchType":"interpolated","Location":{"LocationId":"NT_bh18NMvZTR1.kyF3RedYvA_2cD","LocationType":"point","DisplayPosition":{"Latitude":51.93811,"Longitude":8.44484},"MapView":{"TopLeft":{"Latitude":51.9392342,"Longitude":8.4430166},"BottomRight":{"Latitude":51.9369858,"Longitude":8.4466634}},"Address":{"Label":"Friedrichsdorfer Straße 67, 33335 Gütersloh, Deutschland","Country":"DEU","State":"Nordrhein-Westfalen","County":"Gütersloh","City":"Gütersloh","District":"Avenwedde","Street":"Friedrichsdorfer Straße","HouseNumber":"67","PostalCode":"33335","AdditionalData":[{"value":"Deutschland","key":"CountryName"},{"value":"Nordrhein-Westfalen","key":"StateName"},{"value":"Gütersloh","key":"CountyName"}]},"MapReference":{"ReferenceId":"845380796","Spot":0.57,"SideOfStreet":"right","CountryId":"20147700","StateId":"20157369","CountyId":"20159554","CityId":"20159560","DistrictId":"20159567","AddressId":"672626318","RoadLinkId":"226730040"}}},{"Relevance":1.0,"Distance":56.6,"MatchLevel":"houseNumber","MatchQuality":{"Country":1.0,"State":1.0,"County":1.0,"City":1.0,"District":1.0,"Street":[1.0],"HouseNumber":1.0,"PostalCode":1.0},"MatchType":"interpolated","Location":{"LocationId":"NT_bh18NMvZTR1.kyF3RedYvA_2kD","LocationType":"point","DisplayPosition":{"Latitude":51.93802,"Longitude":8.44509},"MapView":{"TopLeft":{"Latitude":51.9391442,"Longitude":8.4432666},"BottomRight":{"Latitude":51.9368958,"Longitude":8.4469134}},"Address":{"Label":"Friedrichsdorfer Straße 69, 33335 Gütersloh, Deutschland","Country":"DEU","State":"Nordrhein-Westfalen","County":"Gütersloh","City":"Gütersloh","District":"Avenwedde","Street":"Friedrichsdorfer Straße","HouseNumber":"69","PostalCode":"33335","AdditionalData":[{"value":"Deutschland","key":"CountryName"},{"value":"Nordrhein-Westfalen","key":"StateName"},{"value":"Gütersloh","key":"CountyName"}]},"MapReference":{"ReferenceId":"845380795","Spot":0.83,"SideOfStreet":"right","CountryId":"20147700","StateId":"20157369","CountyId":"20159554","CityId":"20159560","DistrictId":"20159567","AddressId":"193795579","RoadLinkId":"226730039"}}},{"Relevance":1.0,"Distance":62.0,"MatchLevel":"houseNumber","MatchQuality":{"Country":1.0,"State":1.0,"County":1.0,"City":1.0,"District":1.0,"Street":[1.0],"HouseNumber":1.0,"PostalCode":1.0},"MatchType":"interpolated","Location":{"LocationId":"NT_UkioA6ycmsaWZ.ppxtDKvD_5A","LocationType":"point","DisplayPosition":{"Latitude":51.93907,"Longitude":8.44505},"MapView":{"TopLeft":{"Latitude":51.9401942,"Longitude":8.4432266},"BottomRight":{"Latitude":51.9379458,"Longitude":8.4468734}},"Address":{"Label":"Geierweg 9, 33335 Gütersloh, Deutschland","Country":"DEU","State":"Nordrhein-Westfalen","County":"Gütersloh","City":"Gütersloh","District":"Avenwedde","Street":"Geierweg","HouseNumber":"9","PostalCode":"33335","AdditionalData":[{"value":"Deutschland","key":"CountryName"},{"value":"Nordrhein-Westfalen","key":"StateName"},{"value":"Gütersloh","key":"CountyName"}]},"MapReference":{"ReferenceId":"52701706","Spot":0.82,"SideOfStreet":"right","CountryId":"20147700","StateId":"20157369","CountyId":"20159554","CityId":"20159560","DistrictId":"20159567","AddressId":"193377677","RoadLinkId":"35403042"}}},{"Relevance":1.0,"Distance":64.0,"MatchLevel":"houseNumber","MatchQuality":{"Country":1.0,"State":1.0,"County":1.0,"City":1.0,"District":1.0,"Street":[1.0],"HouseNumber":1.0,"PostalCode":1.0},"MatchType":"interpolated","Location":{"LocationId":"NT_v42OpTo2MVD8TC-SVmk5vA_yATQ","LocationType":"point","DisplayPosition":{"Latitude":51.93904,"Longitude":8.44415},"MapView":{"TopLeft":{"Latitude":51.9401642,"Longitude":8.4423266},"BottomRight":{"Latitude":51.9379158,"Longitude":8.4459734}},"Address":{"Label":"Auerhahnstraße 20A, 33335 Gütersloh, Deutschland","Country":"DEU","State":"Nordrhein-Westfalen","County":"Gütersloh","City":"Gütersloh","District":"Avenwedde","Street":"Auerhahnstraße","HouseNumber":"20A","PostalCode":"33335","AdditionalData":[{"value":"Deutschland","key":"CountryName"},{"value":"Nordrhein-Westfalen","key":"StateName"},{"value":"Gütersloh","key":"CountyName"}]},"MapReference":{"ReferenceId":"52701708","Spot":0.0,"SideOfStreet":"right","CountryId":"20147700","StateId":"20157369","CountyId":"20159554","CityId":"20159560","DistrictId":"20159567","AddressId":"672637545","RoadLinkId":"35742239"}}},{"Relevance":1.0,"Distance":71.4,"MatchLevel":"street","MatchQuality":{"Country":1.0,"State":1.0,"County":1.0,"City":1.0,"District":1.0,"PostalCode":1.0},"Location":{"LocationId":"NT_Ht-J7tMNAHSb9LWEJAVugD_l_1262616335_L","LocationType":"point","DisplayPosition":{"Latitude":51.93906,"Longitude":8.44487},"MapView":{"TopLeft":{"Latitude":51.93986,"Longitude":8.44458},"BottomRight":{"Latitude":51.93906,"Longitude":8.44487}},"Address":{"Label":"33335 Gütersloh, Deutschland","Country":"DEU","State":"Nordrhein-Westfalen","County":"Gütersloh","City":"Gütersloh","District":"Avenwedde","PostalCode":"33335","AdditionalData":[{"value":"Deutschland","key":"CountryName"},{"value":"Nordrhein-Westfalen","key":"StateName"},{"value":"Gütersloh","key":"CountyName"}]},"MapReference":{"ReferenceId":"1262616335","Spot":0.0,"SideOfStreet":"left","CountryId":"20147700","StateId":"20157369","CountyId":"20159554","CityId":"20159560","DistrictId":"20159567"}}},{"Relevance":1.0,"Distance":77.5,"MatchLevel":"street","MatchQuality":{"Country":1.0,"State":1.0,"County":1.0,"City":1.0,"District":1.0,"Street":[1.0],"PostalCode":1.0},"Location":{"LocationId":"NT_UkioA6ycmsaWZ.ppxtDKvD_l_52701707_L","LocationType":"point","DisplayPosition":{"Latitude":51.93907,"Longitude":8.44509},"MapView":{"TopLeft":{"Latitude":51.93907,"Longitude":8.44509},"BottomRight":{"Latitude":51.93905,"Longitude":8.44528}},"Address":{"Label":"Geierweg, 33335 Gütersloh, Deutschland","Country":"DEU","State":"Nordrhein-Westfalen","County":"Gütersloh","City":"Gütersloh","District":"Avenwedde","Street":"Geierweg","PostalCode":"33335","AdditionalData":[{"value":"Deutschland","key":"CountryName"},{"value":"Nordrhein-Westfalen","key":"StateName"},{"value":"Gütersloh","key":"CountyName"}]},"MapReference":{"ReferenceId":"52701707","Spot":1.0,"SideOfStreet":"left","CountryId":"20147700","StateId":"20157369","CountyId":"20159554","CityId":"20159560","DistrictId":"20159567"}}},{"Relevance":1.0,"Distance":77.5,"MatchLevel":"street","MatchQuality":{"Country":1.0,"State":1.0,"County":1.0,"City":1.0,"District":1.0,"PostalCode":1.0},"Location":{"LocationId":"NT_Ht-J7tMNAHSb9LWEJAVugD_l_52701702_L","LocationType":"point","DisplayPosition":{"Latitude":51.93907,"Longitude":8.44509},"MapView":{"TopLeft":{"Latitude":51.93987,"Longitude":8.44509},"BottomRight":{"Latitude":51.93907,"Longitude":8.44526}},"Address":{"Label":"33335 Gütersloh, Deutschland","Country":"DEU","State":"Nordrhein-Westfalen","County":"Gütersloh","City":"Gütersloh","District":"Avenwedde","PostalCode":"33335","AdditionalData":[{"value":"Deutschland","key":"CountryName"},{"value":"Nordrhein-Westfalen","key":"StateName"},{"value":"Gütersloh","key":"CountyName"}]},"MapReference":{"ReferenceId":"52701702","Spot":0.0,"SideOfStreet":"left","CountryId":"20147700","StateId":"20157369","CountyId":"20159554","CityId":"20159560","DistrictId":"20159567"}}}]}]}}