{"Response":{"MetaInfo":{"Timestamp":"2020-03-28T10:49:26.448+0000","NextPageInformation":"2"},"View":[{"_type":"SearchResultsViewType","ViewId":0,"Result":[{"Relevance":1.0,"Distance":0.0,"Direction":0.0,"MatchLevel":"district","MatchQuality":{"Country":1.0,"State":1.0,"County":1.0,"City":1.0,"District":1.0,"PostalCode":1.0},"Location":{"LocationId":"NT_BalFZN.IlA0SxWvuJyt0sC","LocationType":"point","DisplayPosition":{"Latitude":51.9836911,"Longitude":20.2127442},"MapView":{"TopLeft":{"Latitude":51.99431,"Longitude":20.10486},"BottomRight":{"Latitude":51.92617,"Longitude":20.22939}},"Address":{"Label":"Skierniewice, Woj. Łódzkie, Polska","Country":"POL","State":"Woj. Łódzkie","County":"Skierniewice","City":"Skierniewice","District":"Skierniewice","PostalCode":"96-100","AdditionalData":[{"value":"Polska","key":"CountryName"},{"value":"Woj. Łódzkie","key":"StateName"},{"value":"Skierniewice","key":"CountyName"}]},"MapReference":{"ReferenceId":"972117730","SideOfStreet":"neither","CountryId":"20624059","StateId":"20625723","CountyId":"20626113","CityId":"20626114","DistrictId":"20683497"}}},{"Relevance":1.0,"Distance":49.4,"MatchLevel":"houseNumber","MatchQuality":{"Country":1.0,"State":1.0,"County":1.0,"City":1.0,"District":1.0,"Street":[1.0],"HouseNumber":1.0,"PostalCode":1.0},"MatchType":"interpolated","Location":{"LocationId":"NT_4M4K0NaNytybBDTdnYH2AD_z8SN","LocationType":"point","DisplayPosition":{"Latitude":51.98405,"Longitude":20.21341},"MapView":{"TopLeft":{"Latitude":51.9851742,"Longitude":20.2115847},"BottomRight":{"Latitude":51.9829258,"Longitude":20.2152353}},"Address":{"Label":"ulica Stanisława Domarasiewicza 3/5, 96-100 Skierniewice, Polska","Country":"POL","State":"Woj. Łódzkie","County":"Skierniewice","City":"Skierniewice","District":"Skierniewice","Street":"ulica Stanisława Domarasiewicza","HouseNumber":"3/5","PostalCode":"96-100","AdditionalData":[{"value":"Polska","key":"CountryName"},{"value":"Woj. Łódzkie","key":"StateName"},{"value":"Skierniewice","key":"CountyName"}]},"MapReference":{"ReferenceId":"595686681","Spot":0.13,"SideOfStreet":"left","CountryId":"20624059","StateId":"20625723","CountyId":"20626113","CityId":"20626114","DistrictId":"20683497","AddressId":"731567954","RoadLinkId":"142026872"}}},{"Relevance":1.0,"Distance":54.1,"MatchLevel":"houseNumber","MatchQuality":{"Country":1.0,"State":1.0,"County":1.0,"City":1.0,"District":1.0,"Street":[1.0],"HouseNumber":1.0,"PostalCode":1.0},"MatchType":"interpolated","Location":{"LocationId":"NT_4M4K0NaNytybBDTdnYH2AD_4A","LocationType":"point","DisplayPosition":{"Latitude":51.98391,"Longitude":20.21345},"MapView":{"TopLeft":{"Latitude":51.9850342,"Longitude":20.2116247},"BottomRight":{"Latitude":51.9827858,"Longitude":20.2152753}},"Address":{"Label":"ulica Stanisława Domarasiewicza 8, 96-100 Skierniewice, Polska","Country":"POL","State":"Woj. Łódzkie","County":"Skierniewice","City":"Skierniewice","District":"Skierniewice","Street":"ulica Stanisława Domarasiewicza","HouseNumber":"8","PostalCode":"96-100","AdditionalData":[{"value":"Polska","key":"CountryName"},{"value":"Woj. Łódzkie","key":"StateName"},{"value":"Skierniewice","key":"CountyName"}]},"MapReference":{"ReferenceId":"972113364","Spot":0.64,"SideOfStreet":"right","CountryId":"20624059","StateId":"20625723","CountyId":"20626113","CityId":"20626114","DistrictId":"20683497","AddressId":"211025291","RoadLinkId":"308519305"}}},{"Relevance":1.0,"Distance":55.7,"MatchLevel":"street","MatchQuality":{"Country":1.0,"State":1.0,"County":1.0,"City":1.0,"District":1.0,"PostalCode":1.0},"Location":{"LocationId":"NT_UklU2NF92ALCTz7WAQxumB_l_743956290_R","LocationType":"point","DisplayPosition":{"Latitude":51.98395,"Longitude":20.21344},"MapView":{"TopLeft":{"Latitude":51.98408,"Longitude":20.21344},"BottomRight":{"Latitude":51.98395,"Longitude":20.21461}},"Address":{"Label":"96-100 Skierniewice, Polska","Country":"POL","State":"Woj. Łódzkie","County":"Skierniewice","City":"Skierniewice","District":"Skierniewice","PostalCode":"96-100","AdditionalData":[{"value":"Polska","key":"CountryName"},{"value":"Woj. Łódzkie","key":"StateName"},{"value":"Skierniewice","key":"CountyName"}]},"MapReference":{"ReferenceId":"743956290","Spot":0.0,"SideOfStreet":"right","CountryId":"20624059","StateId":"20625723","CountyId":"20626113","CityId":"20626114","DistrictId":"20683497"}}},{"Relevance":1.0,"Distance":62.5,"MatchLevel":"houseNumber","MatchQuality":{"Country":1.0,"State":1.0,"County":1.0,"City":1.0,"District":1.0,"Street":[1.0],"HouseNumber":1.0,"PostalCode":1.0},"MatchType":"interpolated","Location":{"LocationId":"NT_4M4K0NaNytybBDTdnYH2AD_2A","LocationType":"point","DisplayPosition":{"Latitude":51.98348,"Longitude":20.21359},"MapView":{"TopLeft":{"Latitude":51.9846042,"Longitude":20.2117647},"BottomRight":{"Latitude":51.9823558,"Longitude":20.2154153}},"Address":{"Label":"ulica Stanisława Domarasiewicza 6, 96-100 Skierniewice, Polska","Country":"POL","State":"Woj. Łódzkie","County":"Skierniewice","City":"Skierniewice","District":"Skierniewice","Street":"ulica Stanisława Domarasiewicza","HouseNumber":"6","PostalCode":"96-100","AdditionalData":[{"value":"Polska","key":"CountryName"},{"value":"Woj. Łódzkie","key":"StateName"},{"value":"Skierniewice","key":"CountyName"}]},"MapReference":{"ReferenceId":"1101567568","Spot":0.45,"SideOfStreet":"right","CountryId":"20624059","StateId":"20625723","CountyId":"20626113","CityId":"20626114","DistrictId":"20683497","AddressId":"211157380","RoadLinkId":"413802878"}}},{"Relevance":1.0,"Distance":85.4,"MatchLevel":"street","MatchQuality":{"Country":1.0,"State":1.0,"County":1.0,"City":1.0,"District":1.0,"Street":[1.0],"PostalCode":1.0},"Location":{"LocationId":"NT_4M4K0NaNytybBDTdnYH2AD_l_743956294_L","LocationType":"point","DisplayPosition":{"Latitude":51.98319,"Longitude":20.21369},"MapView":{"TopLeft":{"Latitude":51.98337,"Longitude":20.21369},"BottomRight":{"Latitude":51.98319,"Longitude":20.21448}},"Address":{"Label":"ulica Stanisława Domarasiewicza, 96-100 Skierniewice, Polska","Country":"POL","State":"Woj. Łódzkie","County":"Skierniewice","City":"Skierniewice","District":"Skierniewice","Street":"ulica Stanisława Domarasiewicza","PostalCode":"96-100","AdditionalData":[{"value":"Polska","key":"CountryName"},{"value":"Woj. Łódzkie","key":"StateName"},{"value":"Skierniewice","key":"CountyName"}]},"MapReference":{"ReferenceId":"743956294","Spot":0.0,"SideOfStreet":"left","CountryId":"20624059","StateId":"20625723","CountyId":"20626113","CityId":"20626114","DistrictId":"20683497"}}},{"Relevance":1.0,"Distance":110.4,"MatchLevel":"houseNumber","MatchQuality":{"Country":1.0,"State":1.0,"County":1.0,"City":1.0,"District":1.0,"Street":[1.0],"HouseNumber":1.0,"PostalCode":1.0},"MatchType":"interpolated","Location":{"LocationId":"NT_4M4K0NaNytybBDTdnYH2AD_yA","LocationType":"point","DisplayPosition":{"Latitude":51.98293,"Longitude":20.21378},"MapView":{"TopLeft":{"Latitude":51.9840542,"Longitude":20.2119548},"BottomRight":{"Latitude":51.9818058,"Longitude":20.2156052}},"Address":{"Label":"ulica Stanisława Domarasiewicza 2, 96-100 Skierniewice, Polska","Country":"POL","State":"Woj. Łódzkie","County":"Skierniewice","City":"Skierniewice","District":"Skierniewice","Street":"ulica Stanisława Domarasiewicza","HouseNumber":"2","PostalCode":"96-100","AdditionalData":[{"value":"Polska","key":"CountryName"},{"value":"Woj. Łódzkie","key":"StateName"},{"value":"Skierniewice","key":"CountyName"}]},"MapReference":{"ReferenceId":"1101746717","Spot":0.13,"SideOfStreet":"right","CountryId":"20624059","StateId":"20625723","CountyId":"20626113","CityId":"20626114","DistrictId":"20683497","AddressId":"209932630","RoadLinkId":"413985063"}}},{"Relevance":1.0,"Distance":114.3,"MatchLevel":"street","MatchQuality":{"Country":1.0,"State":1.0,"County":1.0,"City":1.0,"District":1.0,"Street":[1.0],"PostalCode":1.0},"Location":{"LocationId":"NT_4M4K0NaNytybBDTdnYH2AD_l_972113361_L","LocationType":"point","DisplayPosition":{"Latitude":51.98289,"Longitude":20.21379},"MapView":{"TopLeft":{"Latitude":51.98289,"Longitude":20.21379},"BottomRight":{"Latitude":51.98271,"Longitude":20.21385}},"Address":{"Label":"ulica Stanisława Domarasiewicza, 96-100 Skierniewice, Polska","Country":"POL","State":"Woj. Łódzkie","County":"Skierniewice","City":"Skierniewice","District":"Skierniewice","Street":"ulica Stanisława Domarasiewicza","PostalCode":"96-100","AdditionalData":[{"value":"Polska","key":"CountryName"},{"value":"Woj. Łódzkie","key":"StateName"},{"value":"Skierniewice","key":"CountyName"}]},"MapReference":{"ReferenceId":"972113361","Spot":1.0,"SideOfStreet":"left","CountryId":"20624059","StateId":"20625723","CountyId":"20626113","CityId":"20626114","DistrictId":"20683497"}}},{"Relevance":1.0,"Distance":115.7,"MatchLevel":"street","MatchQuality":{"Country":1.0,"State":1.0,"County":1.0,"City":1.0,"District":1.0,"PostalCode":1.0},"Location":{"LocationId":"NT_UklU2NF92ALCTz7WAQxumB_l_595686657_L","LocationType":"point","DisplayPosition":{"Latitude":51.9847,"Longitude":20.21316},"MapView":{"TopLeft":{"Latitude":51.98538,"Longitude":20.21293},"BottomRight":{"Latitude":51.9847,"Longitude":20.21316}},"Address":{"Label":"96-100 Skierniewice, Polska","Country":"POL","State":"Woj. Łódzkie","County":"Skierniewice","City":"Skierniewice","District":"Skierniewice","PostalCode":"96-100","AdditionalData":[{"value":"Polska","key":"CountryName"},{"value":"Woj. Łódzkie","key":"StateName"},{"value":"Skierniewice","key":"CountyName"}]},"MapReference":{"ReferenceId":"595686657","Spot":0.0,"SideOfStreet":"left","CountryId":"20624059","StateId":"20625723","CountyId":"20626113","CityId":"20626114","DistrictId":"20683497"}}},{"Relevance":1.0,"Distance":121.4,"MatchLevel":"houseNumber","MatchQuality":{"Country":1.0,"State":1.0,"County":1.0,"City":1.0,"District":1.0,"Street":[1.0],"HouseNumber":1.0,"PostalCode":1.0},"MatchType":"interpolated","Location":{"LocationId":"NT_4xgjD4DhDq1pu6V5Cr86bD_4gD","LocationType":"point","DisplayPosition":{"Latitude":51.98476,"Longitude":20.21152},"MapView":{"TopLeft":{"Latitude":51.9858842,"Longitude":20.2096947},"BottomRight":{"Latitude":51.9836358,"Longitude":20.2133453}},"Address":{"Label":"ulica Fabryczna 88, 96-100 Skierniewice, Polska","Country":"POL","State":"Woj. Łódzkie","County":"Skierniewice","City":"Skierniewice","District":"Skierniewice","Street":"ulica Fabryczna","HouseNumber":"88","PostalCode":"96-100","AdditionalData":[{"value":"Polska","key":"CountryName"},{"value":"Woj. Łódzkie","key":"StateName"},{"value":"Skierniewice","key":"CountyName"}]},"MapReference":{"ReferenceId":"972126924","Spot":0.96,"SideOfStreet":"right","CountryId":"20624059","StateId":"20625723","CountyId":"20626113","CityId":"20626114","DistrictId":"20683497","AddressId":"732075462","RoadLinkId":"308535247"}}}]}]}}