{"Response":{"MetaInfo":{"Timestamp":"2020-03-28T09:51:35.069+0000","NextPageInformation":"2"},"View":[{"_type":"SearchResultsViewType","ViewId":0,"Result":[{"Relevance":1.0,"Distance":0.0,"Direction":0.0,"MatchLevel":"district","MatchQuality":{"Country":1.0,"State":1.0,"County":1.0,"City":1.0,"District":1.0,"PostalCode":1.0},"Location":{"LocationId":"NT_wiY.-oQF3hGvoSM1nH0gCB","LocationType":"point","DisplayPosition":{"Latitude":51.9188945,"Longitude":-0.6650776},"MapView":{"TopLeft":{"Latitude":51.94043,"Longitude":-0.67894},"BottomRight":{"Latitude":51.90108,"Longitude":-0.62612}},"Address":{"Label":"Leighton Buzzard, England, United Kingdom","Country":"GBR","State":"England","County":"Bedfordshire","City":"Leighton Buzzard","District":"Leighton Buzzard","PostalCode":"LU7 1","AdditionalData":[{"value":"United Kingdom","key":"CountryName"},{"value":"England","key":"StateName"},{"value":"Bedfordshire","key":"CountyName"}]},"MapReference":{"ReferenceId":"25856600","SideOfStreet":"neither","StateId":"20248595","CountyId":"20334253","CityId":"20334369","DistrictId":"20334370"}}},{"Relevance":1.0,"Distance":6.9,"MatchLevel":"houseNumber","MatchQuality":{"Country":1.0,"State":1.0,"County":1.0,"City":1.0,"District":1.0,"Street":[1.0],"HouseNumber":1.0,"PostalCode":1.0},"MatchType":"interpolated","Location":{"LocationId":"NT_vyDG4RI-FXp7XF.NUFIQcA_l_1198696553_R_0A","LocationType":"point","DisplayPosition":{"Latitude":51.9187823,"Longitude":-0.6650446},"MapView":{"TopLeft":{"Latitude":51.9199065,"Longitude":-0.6668673},"BottomRight":{"Latitude":51.9176582,"Longitude":-0.663222}},"Address":{"Label":"4 Windsor Avenue, Leighton Buzzard, LU7 1AP, United Kingdom","Country":"GBR","State":"England","County":"Bedfordshire","City":"Leighton Buzzard","District":"Leighton Buzzard","Street":"Windsor Avenue","HouseNumber":"4","PostalCode":"LU7 1AP","AdditionalData":[{"value":"United Kingdom","key":"CountryName"},{"value":"England","key":"StateName"},{"value":"Bedfordshire","key":"CountyName"}]},"MapReference":{"ReferenceId":"1198696553","Spot":0.15,"SideOfStreet":"right","StateId":"20248595","CountyId":"20334253","CityId":"20334369","DistrictId":"20334370"}}},{"Relevance":1.0,"Distance":32.8,"MatchLevel":"houseNumber","MatchQuality":{"Country":1.0,"State":1.0,"County":1.0,"City":1.0,"District":1.0,"Street":[1.0],"HouseNumber":1.0,"PostalCode":1.0},"MatchType":"interpolated","Location":{"LocationId":"NT_DNB7ITO5MDhlN5mBmbHSPB_l_1202521765_L_yMD","LocationType":"point","DisplayPosition":{"Latitude":51.91849,"Longitude":-0.664925},"MapView":{"TopLeft":{"Latitude":51.9196142,"Longitude":-0.6667476},"BottomRight":{"Latitude":51.9173659,"Longitude":-0.6631024}},"Address":{"Label":"23 Bassett Road, Leighton Buzzard, LU7 1, United Kingdom","Country":"GBR","State":"England","County":"Bedfordshire","City":"Leighton Buzzard","District":"Leighton Buzzard","Street":"Bassett Road","HouseNumber":"23","PostalCode":"LU7 1","AdditionalData":[{"value":"United Kingdom","key":"CountryName"},{"value":"England","key":"StateName"},{"value":"Bedfordshire","key":"CountyName"}]},"MapReference":{"ReferenceId":"1202521765","Spot":0.47,"SideOfStreet":"left","StateId":"20248595","CountyId":"20334253","CityId":"20334369","DistrictId":"20334370"}}},{"Relevance":1.0,"Distance":34.0,"MatchLevel":"street","MatchQuality":{"Country":1.0,"State":1.0,"County":1.0,"City":1.0,"District":1.0,"Street":[1.0],"PostalCode":1.0},"Location":{"LocationId":"NT_DNB7ITO5MDhlN5mBmbHSPB_l_25856428_L","LocationType":"point","DisplayPosition":{"Latitude":51.91865,"Longitude":-0.66478},"MapView":{"TopLeft":{"Latitude":51.91897,"Longitude":-0.66478},"BottomRight":{"Latitude":51.91865,"Longitude":-0.66448}},"Address":{"Label":"Bassett Road, Leighton Buzzard, LU7 1, United Kingdom","Country":"GBR","State":"England","County":"Bedfordshire","City":"Leighton Buzzard","District":"Leighton Buzzard","Street":"Bassett Road","PostalCode":"LU7 1","AdditionalData":[{"value":"United Kingdom","key":"CountryName"},{"value":"England","key":"StateName"},{"value":"Bedfordshire","key":"CountyName"}]},"MapReference":{"ReferenceId":"25856428","Spot":0.0,"SideOfStreet":"left","StateId":"20248595","CountyId":"20334253","CityId":"20334369","DistrictId":"20334370"}}},{"Relevance":1.0,"Distance":41.8,"MatchLevel":"street","MatchQuality":{"Country":1.0,"State":1.0,"County":1.0,"City":1.0,"District":1.0,"Street":[1.0],"PostalCode":1.0},"Location":{"LocationId":"NT_JVQhaFoVIt2emEWVRZ8e.A_l_25856405_R","LocationType":"point","DisplayPosition":{"Latitude":51.91897,"Longitude":-0.66448},"MapView":{"TopLeft":{"Latitude":51.91897,"Longitude":-0.66448},"BottomRight":{"Latitude":51.91897,"Longitude":-0.6643}},"Address":{"Label":"Doggett Street, Leighton Buzzard, LU7 1, United Kingdom","Country":"GBR","State":"England","County":"Bedfordshire","City":"Leighton Buzzard","District":"Leighton Buzzard","Street":"Doggett Street","PostalCode":"LU7 1","AdditionalData":[{"value":"United Kingdom","key":"CountryName"},{"value":"England","key":"StateName"},{"value":"Bedfordshire","key":"CountyName"}]},"MapReference":{"ReferenceId":"25856405","Spot":0.0,"SideOfStreet":"right","StateId":"20248595","CountyId":"20334253","CityId":"20334369","DistrictId":"20334370"}}},{"Relevance":1.0,"Distance":42.9,"MatchLevel":"houseNumber","MatchQuality":{"Country":1.0,"State":1.0,"County":1.0,"City":1.0,"District":1.0,"Street":[1.0],"HouseNumber":1.0,"PostalCode":1.0},"MatchType":"interpolated","Location":{"LocationId":"NT_DNB7ITO5MDhlN5mBmbHSPB_l_25856404_L_yUD","LocationType":"point","DisplayPosition":{"Latitude":51.9191,"Longitude":-0.66443},"MapView":{"TopLeft":{"Latitude":51.9202242,"Longitude":-0.6662526},"BottomRight":{"Latitude":51.9179759,"Longitude":-0.6626074}},"Address":{"Label":"25 Bassett Road, Leighton Buzzard, LU7 1AR, United Kingdom","Country":"GBR","State":"England","County":"Bedfordshire","City":"Leighton Buzzard","District":"Leighton Buzzard","Street":"Bassett Road","HouseNumber":"25","PostalCode":"LU7 1AR","AdditionalData":[{"value":"United Kingdom","key":"CountryName"},{"value":"England","key":"StateName"},{"value":"Bedfordshire","key":"CountyName"}]},"MapReference":{"ReferenceId":"25856404","Spot":0.21,"SideOfStreet":"left","StateId":"20248595","CountyId":"20334253","CityId":"20334369","DistrictId":"20334370"}}},{"Relevance":1.0,"Distance":47.5,"MatchLevel":"postalCode","MatchQuality":{"PostalCode":1.0},"MatchType":"interpolated","Location":{"LocationId":"NT_DNB7ITO5MDhlN5mBmbHSPB_l_25856404_L_yUD","LocationType":"point","DisplayPosition":{"Latitude":51.91911,"Longitude":-0.66448},"MapView":{"TopLeft":{"Latitude":51.9281032,"Longitude":-0.6790611},"BottomRight":{"Latitude":51.9101168,"Longitude":-0.6498989}},"Address":{"Label":"LU7 1AR, Leighton Buzzard, England, United Kingdom","Country":"GBR","State":"England","County":"Bedfordshire","City":"Leighton Buzzard","PostalCode":"LU7 1AR","AdditionalData":[{"value":"United Kingdom","key":"CountryName"},{"value":"England","key":"StateName"},{"value":"Bedfordshire","key":"CountyName"}]},"MapReference":{"ReferenceId":"25856404","Spot":0.21,"SideOfStreet":"neither","StateId":"20248595","CountyId":"20334253","CityId":"20334369"}}},{"Relevance":1.0,"Distance":53.0,"MatchLevel":"street","MatchQuality":{"Country":1.0,"State":1.0,"County":1.0,"City":1.0,"District":1.0,"Street":[1.0],"PostalCode":1.0},"Location":{"LocationId":"NT_JVQhaFoVIt2emEWVRZ8e.A_l_979501180_L","LocationType":"point","DisplayPosition":{"Latitude":51.918827,"Longitude":-0.6643126},"MapView":{"TopLeft":{"Latitude":51.91897,"Longitude":-0.66433},"BottomRight":{"Latitude":51.91863,"Longitude":-0.6643}},"Address":{"Label":"Doggett Street, Leighton Buzzard, LU7 1, United Kingdom","Country":"GBR","State":"England","County":"Bedfordshire","City":"Leighton Buzzard","District":"Leighton Buzzard","Street":"Doggett Street","PostalCode":"LU7 1","AdditionalData":[{"value":"United Kingdom","key":"CountryName"},{"value":"England","key":"StateName"},{"value":"Bedfordshire","key":"CountyName"}]},"MapReference":{"ReferenceId":"979501180","Spot":0.58,"SideOfStreet":"left","StateId":"20248595","CountyId":"20334253","CityId":"20334369","DistrictId":"20334370"}}},{"Relevance":1.0,"Distance":59.1,"MatchLevel":"street","MatchQuality":{"Country":1.0,"State":1.0,"County":1.0,"City":1.0,"District":1.0,"Street":[1.0],"PostalCode":1.0},"Location":{"LocationId":"NT_JVQhaFoVIt2emEWVRZ8e.A_l_979501179_L","LocationType":"point","DisplayPosition":{"Latitude":51.91863,"Longitude":-0.66433},"MapView":{"TopLeft":{"Latitude":51.91863,"Longitude":-0.66439},"BottomRight":{"Latitude":51.91842,"Longitude":-0.66433}},"Address":{"Label":"Doggett Street, Leighton Buzzard, LU7 1, United Kingdom","Country":"GBR","State":"England","County":"Bedfordshire","City":"Leighton Buzzard","District":"Leighton Buzzard","Street":"Doggett Street","PostalCode":"LU7 1","AdditionalData":[{"value":"United Kingdom","key":"CountryName"},{"value":"England","key":"StateName"},{"value":"Bedfordshire","key":"CountyName"}]},"MapReference":{"ReferenceId":"979501179","Spot":1.0,"SideOfStreet":"left","StateId":"20248595","CountyId":"20334253","CityId":"20334369","DistrictId":"20334370"}}},{"Relevance":1.0,"Distance":59.1,"MatchLevel":"houseNumber","MatchQuality":{"Country":1.0,"State":1.0,"County":1.0,"City":1.0,"District":1.0,"Street":[1.0],"HouseNumber":1.0,"PostalCode":1.0},"MatchType":"interpolated","Location":{"LocationId":"NT_wL3moA7CIo3Fk44miS7B-D_l_979501181_R_xA","LocationType":"point","DisplayPosition":{"Latitude":51.91863,"Longitude":-0.6643299},"MapView":{"TopLeft":{"Latitude":51.9197542,"Longitude":-0.6661526},"BottomRight":{"Latitude":51.9175059,"Longitude":-0.6625073}},"Address":{"Label":"1 Bassett Court, Leighton Buzzard, LU7 1BB, United Kingdom","Country":"GBR","State":"England","County":"Bedfordshire","City":"Leighton Buzzard","District":"Leighton Buzzard","Street":"Bassett Court","HouseNumber":"1","PostalCode":"LU7 1BB","AdditionalData":[{"value":"United Kingdom","key":"CountryName"},{"value":"England","key":"StateName"},{"value":"Bedfordshire","key":"CountyName"}]},"MapReference":{"ReferenceId":"979501181","Spot":0.0,"SideOfStreet":"right","StateId":"20248595","CountyId":"20334253","CityId":"20334369","DistrictId":"20334370"}}}]}]}}