{"Response":{"MetaInfo":{"Timestamp":"2020-03-28T11:18:00.983+0000","NextPageInformation":"2"},"View":[{"_type":"SearchResultsViewType","ViewId":0,"Result":[{"Relevance":1.0,"Distance":0.0,"Direction":0.0,"MatchLevel":"city","MatchQuality":{"Country":1.0,"State":1.0,"County":1.0,"City":1.0,"PostalCode":1.0},"Location":{"LocationId":"NT_nOpHhsmCQucZ2zQ7YJOJgB","LocationType":"point","DisplayPosition":{"Latitude":51.9829309,"Longitude":-1.7084815},"MapView":{"TopLeft":{"Latitude":52.00322,"Longitude":-1.72519},"BottomRight":{"Latitude":51.97624,"Longitude":-1.68137}},"Address":{"Label":"Moreton in Marsh, England, United Kingdom","Country":"GBR","State":"England","County":"Gloucestershire","City":"Moreton in Marsh","PostalCode":"GL56 0","AdditionalData":[{"value":"United Kingdom","key":"CountryName"},{"value":"England","key":"StateName"},{"value":"Gloucestershire","key":"CountyName"}]},"MapReference":{"ReferenceId":"577358335","SideOfStreet":"neither","StateId":"20248595","CountyId":"20334235","CityId":"20334248"}}},{"Relevance":1.0,"Distance":93.0,"MatchLevel":"street","MatchQuality":{"Country":1.0,"State":1.0,"County":1.0,"City":1.0,"District":1.0,"PostalCode":1.0},"Location":{"LocationId":"NT_ZrhYthxgvbbbvSV39bBBEC_l_989724490_L","LocationType":"point","DisplayPosition":{"Latitude":51.98327,"Longitude":-1.70724},"MapView":{"TopLeft":{"Latitude":51.98327,"Longitude":-1.70724},"BottomRight":{"Latitude":51.98309,"Longitude":-1.70523}},"Address":{"Label":"Moreton in Marsh, GL56 0, United Kingdom","Country":"GBR","State":"England","County":"Gloucestershire","City":"Moreton in Marsh","District":"Moreton in Marsh","PostalCode":"GL56 0","AdditionalData":[{"value":"United Kingdom","key":"CountryName"},{"value":"England","key":"StateName"},{"value":"Gloucestershire","key":"CountyName"}]},"MapReference":{"ReferenceId":"989724490","Spot":1.0,"SideOfStreet":"left","StateId":"20248595","CountyId":"20334235","CityId":"20334248","DistrictId":"20348636"}}},{"Relevance":1.0,"Distance":176.2,"MatchLevel":"postalCode","MatchQuality":{"PostalCode":1.0},"Location":{"LocationId":"NT_d1aKCB.i0RH4fcIGbKLEvC_l_26763201_L","LocationType":"point","DisplayPosition":{"Latitude":51.9833,"Longitude":-1.70598},"MapView":{"TopLeft":{"Latitude":51.9922932,"Longitude":-1.720582},"BottomRight":{"Latitude":51.9743068,"Longitude":-1.691378}},"Address":{"Label":"GL56 0DS, Moreton in Marsh, England, United Kingdom","Country":"GBR","State":"England","County":"Gloucestershire","City":"Moreton in Marsh","PostalCode":"GL56 0DS","AdditionalData":[{"value":"United Kingdom","key":"CountryName"},{"value":"England","key":"StateName"},{"value":"Gloucestershire","key":"CountyName"}]},"MapReference":{"ReferenceId":"26763201","Spot":0.0,"SideOfStreet":"neither","StateId":"20248595","CountyId":"20334235","CityId":"20334248"}}},{"Relevance":1.0,"Distance":219.1,"MatchLevel":"street","MatchQuality":{"Country":1.0,"State":1.0,"County":1.0,"City":1.0,"District":1.0,"Street":[1.0],"PostalCode":1.0},"Location":{"LocationId":"NT_onvPhZdE8OAF4YWm0h8HMB_l_989724488_L","LocationType":"point","DisplayPosition":{"Latitude":51.982073,"Longitude":-1.7056012},"MapView":{"TopLeft":{"Latitude":51.98318,"Longitude":-1.70596},"BottomRight":{"Latitude":51.98078,"Longitude":-1.70523}},"Address":{"Label":"Fosseway, Moreton in Marsh, GL56 0, United Kingdom","Country":"GBR","State":"England","County":"Gloucestershire","City":"Moreton in Marsh","District":"Moreton in Marsh","Street":"Fosseway","PostalCode":"GL56 0","AdditionalData":[{"value":"United Kingdom","key":"CountryName"},{"value":"England","key":"StateName"},{"value":"Gloucestershire","key":"CountyName"}]},"MapReference":{"ReferenceId":"989724488","Spot":0.53,"SideOfStreet":"left","StateId":"20248595","CountyId":"20334235","CityId":"20334248","DistrictId":"20348636"}}},{"Relevance":1.0,"Distance":224.4,"MatchLevel":"street","MatchQuality":{"Country":1.0,"State":1.0,"County":1.0,"City":1.0,"District":1.0,"Street":[1.0],"PostalCode":1.0},"Location":{"LocationId":"NT_onvPhZdE8OAF4YWm0h8HMB_l_989724489_L","LocationType":"point","DisplayPosition":{"Latitude":51.98318,"Longitude":-1.70523},"MapView":{"TopLeft":{"Latitude":51.98424,"Longitude":-1.70523},"BottomRight":{"Latitude":51.98318,"Longitude":-1.70487}},"Address":{"Label":"Fosseway, Moreton in Marsh, GL56 0, United Kingdom","Country":"GBR","State":"England","County":"Gloucestershire","City":"Moreton in Marsh","District":"Moreton in Marsh","Street":"Fosseway","PostalCode":"GL56 0","AdditionalData":[{"value":"United Kingdom","key":"CountryName"},{"value":"England","key":"StateName"},{"value":"Gloucestershire","key":"CountyName"}]},"MapReference":{"ReferenceId":"989724489","Spot":0.0,"SideOfStreet":"left","StateId":"20248595","CountyId":"20334235","CityId":"20334248","DistrictId":"20348636"}}},{"Relevance":1.0,"Distance":284.0,"MatchLevel":"street","MatchQuality":{"Country":1.0,"State":1.0,"County":1.0,"City":1.0,"District":1.0,"Street":[1.0],"PostalCode":1.0},"Location":{"LocationId":"NT_zwOHotXEtLlpedHNTIYXAC_l_26763189_R","LocationType":"point","DisplayPosition":{"Latitude":51.98544,"Longitude":-1.70771},"MapView":{"TopLeft":{"Latitude":51.98573,"Longitude":-1.70771},"BottomRight":{"Latitude":51.98544,"Longitude":-1.70676}},"Address":{"Label":"Redesdale Place, Moreton in Marsh, GL56 0, United Kingdom","Country":"GBR","State":"England","County":"Gloucestershire","City":"Moreton in Marsh","District":"Moreton in Marsh","Street":"Redesdale Place","PostalCode":"GL56 0","AdditionalData":[{"value":"United Kingdom","key":"CountryName"},{"value":"England","key":"StateName"},{"value":"Gloucestershire","key":"CountyName"}]},"MapReference":{"ReferenceId":"26763189","Spot":0.0,"SideOfStreet":"right","StateId":"20248595","CountyId":"20334235","CityId":"20334248","DistrictId":"20348636"}}},{"Relevance":1.0,"Distance":287.0,"MatchLevel":"street","MatchQuality":{"Country":1.0,"State":1.0,"County":1.0,"City":1.0,"District":1.0,"Street":[1.0],"PostalCode":1.0},"Location":{"LocationId":"NT_-bKcHswtMDplbc2bgDwi9C_l_26763213_L","LocationType":"point","DisplayPosition":{"Latitude":51.98424,"Longitude":-1.70487},"MapView":{"TopLeft":{"Latitude":51.98482,"Longitude":-1.70487},"BottomRight":{"Latitude":51.98424,"Longitude":-1.70472}},"Address":{"Label":"Fosseway, Moreton in Marsh, GL56 0, United Kingdom","Country":"GBR","State":"England","County":"Gloucestershire","City":"Moreton in Marsh","District":"Moreton in Marsh","Street":"Fosseway","PostalCode":"GL56 0","AdditionalData":[{"value":"United Kingdom","key":"CountryName"},{"value":"England","key":"StateName"},{"value":"Gloucestershire","key":"CountyName"}]},"MapReference":{"ReferenceId":"26763213","Spot":0.0,"SideOfStreet":"left","StateId":"20248595","CountyId":"20334235","CityId":"20334248","DistrictId":"20348636"}}},{"Relevance":1.0,"Distance":290.5,"MatchLevel":"street","MatchQuality":{"Country":1.0,"State":1.0,"County":1.0,"City":1.0,"District":1.0,"Street":[1.0],"PostalCode":1.0},"Location":{"LocationId":"NT_zwOHotXEtLlpedHNTIYXAC_l_26763198_L","LocationType":"point","DisplayPosition":{"Latitude":51.98497,"Longitude":-1.70583},"MapView":{"TopLeft":{"Latitude":51.9857,"Longitude":-1.70583},"BottomRight":{"Latitude":51.98497,"Longitude":-1.70568}},"Address":{"Label":"Redesdale Place, Moreton in Marsh, GL56 0, United Kingdom","Country":"GBR","State":"England","County":"Gloucestershire","City":"Moreton in Marsh","District":"Moreton in Marsh","Street":"Redesdale Place","PostalCode":"GL56 0","AdditionalData":[{"value":"United Kingdom","key":"CountryName"},{"value":"England","key":"StateName"},{"value":"Gloucestershire","key":"CountyName"}]},"MapReference":{"ReferenceId":"26763198","Spot":0.0,"SideOfStreet":"left","StateId":"20248595","CountyId":"20334235","CityId":"20334248","DistrictId":"20348636"}}},{"Relevance":1.0,"Distance":295.0,"MatchLevel":"street","MatchQuality":{"Country":1.0,"State":1.0,"County":1.0,"City":1.0,"District":1.0,"Street":[1.0],"PostalCode":1.0},"Location":{"LocationId":"NT_oyjhj8aXjF8rNbAhWws33D_l_733233150_L","LocationType":"point","DisplayPosition":{"Latitude":51.98078,"Longitude":-1.70596},"MapView":{"TopLeft":{"Latitude":51.98078,"Longitude":-1.70969},"BottomRight":{"Latitude":51.96825,"Longitude":-1.70596}},"Address":{"Label":"Fosseway, Moreton in Marsh, GL56 9, United Kingdom","Country":"GBR","State":"England","County":"Gloucestershire","City":"Moreton in Marsh","District":"Moreton in Marsh","Street":"Fosseway","PostalCode":"GL56 9","AdditionalData":[{"value":"United Kingdom","key":"CountryName"},{"value":"England","key":"StateName"},{"value":"Gloucestershire","key":"CountyName"}]},"MapReference":{"ReferenceId":"733233150","Spot":1.0,"SideOfStreet":"left","StateId":"20248595","CountyId":"20334235","CityId":"20334248","DistrictId":"20348636"}}},{"Relevance":1.0,"Distance":332.4,"MatchLevel":"street","MatchQuality":{"Country":1.0,"State":1.0,"County":1.0,"City":1.0,"District":1.0,"Street":[1.0],"PostalCode":1.0},"Location":{"LocationId":"NT_d1aKCB.i0RH4fcIGbKLEvC_l_26763201_L","LocationType":"point","DisplayPosition":{"Latitude":51.98482,"Longitude":-1.70472},"MapView":{"TopLeft":{"Latitude":51.98559,"Longitude":-1.70472},"BottomRight":{"Latitude":51.98482,"Longitude":-1.70451}},"Address":{"Label":"Stow Road, Moreton in Marsh, GL56 0, United Kingdom","Country":"GBR","State":"England","County":"Gloucestershire","City":"Moreton in Marsh","District":"Moreton in Marsh","Street":"Stow Road","PostalCode":"GL56 0","AdditionalData":[{"value":"United Kingdom","key":"CountryName"},{"value":"England","key":"StateName"},{"value":"Gloucestershire","key":"CountyName"}]},"MapReference":{"ReferenceId":"26763201","Spot":0.0,"SideOfStreet":"left","StateId":"20248595","CountyId":"20334235","CityId":"20334248","DistrictId":"20348636"}}}]}]}}