{"Response":{"MetaInfo":{"Timestamp":"2020-03-28T11:40:25.527+0000","NextPageInformation":"2"},"View":[{"_type":"SearchResultsViewType","ViewId":0,"Result":[{"Relevance":1.0,"Distance":0.0,"Direction":0.0,"MatchLevel":"district","MatchQuality":{"Country":1.0,"State":1.0,"County":1.0,"City":1.0,"District":1.0,"PostalCode":1.0},"Location":{"LocationId":"NT_jdLyEZznskRz5d-ifi1Q2C","LocationType":"point","DisplayPosition":{"Latitude":51.9236172,"Longitude":8.8443001},"MapView":{"TopLeft":{"Latitude":51.9337,"Longitude":8.82506},"BottomRight":{"Latitude":51.91575,"Longitude":8.85743}},"Address":{"Label":"Hiddesen, Detmold, Nordrhein-Westfalen, Deutschland","Country":"DEU","State":"Nordrhein-Westfalen","County":"Lippe","City":"Detmold","District":"Hiddesen","PostalCode":"32760","AdditionalData":[{"value":"Deutschland","key":"CountryName"},{"value":"Nordrhein-Westfalen","key":"StateName"},{"value":"Lippe","key":"CountyName"}]},"MapReference":{"ReferenceId":"1207034674","SideOfStreet":"neither","CountryId":"20147700","StateId":"20157369","CountyId":"20159808","CityId":"20159839","DistrictId":"20159843"}}},{"Relevance":1.0,"Distance":7.5,"MatchLevel":"street","MatchQuality":{"Country":1.0,"State":1.0,"County":1.0,"City":1.0,"District":1.0,"Street":[1.0],"PostalCode":1.0},"Location":{"LocationId":"NT_Si2EZYjMAguxF0vACoisiB_l_1207034673_L","LocationType":"point","DisplayPosition":{"Latitude":51.9235546,"Longitude":8.8443419},"MapView":{"TopLeft":{"Latitude":51.92375,"Longitude":8.84432},"BottomRight":{"Latitude":51.92354,"Longitude":8.84463}},"Address":{"Label":"Theodor-Heuss-Straße, 32760 Detmold, Deutschland","Country":"DEU","State":"Nordrhein-Westfalen","County":"Lippe","City":"Detmold","District":"Hiddesen","Street":"Theodor-Heuss-Straße","PostalCode":"32760","AdditionalData":[{"value":"Deutschland","key":"CountryName"},{"value":"Nordrhein-Westfalen","key":"StateName"},{"value":"Lippe","key":"CountyName"}]},"MapReference":{"ReferenceId":"1207034673","Spot":0.07,"SideOfStreet":"left","CountryId":"20147700","StateId":"20157369","CountyId":"20159808","CityId":"20159839","DistrictId":"20159843"}}},{"Relevance":1.0,"Distance":9.1,"MatchLevel":"houseNumber","MatchQuality":{"Country":1.0,"State":1.0,"County":1.0,"City":1.0,"District":1.0,"Street":[1.0],"HouseNumber":1.0,"PostalCode":1.0},"MatchType":"interpolated","Location":{"LocationId":"NT_rplEyf0z2gvaTdzY8M6vpB_4cD","LocationType":"point","DisplayPosition":{"Latitude":51.92362,"Longitude":8.84415},"MapView":{"TopLeft":{"Latitude":51.9247442,"Longitude":8.8423272},"BottomRight":{"Latitude":51.9224958,"Longitude":8.8459728}},"Address":{"Label":"Friedrich-Ebert-Straße 87, 32760 Detmold, Deutschland","Country":"DEU","State":"Nordrhein-Westfalen","County":"Lippe","City":"Detmold","District":"Hiddesen","Street":"Friedrich-Ebert-Straße","HouseNumber":"87","PostalCode":"32760","AdditionalData":[{"value":"Deutschland","key":"CountryName"},{"value":"Nordrhein-Westfalen","key":"StateName"},{"value":"Lippe","key":"CountyName"}]},"MapReference":{"ReferenceId":"1207032147","Spot":0.21,"SideOfStreet":"right","CountryId":"20147700","StateId":"20157369","CountyId":"20159808","CityId":"20159839","DistrictId":"20159843","AddressId":"193580509","RoadLinkId":"521123842"}}},{"Relevance":1.0,"Distance":24.8,"MatchLevel":"houseNumber","MatchQuality":{"Country":1.0,"State":1.0,"County":1.0,"City":1.0,"District":1.0,"Street":[1.0],"HouseNumber":1.0,"PostalCode":1.0},"MatchType":"interpolated","Location":{"LocationId":"NT_rplEyf0z2gvaTdzY8M6vpB_4UD","LocationType":"point","DisplayPosition":{"Latitude":51.92344,"Longitude":8.84452},"MapView":{"TopLeft":{"Latitude":51.9245642,"Longitude":8.8426972},"BottomRight":{"Latitude":51.9223158,"Longitude":8.8463428}},"Address":{"Label":"Friedrich-Ebert-Straße 85, 32760 Detmold, Deutschland","Country":"DEU","State":"Nordrhein-Westfalen","County":"Lippe","City":"Detmold","District":"Hiddesen","Street":"Friedrich-Ebert-Straße","HouseNumber":"85","PostalCode":"32760","AdditionalData":[{"value":"Deutschland","key":"CountryName"},{"value":"Nordrhein-Westfalen","key":"StateName"},{"value":"Lippe","key":"CountyName"}]},"MapReference":{"ReferenceId":"61016705","Spot":0.7,"SideOfStreet":"right","CountryId":"20147700","StateId":"20157369","CountyId":"20159808","CityId":"20159839","DistrictId":"20159843","AddressId":"193515718","RoadLinkId":"35149354"}}},{"Relevance":1.0,"Distance":54.9,"MatchLevel":"houseNumber","MatchQuality":{"Country":1.0,"State":1.0,"County":1.0,"City":1.0,"District":1.0,"Street":[1.0],"HouseNumber":1.0,"PostalCode":1.0},"MatchType":"interpolated","Location":{"LocationId":"NT_Si2EZYjMAguxF0vACoisiB_xA","LocationType":"point","DisplayPosition":{"Latitude":51.92388,"Longitude":8.84486},"MapView":{"TopLeft":{"Latitude":51.9250042,"Longitude":8.8430372},"BottomRight":{"Latitude":51.9227558,"Longitude":8.8466828}},"Address":{"Label":"Theodor-Heuss-Straße 1, 32760 Detmold, Deutschland","Country":"DEU","State":"Nordrhein-Westfalen","County":"Lippe","City":"Detmold","District":"Hiddesen","Street":"Theodor-Heuss-Straße","HouseNumber":"1","PostalCode":"32760","AdditionalData":[{"value":"Deutschland","key":"CountryName"},{"value":"Nordrhein-Westfalen","key":"StateName"},{"value":"Lippe","key":"CountyName"}]},"MapReference":{"ReferenceId":"1207034674","Spot":0.49,"SideOfStreet":"left","CountryId":"20147700","StateId":"20157369","CountyId":"20159808","CityId":"20159839","DistrictId":"20159843","AddressId":"622063758","RoadLinkId":"521127077"}}},{"Relevance":1.0,"Distance":63.8,"MatchLevel":"houseNumber","MatchQuality":{"Country":1.0,"State":1.0,"County":1.0,"City":1.0,"District":1.0,"Street":[1.0],"HouseNumber":1.0,"PostalCode":1.0},"MatchType":"interpolated","Location":{"LocationId":"NT_rplEyf0z2gvaTdzY8M6vpB_4gD","LocationType":"point","DisplayPosition":{"Latitude":51.92391,"Longitude":8.8435},"MapView":{"TopLeft":{"Latitude":51.9250342,"Longitude":8.8416772},"BottomRight":{"Latitude":51.9227858,"Longitude":8.8453228}},"Address":{"Label":"Friedrich-Ebert-Straße 88, 32760 Detmold, Deutschland","Country":"DEU","State":"Nordrhein-Westfalen","County":"Lippe","City":"Detmold","District":"Hiddesen","Street":"Friedrich-Ebert-Straße","HouseNumber":"88","PostalCode":"32760","AdditionalData":[{"value":"Deutschland","key":"CountryName"},{"value":"Nordrhein-Westfalen","key":"StateName"},{"value":"Lippe","key":"CountyName"}]},"MapReference":{"ReferenceId":"1207032148","Spot":0.0,"SideOfStreet":"left","CountryId":"20147700","StateId":"20157369","CountyId":"20159808","CityId":"20159839","DistrictId":"20159843","AddressId":"195682396","RoadLinkId":"521123843"}}},{"Relevance":1.0,"Distance":71.5,"MatchLevel":"houseNumber","MatchQuality":{"Country":1.0,"State":1.0,"County":1.0,"City":1.0,"District":1.0,"Street":[1.0],"HouseNumber":1.0,"PostalCode":1.0},"MatchType":"interpolated","Location":{"LocationId":"NT_IQdpld35YHiuodDyaG1eaC_yA","LocationType":"point","DisplayPosition":{"Latitude":51.92317,"Longitude":8.84355},"MapView":{"TopLeft":{"Latitude":51.9242942,"Longitude":8.8417272},"BottomRight":{"Latitude":51.9220458,"Longitude":8.8453728}},"Address":{"Label":"Hindenburgstraße 2, 32760 Detmold, Deutschland","Country":"DEU","State":"Nordrhein-Westfalen","County":"Lippe","City":"Detmold","District":"Hiddesen","Street":"Hindenburgstraße","HouseNumber":"2","PostalCode":"32760","AdditionalData":[{"value":"Deutschland","key":"CountryName"},{"value":"Nordrhein-Westfalen","key":"StateName"},{"value":"Lippe","key":"CountyName"}]},"MapReference":{"ReferenceId":"61016710","Spot":0.13,"SideOfStreet":"left","CountryId":"20147700","StateId":"20157369","CountyId":"20159808","CityId":"20159839","DistrictId":"20159843","AddressId":"193421833","RoadLinkId":"35381768"}}},{"Relevance":1.0,"Distance":78.2,"MatchLevel":"houseNumber","MatchQuality":{"Country":1.0,"State":1.0,"County":1.0,"City":1.0,"District":1.0,"Street":[1.0],"HouseNumber":1.0,"PostalCode":1.0},"MatchType":"interpolated","Location":{"LocationId":"NT_rplEyf0z2gvaTdzY8M6vpB_4ED","LocationType":"point","DisplayPosition":{"Latitude":51.92317,"Longitude":8.84518},"MapView":{"TopLeft":{"Latitude":51.9242942,"Longitude":8.8433572},"BottomRight":{"Latitude":51.9220458,"Longitude":8.8470028}},"Address":{"Label":"Friedrich-Ebert-Straße 81, 32760 Detmold, Deutschland","Country":"DEU","State":"Nordrhein-Westfalen","County":"Lippe","City":"Detmold","District":"Hiddesen","Street":"Friedrich-Ebert-Straße","HouseNumber":"81","PostalCode":"32760","AdditionalData":[{"value":"Deutschland","key":"CountryName"},{"value":"Nordrhein-Westfalen","key":"StateName"},{"value":"Lippe","key":"CountyName"}]},"MapReference":{"ReferenceId":"61017638","Spot":0.94,"SideOfStreet":"right","CountryId":"20147700","StateId":"20157369","CountyId":"20159808","CityId":"20159839","DistrictId":"20159843","AddressId":"193191258","RoadLinkId":"35289957"}}},{"Relevance":1.0,"Distance":82.3,"MatchLevel":"houseNumber","MatchQuality":{"Country":1.0,"State":1.0,"County":1.0,"City":1.0,"District":1.0,"Street":[1.0],"HouseNumber":1.0,"PostalCode":1.0},"MatchType":"interpolated","Location":{"LocationId":"NT_Si2EZYjMAguxF0vACoisiB_0A","LocationType":"point","DisplayPosition":{"Latitude":51.92407,"Longitude":8.84525},"MapView":{"TopLeft":{"Latitude":51.9251942,"Longitude":8.8434272},"BottomRight":{"Latitude":51.9229458,"Longitude":8.8470728}},"Address":{"Label":"Theodor-Heuss-Straße 4, 32760 Detmold, Deutschland","Country":"DEU","State":"Nordrhein-Westfalen","County":"Lippe","City":"Detmold","District":"Hiddesen","Street":"Theodor-Heuss-Straße","HouseNumber":"4","PostalCode":"32760","AdditionalData":[{"value":"Deutschland","key":"CountryName"},{"value":"Nordrhein-Westfalen","key":"StateName"},{"value":"Lippe","key":"CountyName"}]},"MapReference":{"ReferenceId":"761580328","Spot":0.26,"SideOfStreet":"right","CountryId":"20147700","StateId":"20157369","CountyId":"20159808","CityId":"20159839","DistrictId":"20159843","AddressId":"194795064","RoadLinkId":"155850234"}}},{"Relevance":1.0,"Distance":89.9,"MatchLevel":"houseNumber","MatchQuality":{"Country":1.0,"State":1.0,"County":1.0,"City":1.0,"District":1.0,"Street":[1.0],"HouseNumber":1.0,"PostalCode":1.0},"MatchType":"interpolated","Location":{"LocationId":"NT_dNd93WoX6oILzydTFrV7cB_yA","LocationType":"point","DisplayPosition":{"Latitude":51.92284,"Longitude":8.84484},"MapView":{"TopLeft":{"Latitude":51.9239642,"Longitude":8.8430172},"BottomRight":{"Latitude":51.9217158,"Longitude":8.8466628}},"Address":{"Label":"Römerweg 2, 32760 Detmold, Deutschland","Country":"DEU","State":"Nordrhein-Westfalen","County":"Lippe","City":"Detmold","District":"Hiddesen","Street":"Römerweg","HouseNumber":"2","PostalCode":"32760","AdditionalData":[{"value":"Deutschland","key":"CountryName"},{"value":"Nordrhein-Westfalen","key":"StateName"},{"value":"Lippe","key":"CountyName"}]},"MapReference":{"ReferenceId":"61016757","Spot":0.73,"SideOfStreet":"left","CountryId":"20147700","StateId":"20157369","CountyId":"20159808","CityId":"20159839","DistrictId":"20159843","AddressId":"196429539","RoadLinkId":"35051656"}}}]}]}}