{"Response":{"MetaInfo":{"Timestamp":"2020-03-28T10:10:06.266+0000","NextPageInformation":"2"},"View":[{"_type":"SearchResultsViewType","ViewId":0,"Result":[{"Relevance":1.0,"Distance":0.0,"Direction":0.0,"MatchLevel":"district","MatchQuality":{"Country":1.0,"State":1.0,"County":1.0,"City":1.0,"District":1.0,"PostalCode":1.0},"Location":{"LocationId":"NT_wiY.-oQF3hGvoSM1nH0gCB","LocationType":"point","DisplayPosition":{"Latitude":51.9156426,"Longitude":-0.65976},"MapView":{"TopLeft":{"Latitude":51.94043,"Longitude":-0.67894},"BottomRight":{"Latitude":51.90108,"Longitude":-0.62612}},"Address":{"Label":"Leighton Buzzard, England, United Kingdom","Country":"GBR","State":"England","County":"Bedfordshire","City":"Leighton Buzzard","District":"Leighton Buzzard","PostalCode":"LU7 1","AdditionalData":[{"value":"United Kingdom","key":"CountryName"},{"value":"England","key":"StateName"},{"value":"Bedfordshire","key":"CountyName"}]},"MapReference":{"ReferenceId":"25856600","SideOfStreet":"neither","StateId":"20248595","CountyId":"20334253","CityId":"20334369","DistrictId":"20334370"}}},{"Relevance":1.0,"Distance":0.9,"MatchLevel":"street","MatchQuality":{"Country":1.0,"State":1.0,"County":1.0,"City":1.0,"District":1.0,"Street":[1.0],"PostalCode":1.0},"Location":{"LocationId":"NT_-TRHzjTgvEF0czcRxiEP3B_l_566019470_L","LocationType":"point","DisplayPosition":{"Latitude":51.9156503,"Longitude":-0.6597646},"MapView":{"TopLeft":{"Latitude":51.91576,"Longitude":-0.65995},"BottomRight":{"Latitude":51.91554,"Longitude":-0.65958}},"Address":{"Label":"Ryland Mews, Leighton Buzzard, LU7 1, United Kingdom","Country":"GBR","State":"England","County":"Bedfordshire","City":"Leighton Buzzard","District":"Leighton Buzzard","Street":"Ryland Mews","PostalCode":"LU7 1","AdditionalData":[{"value":"United Kingdom","key":"CountryName"},{"value":"England","key":"StateName"},{"value":"Bedfordshire","key":"CountyName"}]},"MapReference":{"ReferenceId":"566019470","Spot":0.5,"SideOfStreet":"neither","StateId":"20248595","CountyId":"20334253","CityId":"20334369","DistrictId":"20334370"}}},{"Relevance":1.0,"Distance":10.6,"MatchLevel":"houseNumber","MatchQuality":{"Country":1.0,"State":1.0,"County":1.0,"City":1.0,"District":1.0,"Street":[1.0],"HouseNumber":1.0,"PostalCode":1.0},"MatchType":"interpolated","Location":{"LocationId":"NT_xRniqV33gR4K2j0Vj1tM-C_l_1233703941_L_xQD","LocationType":"point","DisplayPosition":{"Latitude":51.91585,"Longitude":-0.65973},"MapView":{"TopLeft":{"Latitude":51.9169742,"Longitude":-0.6615525},"BottomRight":{"Latitude":51.9147259,"Longitude":-0.6579075}},"Address":{"Label":"14 Lake Street, Leighton Buzzard, LU7 1, United Kingdom","Country":"GBR","State":"England","County":"Bedfordshire","City":"Leighton Buzzard","District":"Leighton Buzzard","Street":"Lake Street","HouseNumber":"14","PostalCode":"LU7 1","AdditionalData":[{"value":"United Kingdom","key":"CountryName"},{"value":"England","key":"StateName"},{"value":"Bedfordshire","key":"CountyName"}]},"MapReference":{"ReferenceId":"1233703941","Spot":0.24,"SideOfStreet":"left","StateId":"20248595","CountyId":"20334253","CityId":"20334369","DistrictId":"20334370"}}},{"Relevance":1.0,"Distance":24.2,"MatchLevel":"houseNumber","MatchQuality":{"Country":1.0,"State":1.0,"County":1.0,"City":1.0,"District":1.0,"Street":[1.0],"HouseNumber":1.0,"PostalCode":1.0},"MatchType":"interpolated","Location":{"LocationId":"NT_xRniqV33gR4K2j0Vj1tM-C_l_1233703940_L_xYD","LocationType":"point","DisplayPosition":{"Latitude":51.9156467,"Longitude":-0.6593967},"MapView":{"TopLeft":{"Latitude":51.9167708,"Longitude":-0.6612192},"BottomRight":{"Latitude":51.9145225,"Longitude":-0.6575742}},"Address":{"Label":"16 Lake Street, Leighton Buzzard, LU7 1RT, United Kingdom","Country":"GBR","State":"England","County":"Bedfordshire","City":"Leighton Buzzard","District":"Leighton Buzzard","Street":"Lake Street","HouseNumber":"16","PostalCode":"LU7 1RT","AdditionalData":[{"value":"United Kingdom","key":"CountryName"},{"value":"England","key":"StateName"},{"value":"Bedfordshire","key":"CountyName"}]},"MapReference":{"ReferenceId":"1233703940","Spot":0.51,"SideOfStreet":"left","StateId":"20248595","CountyId":"20334253","CityId":"20334369","DistrictId":"20334370"}}},{"Relevance":1.0,"Distance":33.8,"MatchLevel":"postalCode","MatchQuality":{"PostalCode":1.0},"MatchType":"interpolated","Location":{"LocationId":"NT_xRniqV33gR4K2j0Vj1tM-C_l_1233703941_L_xQD","LocationType":"point","DisplayPosition":{"Latitude":51.91592,"Longitude":-0.65996},"MapView":{"TopLeft":{"Latitude":51.9249132,"Longitude":-0.67454},"BottomRight":{"Latitude":51.9069268,"Longitude":-0.64538}},"Address":{"Label":"LU7 1RT, Leighton Buzzard, England, United Kingdom","Country":"GBR","State":"England","County":"Bedfordshire","City":"Leighton Buzzard","PostalCode":"LU7 1RT","AdditionalData":[{"value":"United Kingdom","key":"CountryName"},{"value":"England","key":"StateName"},{"value":"Bedfordshire","key":"CountyName"}]},"MapReference":{"ReferenceId":"1233703941","Spot":0.24,"SideOfStreet":"neither","StateId":"20248595","CountyId":"20334253","CityId":"20334369"}}},{"Relevance":1.0,"Distance":34.4,"MatchLevel":"postalCode","MatchQuality":{"PostalCode":1.0},"MatchType":"interpolated","Location":{"LocationId":"NT_xRniqV33gR4K2j0Vj1tM-C_l_743432839_L_yA","LocationType":"point","DisplayPosition":{"Latitude":51.91562,"Longitude":-0.65926},"MapView":{"TopLeft":{"Latitude":51.9246132,"Longitude":-0.6738399},"BottomRight":{"Latitude":51.9066268,"Longitude":-0.6446801}},"Address":{"Label":"LU7 1RW, Leighton Buzzard, England, United Kingdom","Country":"GBR","State":"England","County":"Bedfordshire","City":"Leighton Buzzard","PostalCode":"LU7 1RW","AdditionalData":[{"value":"United Kingdom","key":"CountryName"},{"value":"England","key":"StateName"},{"value":"Bedfordshire","key":"CountyName"}]},"MapReference":{"ReferenceId":"743432839","Spot":0.0,"SideOfStreet":"neither","StateId":"20248595","CountyId":"20334253","CityId":"20334369"}}},{"Relevance":1.0,"Distance":40.4,"MatchLevel":"street","MatchQuality":{"Country":1.0,"State":1.0,"County":1.0,"City":1.0,"District":1.0,"Street":[1.0],"PostalCode":1.0},"Location":{"LocationId":"NT_xRniqV33gR4K2j0Vj1tM-C_l_25856720_L","LocationType":"point","DisplayPosition":{"Latitude":51.91553,"Longitude":-0.6592},"MapView":{"TopLeft":{"Latitude":51.91553,"Longitude":-0.6592},"BottomRight":{"Latitude":51.91547,"Longitude":-0.65891}},"Address":{"Label":"Lake Street, Leighton Buzzard, LU7 1, United Kingdom","Country":"GBR","State":"England","County":"Bedfordshire","City":"Leighton Buzzard","District":"Leighton Buzzard","Street":"Lake Street","PostalCode":"LU7 1","AdditionalData":[{"value":"United Kingdom","key":"CountryName"},{"value":"England","key":"StateName"},{"value":"Bedfordshire","key":"CountyName"}]},"MapReference":{"ReferenceId":"25856720","Spot":1.0,"SideOfStreet":"left","StateId":"20248595","CountyId":"20334253","CityId":"20334369","DistrictId":"20334370"}}},{"Relevance":1.0,"Distance":51.3,"MatchLevel":"houseNumber","MatchQuality":{"Country":1.0,"State":1.0,"County":1.0,"City":1.0,"District":1.0,"Street":[1.0],"HouseNumber":1.0,"PostalCode":1.0},"MatchType":"interpolated","Location":{"LocationId":"NT_.0zkoHns68zaPqG.4SPelB_l_30487139_R_zA","LocationType":"point","DisplayPosition":{"Latitude":51.915193,"Longitude":-0.6599256},"MapView":{"TopLeft":{"Latitude":51.9163171,"Longitude":-0.6617481},"BottomRight":{"Latitude":51.9140688,"Longitude":-0.6581031}},"Address":{"Label":"3 Duncombe Drive, Leighton Buzzard, LU7 1SB, United Kingdom","Country":"GBR","State":"England","County":"Bedfordshire","City":"Leighton Buzzard","District":"Leighton Buzzard","Street":"Duncombe Drive","HouseNumber":"3","PostalCode":"LU7 1SB","AdditionalData":[{"value":"United Kingdom","key":"CountryName"},{"value":"England","key":"StateName"},{"value":"Bedfordshire","key":"CountyName"}]},"MapReference":{"ReferenceId":"30487139","Spot":0.49,"SideOfStreet":"right","StateId":"20248595","CountyId":"20334253","CityId":"20334369","DistrictId":"20334370"}}},{"Relevance":1.0,"Distance":58.6,"MatchLevel":"houseNumber","MatchQuality":{"Country":1.0,"State":1.0,"County":1.0,"City":1.0,"District":1.0,"Street":[1.0],"HouseNumber":1.0,"PostalCode":1.0},"MatchType":"interpolated","Location":{"LocationId":"NT_xRniqV33gR4K2j0Vj1tM-C_l_1202525381_L_2A","LocationType":"point","DisplayPosition":{"Latitude":51.9161388,"Longitude":-0.6603186},"MapView":{"TopLeft":{"Latitude":51.9172629,"Longitude":-0.6621412},"BottomRight":{"Latitude":51.9150146,"Longitude":-0.6584961}},"Address":{"Label":"6 Lake Street, Leighton Buzzard, LU7 1RT, United Kingdom","Country":"GBR","State":"England","County":"Bedfordshire","City":"Leighton Buzzard","District":"Leighton Buzzard","Street":"Lake Street","HouseNumber":"6","PostalCode":"LU7 1RT","AdditionalData":[{"value":"United Kingdom","key":"CountryName"},{"value":"England","key":"StateName"},{"value":"Bedfordshire","key":"CountyName"}]},"MapReference":{"ReferenceId":"1202525381","Spot":0.55,"SideOfStreet":"left","StateId":"20248595","CountyId":"20334253","CityId":"20334369","DistrictId":"20334370"}}},{"Relevance":1.0,"Distance":61.1,"MatchLevel":"street","MatchQuality":{"Country":1.0,"State":1.0,"County":1.0,"City":1.0,"District":1.0,"Street":[1.0],"PostalCode":1.0},"Location":{"LocationId":"NT_ienHhbSrPKR7HtJtYh2bKD_l_77761051_L","LocationType":"point","DisplayPosition":{"Latitude":51.9154828,"Longitude":-0.6589076},"MapView":{"TopLeft":{"Latitude":51.91722,"Longitude":-0.65891},"BottomRight":{"Latitude":51.91547,"Longitude":-0.65816}},"Address":{"Label":"Lake Street, Leighton Buzzard, LU7 1, United Kingdom","Country":"GBR","State":"England","County":"Bedfordshire","City":"Leighton Buzzard","District":"Leighton Buzzard","Street":"Lake Street","PostalCode":"LU7 1","AdditionalData":[{"value":"United Kingdom","key":"CountryName"},{"value":"England","key":"StateName"},{"value":"Bedfordshire","key":"CountyName"}]},"MapReference":{"ReferenceId":"77761051","Spot":0.01,"SideOfStreet":"left","StateId":"20248595","CountyId":"20334253","CityId":"20334369","DistrictId":"20334370"}}}]}]}}