{"Response":{"MetaInfo":{"Timestamp":"2020-03-28T11:44:49.419+0000","NextPageInformation":"2"},"View":[{"_type":"SearchResultsViewType","ViewId":0,"Result":[{"Relevance":1.0,"Distance":0.0,"Direction":0.0,"MatchLevel":"district","MatchQuality":{"Country":1.0,"State":1.0,"County":1.0,"City":1.0,"District":1.0,"PostalCode":1.0},"Location":{"LocationId":"NT_PtNrevt6NfwJx9NhNsiyuD","LocationType":"point","DisplayPosition":{"Latitude":51.9451302,"Longitude":8.839575},"MapView":{"TopLeft":{"Latitude":51.95533,"Longitude":8.81912},"BottomRight":{"Latitude":51.93718,"Longitude":8.84237}},"Address":{"Label":"Heidenoldendorf, Detmold, Nordrhein-Westfalen, Deutschland","Country":"DEU","State":"Nordrhein-Westfalen","County":"Lippe","City":"Detmold","District":"Heidenoldendorf","PostalCode":"32758","AdditionalData":[{"value":"Deutschland","key":"CountryName"},{"value":"Nordrhein-Westfalen","key":"StateName"},{"value":"Lippe","key":"CountyName"}]},"MapReference":{"ReferenceId":"1216299172","SideOfStreet":"neither","CountryId":"20147700","StateId":"20157369","CountyId":"20159808","CityId":"20159839","DistrictId":"20220317"}}},{"Relevance":1.0,"Distance":13.9,"MatchLevel":"houseNumber","MatchQuality":{"Country":1.0,"State":1.0,"County":1.0,"City":1.0,"District":1.0,"Street":[1.0],"HouseNumber":1.0,"PostalCode":1.0},"MatchType":"interpolated","Location":{"LocationId":"NT_AzytUnMKEBzqvTvncvUZ6B_yYDN","LocationType":"point","DisplayPosition":{"Latitude":51.94507,"Longitude":8.83994},"MapView":{"TopLeft":{"Latitude":51.9461942,"Longitude":8.8381163},"BottomRight":{"Latitude":51.9439458,"Longitude":8.8417637}},"Address":{"Label":"Bielefelder Straße 264, 32758 Detmold, Deutschland","Country":"DEU","State":"Nordrhein-Westfalen","County":"Lippe","City":"Detmold","District":"Heidenoldendorf","Street":"Bielefelder Straße","HouseNumber":"264","PostalCode":"32758","AdditionalData":[{"value":"Deutschland","key":"CountryName"},{"value":"Nordrhein-Westfalen","key":"StateName"},{"value":"Lippe","key":"CountyName"}]},"MapReference":{"ReferenceId":"842226929","Spot":0.67,"SideOfStreet":"left","CountryId":"20147700","StateId":"20157369","CountyId":"20159808","CityId":"20159839","DistrictId":"20220317","AddressId":"195393934","RoadLinkId":"224160874"}}},{"Relevance":1.0,"Distance":28.7,"MatchLevel":"street","MatchQuality":{"Country":1.0,"State":1.0,"County":1.0,"City":1.0,"District":1.0,"Street":[1.0],"PostalCode":1.0},"Location":{"LocationId":"NT_a5b-a-nWCqlQJ-LcrDrS7D_l_842226930_L","LocationType":"point","DisplayPosition":{"Latitude":51.945368,"Longitude":8.8397396},"MapView":{"TopLeft":{"Latitude":51.94543,"Longitude":8.83965},"BottomRight":{"Latitude":51.94534,"Longitude":8.83978}},"Address":{"Label":"Bielefelder Straße, 32758 Detmold, Deutschland","Country":"DEU","State":"Nordrhein-Westfalen","County":"Lippe","City":"Detmold","District":"Heidenoldendorf","Street":"Bielefelder Straße","PostalCode":"32758","AdditionalData":[{"value":"Deutschland","key":"CountryName"},{"value":"Nordrhein-Westfalen","key":"StateName"},{"value":"Lippe","key":"CountyName"}]},"MapReference":{"ReferenceId":"842226930","Spot":0.31,"SideOfStreet":"left","CountryId":"20147700","StateId":"20157369","CountyId":"20159808","CityId":"20159839","DistrictId":"20220317"}}},{"Relevance":1.0,"Distance":32.5,"MatchLevel":"houseNumber","MatchQuality":{"Country":1.0,"State":1.0,"County":1.0,"City":1.0,"District":1.0,"Street":[1.0],"HouseNumber":1.0,"PostalCode":1.0},"MatchType":"interpolated","Location":{"LocationId":"NT_AzytUnMKEBzqvTvncvUZ6B_ycDM","LocationType":"point","DisplayPosition":{"Latitude":51.94552,"Longitude":8.83929},"MapView":{"TopLeft":{"Latitude":51.9466442,"Longitude":8.8374663},"BottomRight":{"Latitude":51.9443958,"Longitude":8.8411137}},"Address":{"Label":"Bielefelder Straße 270, 32758 Detmold, Deutschland","Country":"DEU","State":"Nordrhein-Westfalen","County":"Lippe","City":"Detmold","District":"Heidenoldendorf","Street":"Bielefelder Straße","HouseNumber":"270","PostalCode":"32758","AdditionalData":[{"value":"Deutschland","key":"CountryName"},{"value":"Nordrhein-Westfalen","key":"StateName"},{"value":"Lippe","key":"CountyName"}]},"MapReference":{"ReferenceId":"1198476107","Spot":0.08,"SideOfStreet":"left","CountryId":"20147700","StateId":"20157369","CountyId":"20159808","CityId":"20159839","DistrictId":"20220317","AddressId":"193863694","RoadLinkId":"509800462"}}},{"Relevance":1.0,"Distance":45.2,"MatchLevel":"houseNumber","MatchQuality":{"Country":1.0,"State":1.0,"County":1.0,"City":1.0,"District":1.0,"Street":[1.0],"HouseNumber":1.0,"PostalCode":1.0},"MatchType":"interpolated","Location":{"LocationId":"NT_AzytUnMKEBzqvTvncvUZ6B_yYTN","LocationType":"point","DisplayPosition":{"Latitude":51.94551,"Longitude":8.83934},"MapView":{"TopLeft":{"Latitude":51.9466342,"Longitude":8.8375163},"BottomRight":{"Latitude":51.9443858,"Longitude":8.8411637}},"Address":{"Label":"Bielefelder Straße 265, 32758 Detmold, Deutschland","Country":"DEU","State":"Nordrhein-Westfalen","County":"Lippe","City":"Detmold","District":"Heidenoldendorf","Street":"Bielefelder Straße","HouseNumber":"265","PostalCode":"32758","AdditionalData":[{"value":"Deutschland","key":"CountryName"},{"value":"Nordrhein-Westfalen","key":"StateName"},{"value":"Lippe","key":"CountyName"}]},"MapReference":{"ReferenceId":"1198476106","Spot":0.99,"SideOfStreet":"right","CountryId":"20147700","StateId":"20157369","CountyId":"20159808","CityId":"20159839","DistrictId":"20220317","AddressId":"196416517","RoadLinkId":"509800461"}}},{"Relevance":1.0,"Distance":70.6,"MatchLevel":"houseNumber","MatchQuality":{"Country":1.0,"State":1.0,"County":1.0,"City":1.0,"District":1.0,"Street":[1.0],"HouseNumber":1.0,"PostalCode":1.0},"MatchType":"interpolated","Location":{"LocationId":"NT_I9.imgeEHEwrGR2iHp-SCB_zYD","LocationType":"point","DisplayPosition":{"Latitude":51.94523,"Longitude":8.83843},"MapView":{"TopLeft":{"Latitude":51.9463542,"Longitude":8.8366063},"BottomRight":{"Latitude":51.9441058,"Longitude":8.8402537}},"Address":{"Label":"Landertweg 36, 32758 Detmold, Deutschland","Country":"DEU","State":"Nordrhein-Westfalen","County":"Lippe","City":"Detmold","District":"Heidenoldendorf","Street":"Landertweg","HouseNumber":"36","PostalCode":"32758","AdditionalData":[{"value":"Deutschland","key":"CountryName"},{"value":"Nordrhein-Westfalen","key":"StateName"},{"value":"Lippe","key":"CountyName"}]},"MapReference":{"ReferenceId":"61018125","Spot":0.38,"SideOfStreet":"right","CountryId":"20147700","StateId":"20157369","CountyId":"20159808","CityId":"20159839","DistrictId":"20220317","AddressId":"192938346","RoadLinkId":"35637898"}}},{"Relevance":1.0,"Distance":88.6,"MatchLevel":"houseNumber","MatchQuality":{"Country":1.0,"State":1.0,"County":1.0,"City":1.0,"District":1.0,"Street":[1.0],"HouseNumber":1.0,"PostalCode":1.0},"MatchType":"interpolated","Location":{"LocationId":"NT_vm9bEjb7wou5wfI-NIBTYB_yA","LocationType":"point","DisplayPosition":{"Latitude":51.94442,"Longitude":8.83899},"MapView":{"TopLeft":{"Latitude":51.9455442,"Longitude":8.8371663},"BottomRight":{"Latitude":51.9432958,"Longitude":8.8408137}},"Address":{"Label":"Am Heidenbach 2, 32758 Detmold, Deutschland","Country":"DEU","State":"Nordrhein-Westfalen","County":"Lippe","City":"Detmold","District":"Heidenoldendorf","Street":"Am Heidenbach","HouseNumber":"2","PostalCode":"32758","AdditionalData":[{"value":"Deutschland","key":"CountryName"},{"value":"Nordrhein-Westfalen","key":"StateName"},{"value":"Lippe","key":"CountyName"}]},"MapReference":{"ReferenceId":"61018120","Spot":0.11,"SideOfStreet":"left","CountryId":"20147700","StateId":"20157369","CountyId":"20159808","CityId":"20159839","DistrictId":"20220317","AddressId":"672636445","RoadLinkId":"34958102"}}},{"Relevance":1.0,"Distance":91.6,"MatchLevel":"houseNumber","MatchQuality":{"Country":1.0,"State":1.0,"County":1.0,"City":1.0,"District":1.0,"Street":[1.0],"HouseNumber":1.0,"PostalCode":1.0},"MatchType":"interpolated","Location":{"LocationId":"NT_AzytUnMKEBzqvTvncvUZ6B_ycDN","LocationType":"point","DisplayPosition":{"Latitude":51.94568,"Longitude":8.83858},"MapView":{"TopLeft":{"Latitude":51.9468042,"Longitude":8.8367563},"BottomRight":{"Latitude":51.9445558,"Longitude":8.8404037}},"Address":{"Label":"Bielefelder Straße 274, 32758 Detmold, Deutschland","Country":"DEU","State":"Nordrhein-Westfalen","County":"Lippe","City":"Detmold","District":"Heidenoldendorf","Street":"Bielefelder Straße","HouseNumber":"274","PostalCode":"32758","AdditionalData":[{"value":"Deutschland","key":"CountryName"},{"value":"Nordrhein-Westfalen","key":"StateName"},{"value":"Lippe","key":"CountyName"}]},"MapReference":{"ReferenceId":"1198475227","Spot":0.09,"SideOfStreet":"left","CountryId":"20147700","StateId":"20157369","CountyId":"20159808","CityId":"20159839","DistrictId":"20220317","AddressId":"193064211","RoadLinkId":"509799408"}}},{"Relevance":1.0,"Distance":95.0,"MatchLevel":"houseNumber","MatchQuality":{"Country":1.0,"State":1.0,"County":1.0,"City":1.0,"District":1.0,"Street":[1.0],"HouseNumber":1.0,"PostalCode":1.0},"MatchType":"interpolated","Location":{"LocationId":"NT_AzytUnMKEBzqvTvncvUZ6B_yUDN","LocationType":"point","DisplayPosition":{"Latitude":51.94438,"Longitude":8.84016},"MapView":{"TopLeft":{"Latitude":51.9455042,"Longitude":8.8383363},"BottomRight":{"Latitude":51.9432558,"Longitude":8.8419837}},"Address":{"Label":"Bielefelder Straße 254, 32758 Detmold, Deutschland","Country":"DEU","State":"Nordrhein-Westfalen","County":"Lippe","City":"Detmold","District":"Heidenoldendorf","Street":"Bielefelder Straße","HouseNumber":"254","PostalCode":"32758","AdditionalData":[{"value":"Deutschland","key":"CountryName"},{"value":"Nordrhein-Westfalen","key":"StateName"},{"value":"Lippe","key":"CountyName"}]},"MapReference":{"ReferenceId":"792276768","Spot":0.69,"SideOfStreet":"left","CountryId":"20147700","StateId":"20157369","CountyId":"20159808","CityId":"20159839","DistrictId":"20220317","AddressId":"193480027","RoadLinkId":"184427508"}}},{"Relevance":1.0,"Distance":96.7,"MatchLevel":"houseNumber","MatchQuality":{"Country":1.0,"State":1.0,"County":1.0,"City":1.0,"District":1.0,"Street":[1.0],"HouseNumber":1.0,"PostalCode":1.0},"MatchType":"interpolated","Location":{"LocationId":"NT_cz1hCsCdxsjcelAiU4qjSA_xA","LocationType":"point","DisplayPosition":{"Latitude":51.946,"Longitude":8.83966},"MapView":{"TopLeft":{"Latitude":51.9471242,"Longitude":8.8378363},"BottomRight":{"Latitude":51.9448758,"Longitude":8.8414837}},"Address":{"Label":"Niedernfeldweg 1, 32758 Detmold, Deutschland","Country":"DEU","State":"Nordrhein-Westfalen","County":"Lippe","City":"Detmold","District":"Heidenoldendorf","Street":"Niedernfeldweg","HouseNumber":"1","PostalCode":"32758","AdditionalData":[{"value":"Deutschland","key":"CountryName"},{"value":"Nordrhein-Westfalen","key":"StateName"},{"value":"Lippe","key":"CountyName"}]},"MapReference":{"ReferenceId":"61015653","Spot":0.63,"SideOfStreet":"left","CountryId":"20147700","StateId":"20157369","CountyId":"20159808","CityId":"20159839","DistrictId":"20220317","AddressId":"195443980","RoadLinkId":"35763762"}}}]}]}}