{"Response":{"MetaInfo":{"Timestamp":"2020-03-28T11:39:51.515+0000","NextPageInformation":"2"},"View":[{"_type":"SearchResultsViewType","ViewId":0,"Result":[{"Relevance":1.0,"Distance":0.0,"Direction":0.0,"MatchLevel":"district","MatchQuality":{"Country":1.0,"State":1.0,"County":1.0,"City":1.0,"District":1.0,"PostalCode":1.0},"Location":{"LocationId":"NT_lTkczYjg3TFio8tNQCKhiA","LocationType":"point","DisplayPosition":{"Latitude":51.9725432,"Longitude":11.6558173},"MapView":{"TopLeft":{"Latitude":51.98389,"Longitude":11.64443},"BottomRight":{"Latitude":51.96735,"Longitude":11.66362}},"Address":{"Label":"Biere, Bördeland, Sachsen-Anhalt, Deutschland","Country":"DEU","State":"Sachsen-Anhalt","County":"Salzlandkreis","City":"Bördeland","District":"Biere","PostalCode":"39221","AdditionalData":[{"value":"Deutschland","key":"CountryName"},{"value":"Sachsen-Anhalt","key":"StateName"},{"value":"Salzlandkreis","key":"CountyName"}]},"MapReference":{"ReferenceId":"810613478","SideOfStreet":"neither","CountryId":"20147700","StateId":"20194537","CountyId":"20195819","CityId":"20196661","DistrictId":"20196663"}}},{"Relevance":1.0,"Distance":3.8,"MatchLevel":"houseNumber","MatchQuality":{"Country":1.0,"State":1.0,"County":1.0,"City":1.0,"District":1.0,"Street":[1.0],"HouseNumber":1.0,"PostalCode":1.0},"MatchType":"interpolated","Location":{"LocationId":"NT_WivmN7LPPF2gAaDRHame2A_ygD","LocationType":"point","DisplayPosition":{"Latitude":51.97251,"Longitude":11.65583},"MapView":{"TopLeft":{"Latitude":51.9736342,"Longitude":11.6540052},"BottomRight":{"Latitude":51.9713858,"Longitude":11.6576548}},"Address":{"Label":"Große Straße 28, 39221 Bördeland, Deutschland","Country":"DEU","State":"Sachsen-Anhalt","County":"Salzlandkreis","City":"Bördeland","District":"Biere","Street":"Große Straße","HouseNumber":"28","PostalCode":"39221","AdditionalData":[{"value":"Deutschland","key":"CountryName"},{"value":"Sachsen-Anhalt","key":"StateName"},{"value":"Salzlandkreis","key":"CountyName"}]},"MapReference":{"ReferenceId":"541355475","Spot":0.69,"SideOfStreet":"right","CountryId":"20147700","StateId":"20194537","CountyId":"20195819","CityId":"20196661","DistrictId":"20196663","AddressId":"186199729","RoadLinkId":"38033299"}}},{"Relevance":1.0,"Distance":59.3,"MatchLevel":"houseNumber","MatchQuality":{"Country":1.0,"State":1.0,"County":1.0,"City":1.0,"District":1.0,"Street":[1.0],"HouseNumber":1.0,"PostalCode":1.0},"MatchType":"interpolated","Location":{"LocationId":"NT_WivmN7LPPF2gAaDRHame2A_xED","LocationType":"point","DisplayPosition":{"Latitude":51.97295,"Longitude":11.65652},"MapView":{"TopLeft":{"Latitude":51.9740742,"Longitude":11.6546952},"BottomRight":{"Latitude":51.9718258,"Longitude":11.6583448}},"Address":{"Label":"Große Straße 11, 39221 Bördeland, Deutschland","Country":"DEU","State":"Sachsen-Anhalt","County":"Salzlandkreis","City":"Bördeland","District":"Biere","Street":"Große Straße","HouseNumber":"11","PostalCode":"39221","AdditionalData":[{"value":"Deutschland","key":"CountryName"},{"value":"Sachsen-Anhalt","key":"StateName"},{"value":"Salzlandkreis","key":"CountyName"}]},"MapReference":{"ReferenceId":"541355209","Spot":0.39,"SideOfStreet":"left","CountryId":"20147700","StateId":"20194537","CountyId":"20195819","CityId":"20196661","DistrictId":"20196663","AddressId":"185036828","RoadLinkId":"465811686"}}},{"Relevance":1.0,"Distance":73.9,"MatchLevel":"houseNumber","MatchQuality":{"Country":1.0,"State":1.0,"County":1.0,"City":1.0,"District":1.0,"Street":[1.0],"HouseNumber":1.0,"PostalCode":1.0},"MatchType":"interpolated","Location":{"LocationId":"NT_BTcEfRhgl6Uc2L2oapMRHD_yAD","LocationType":"point","DisplayPosition":{"Latitude":51.97339,"Longitude":11.65616},"MapView":{"TopLeft":{"Latitude":51.9745142,"Longitude":11.6543352},"BottomRight":{"Latitude":51.9722658,"Longitude":11.6579848}},"Address":{"Label":"Kleine Straße 20, 39221 Bördeland, Deutschland","Country":"DEU","State":"Sachsen-Anhalt","County":"Salzlandkreis","City":"Bördeland","District":"Biere","Street":"Kleine Straße","HouseNumber":"20","PostalCode":"39221","AdditionalData":[{"value":"Deutschland","key":"CountryName"},{"value":"Sachsen-Anhalt","key":"StateName"},{"value":"Salzlandkreis","key":"CountyName"}]},"MapReference":{"ReferenceId":"541355186","Spot":0.96,"SideOfStreet":"right","CountryId":"20147700","StateId":"20194537","CountyId":"20195819","CityId":"20196661","DistrictId":"20196663","AddressId":"186216929","RoadLinkId":"37568045"}}},{"Relevance":1.0,"Distance":81.6,"MatchLevel":"houseNumber","MatchQuality":{"Country":1.0,"State":1.0,"County":1.0,"City":1.0,"District":1.0,"Street":[1.0],"HouseNumber":1.0,"PostalCode":1.0},"MatchType":"interpolated","Location":{"LocationId":"NT_WivmN7LPPF2gAaDRHame2A_xQD","LocationType":"point","DisplayPosition":{"Latitude":51.97275,"Longitude":11.65696},"MapView":{"TopLeft":{"Latitude":51.9738742,"Longitude":11.6551352},"BottomRight":{"Latitude":51.9716258,"Longitude":11.6587848}},"Address":{"Label":"Große Straße 14, 39221 Bördeland, Deutschland","Country":"DEU","State":"Sachsen-Anhalt","County":"Salzlandkreis","City":"Bördeland","District":"Biere","Street":"Große Straße","HouseNumber":"14","PostalCode":"39221","AdditionalData":[{"value":"Deutschland","key":"CountryName"},{"value":"Sachsen-Anhalt","key":"StateName"},{"value":"Salzlandkreis","key":"CountyName"}]},"MapReference":{"ReferenceId":"565014055","Spot":0.18,"SideOfStreet":"left","CountryId":"20147700","StateId":"20194537","CountyId":"20195819","CityId":"20196661","DistrictId":"20196663","AddressId":"185715192","RoadLinkId":"37686177"}}},{"Relevance":1.0,"Distance":93.4,"MatchLevel":"houseNumber","MatchQuality":{"Country":1.0,"State":1.0,"County":1.0,"City":1.0,"District":1.0,"Street":[1.0],"HouseNumber":1.0,"PostalCode":1.0},"MatchType":"interpolated","Location":{"LocationId":"NT_BTcEfRhgl6Uc2L2oapMRHD_xkD","LocationType":"point","DisplayPosition":{"Latitude":51.9734,"Longitude":11.65641},"MapView":{"TopLeft":{"Latitude":51.9745242,"Longitude":11.6545852},"BottomRight":{"Latitude":51.9722758,"Longitude":11.6582348}},"Address":{"Label":"Kleine Straße 19, 39221 Bördeland, Deutschland","Country":"DEU","State":"Sachsen-Anhalt","County":"Salzlandkreis","City":"Bördeland","District":"Biere","Street":"Kleine Straße","HouseNumber":"19","PostalCode":"39221","AdditionalData":[{"value":"Deutschland","key":"CountryName"},{"value":"Sachsen-Anhalt","key":"StateName"},{"value":"Salzlandkreis","key":"CountyName"}]},"MapReference":{"ReferenceId":"541355208","Spot":0.93,"SideOfStreet":"left","CountryId":"20147700","StateId":"20194537","CountyId":"20195819","CityId":"20196661","DistrictId":"20196663","AddressId":"185143498","RoadLinkId":"37476444"}}},{"Relevance":1.0,"Distance":101.3,"MatchLevel":"houseNumber","MatchQuality":{"Country":1.0,"State":1.0,"County":1.0,"City":1.0,"District":1.0,"Street":[1.0],"HouseNumber":1.0,"PostalCode":1.0},"MatchType":"interpolated","Location":{"LocationId":"NT_dx.MVm9RVeZPgrr6vck8vD_3EE","LocationType":"point","DisplayPosition":{"Latitude":51.97122,"Longitude":11.65647},"MapView":{"TopLeft":{"Latitude":51.9723442,"Longitude":11.6546452},"BottomRight":{"Latitude":51.9700958,"Longitude":11.6582948}},"Address":{"Label":"Henfsackstraße 7A, 39221 Bördeland, Deutschland","Country":"DEU","State":"Sachsen-Anhalt","County":"Salzlandkreis","City":"Bördeland","District":"Biere","Street":"Henfsackstraße","HouseNumber":"7A","PostalCode":"39221","AdditionalData":[{"value":"Deutschland","key":"CountryName"},{"value":"Sachsen-Anhalt","key":"StateName"},{"value":"Salzlandkreis","key":"CountyName"}]},"MapReference":{"ReferenceId":"565014090","Spot":0.12,"SideOfStreet":"right","CountryId":"20147700","StateId":"20194537","CountyId":"20195819","CityId":"20196661","DistrictId":"20196663","AddressId":"185179205","RoadLinkId":"37869150"}}},{"Relevance":1.0,"Distance":136.7,"MatchLevel":"houseNumber","MatchQuality":{"Country":1.0,"State":1.0,"County":1.0,"City":1.0,"District":1.0,"Street":[1.0],"HouseNumber":1.0,"PostalCode":1.0},"MatchType":"interpolated","Location":{"LocationId":"NT_dx.MVm9RVeZPgrr6vck8vD_4A","LocationType":"point","DisplayPosition":{"Latitude":51.97146,"Longitude":11.65694},"MapView":{"TopLeft":{"Latitude":51.9725842,"Longitude":11.6551152},"BottomRight":{"Latitude":51.9703358,"Longitude":11.6587648}},"Address":{"Label":"Henfsackstraße 8, 39221 Bördeland, Deutschland","Country":"DEU","State":"Sachsen-Anhalt","County":"Salzlandkreis","City":"Bördeland","District":"Biere","Street":"Henfsackstraße","HouseNumber":"8","PostalCode":"39221","AdditionalData":[{"value":"Deutschland","key":"CountryName"},{"value":"Sachsen-Anhalt","key":"StateName"},{"value":"Salzlandkreis","key":"CountyName"}]},"MapReference":{"ReferenceId":"565014054","Spot":0.21,"SideOfStreet":"left","CountryId":"20147700","StateId":"20194537","CountyId":"20195819","CityId":"20196661","DistrictId":"20196663","AddressId":"364908040","RoadLinkId":"37382515"}}},{"Relevance":1.0,"Distance":141.0,"MatchLevel":"street","MatchQuality":{"Country":1.0,"State":1.0,"County":1.0,"City":1.0,"District":1.0,"Street":[1.0],"PostalCode":1.0},"Location":{"LocationId":"NT_cwWoGo.kCd8IyL5H4x-vOA_l_541355194_R","LocationType":"point","DisplayPosition":{"Latitude":51.97257,"Longitude":11.65376},"MapView":{"TopLeft":{"Latitude":51.97257,"Longitude":11.65347},"BottomRight":{"Latitude":51.97188,"Longitude":11.65376}},"Address":{"Label":"Krausentor, 39221 Bördeland, Deutschland","Country":"DEU","State":"Sachsen-Anhalt","County":"Salzlandkreis","City":"Bördeland","District":"Biere","Street":"Krausentor","PostalCode":"39221","AdditionalData":[{"value":"Deutschland","key":"CountryName"},{"value":"Sachsen-Anhalt","key":"StateName"},{"value":"Salzlandkreis","key":"CountyName"}]},"MapReference":{"ReferenceId":"541355194","Spot":1.0,"SideOfStreet":"right","CountryId":"20147700","StateId":"20194537","CountyId":"20195819","CityId":"20196661","DistrictId":"20196663"}}},{"Relevance":1.0,"Distance":149.3,"MatchLevel":"houseNumber","MatchQuality":{"Country":1.0,"State":1.0,"County":1.0,"City":1.0,"District":1.0,"Street":[1.0],"HouseNumber":1.0,"PostalCode":1.0},"MatchType":"interpolated","Location":{"LocationId":"NT_HG9OTHwr7YkQoNRr8GOmwD_xIE","LocationType":"point","DisplayPosition":{"Latitude":51.97403,"Longitude":11.65611},"MapView":{"TopLeft":{"Latitude":51.9751542,"Longitude":11.6542851},"BottomRight":{"Latitude":51.9729058,"Longitude":11.6579349}},"Address":{"Label":"Hoher Weg 1B, 39221 Bördeland, Deutschland","Country":"DEU","State":"Sachsen-Anhalt","County":"Salzlandkreis","City":"Bördeland","District":"Biere","Street":"Hoher Weg","HouseNumber":"1B","PostalCode":"39221","AdditionalData":[{"value":"Deutschland","key":"CountryName"},{"value":"Sachsen-Anhalt","key":"StateName"},{"value":"Salzlandkreis","key":"CountyName"}]},"MapReference":{"ReferenceId":"565014091","Spot":0.0,"SideOfStreet":"left","CountryId":"20147700","StateId":"20194537","CountyId":"20195819","CityId":"20196661","DistrictId":"20196663","AddressId":"249061034","RoadLinkId":"37523134"}}}]}]}}