{"Response":{"MetaInfo":{"Timestamp":"2020-03-28T10:56:07.066+0000","NextPageInformation":"2"},"View":[{"_type":"SearchResultsViewType","ViewId":0,"Result":[{"Relevance":1.0,"Distance":0.0,"Direction":0.0,"MatchLevel":"district","MatchQuality":{"Country":1.0,"State":1.0,"County":1.0,"City":1.0,"District":1.0,"PostalCode":1.0},"Location":{"LocationId":"NT_IQ8gI8TMvStQ2OF.rh2W3B","LocationType":"point","DisplayPosition":{"Latitude":51.9726367,"Longitude":7.6240452},"MapView":{"TopLeft":{"Latitude":51.98856,"Longitude":7.59782},"BottomRight":{"Latitude":51.93793,"Longitude":7.66445}},"Address":{"Label":"Mitte, Münster, Nordrhein-Westfalen, Deutschland","Country":"DEU","State":"Nordrhein-Westfalen","County":"Münster","City":"Münster","District":"Mitte","PostalCode":"48143","AdditionalData":[{"value":"Deutschland","key":"CountryName"},{"value":"Nordrhein-Westfalen","key":"StateName"},{"value":"Münster","key":"CountyName"}]},"MapReference":{"ReferenceId":"51592078","SideOfStreet":"neither","CountryId":"20147700","StateId":"20157369","CountyId":"20159093","CityId":"20159094","DistrictId":"25606237"}}},{"Relevance":1.0,"Distance":10.0,"MatchLevel":"houseNumber","MatchQuality":{"Country":1.0,"State":1.0,"County":1.0,"City":1.0,"District":1.0,"Street":[1.0],"HouseNumber":1.0,"PostalCode":1.0},"MatchType":"interpolated","Location":{"LocationId":"NT_xbucWt.uIBh6QlxBtVi5pA_2A","LocationType":"point","DisplayPosition":{"Latitude":51.97267,"Longitude":7.62388},"MapView":{"TopLeft":{"Latitude":51.9737942,"Longitude":7.6220552},"BottomRight":{"Latitude":51.9715458,"Longitude":7.6257048}},"Address":{"Label":"Wichernstraße 6, 48147 Münster, Deutschland","Country":"DEU","State":"Nordrhein-Westfalen","County":"Münster","City":"Münster","District":"Mitte","Street":"Wichernstraße","HouseNumber":"6","PostalCode":"48147","AdditionalData":[{"value":"Deutschland","key":"CountryName"},{"value":"Nordrhein-Westfalen","key":"StateName"},{"value":"Münster","key":"CountyName"}]},"MapReference":{"ReferenceId":"907133988","Spot":0.32,"SideOfStreet":"right","CountryId":"20147700","StateId":"20157369","CountyId":"20159093","CityId":"20159094","DistrictId":"25606237","AddressId":"195037298","RoadLinkId":"267799856"}}},{"Relevance":1.0,"Distance":56.6,"MatchLevel":"houseNumber","MatchQuality":{"Country":1.0,"State":1.0,"County":1.0,"City":1.0,"District":1.0,"Street":[1.0],"HouseNumber":1.0,"PostalCode":1.0},"MatchType":"interpolated","Location":{"LocationId":"NT_MF9Aq266eXvJGpq6VaZJ2C_yA","LocationType":"point","DisplayPosition":{"Latitude":51.97309,"Longitude":7.62313},"MapView":{"TopLeft":{"Latitude":51.9742142,"Longitude":7.6213052},"BottomRight":{"Latitude":51.9719658,"Longitude":7.6249548}},"Address":{"Label":"Wienburgstraße 2, 48147 Münster, Deutschland","Country":"DEU","State":"Nordrhein-Westfalen","County":"Münster","City":"Münster","District":"Mitte","Street":"Wienburgstraße","HouseNumber":"2","PostalCode":"48147","AdditionalData":[{"value":"Deutschland","key":"CountryName"},{"value":"Nordrhein-Westfalen","key":"StateName"},{"value":"Münster","key":"CountyName"}]},"MapReference":{"ReferenceId":"1216298919","Spot":0.52,"SideOfStreet":"right","CountryId":"20147700","StateId":"20157369","CountyId":"20159093","CityId":"20159094","DistrictId":"25606237","AddressId":"192835503","RoadLinkId":"532594831"}}},{"Relevance":1.0,"Distance":62.8,"MatchLevel":"street","MatchQuality":{"Country":1.0,"State":1.0,"County":1.0,"City":1.0,"District":1.0,"Street":[1.0],"PostalCode":1.0},"Location":{"LocationId":"NT_xbucWt.uIBh6QlxBtVi5pA_l_907133987_R","LocationType":"point","DisplayPosition":{"Latitude":51.97247,"Longitude":7.62317},"MapView":{"TopLeft":{"Latitude":51.97247,"Longitude":7.62284},"BottomRight":{"Latitude":51.97233,"Longitude":7.62317}},"Address":{"Label":"Wichernstraße, 48147 Münster, Deutschland","Country":"DEU","State":"Nordrhein-Westfalen","County":"Münster","City":"Münster","District":"Mitte","Street":"Wichernstraße","PostalCode":"48147","AdditionalData":[{"value":"Deutschland","key":"CountryName"},{"value":"Nordrhein-Westfalen","key":"StateName"},{"value":"Münster","key":"CountyName"}]},"MapReference":{"ReferenceId":"907133987","Spot":1.0,"SideOfStreet":"right","CountryId":"20147700","StateId":"20157369","CountyId":"20159093","CityId":"20159094","DistrictId":"25606237"}}},{"Relevance":1.0,"Distance":62.8,"MatchLevel":"street","MatchQuality":{"Country":1.0,"State":1.0,"County":1.0,"City":1.0,"District":1.0,"PostalCode":1.0},"Location":{"LocationId":"NT_GU633x-wxveTmHWAnuMxHD_l_906536694_R","LocationType":"point","DisplayPosition":{"Latitude":51.97247,"Longitude":7.62317},"MapView":{"TopLeft":{"Latitude":51.97247,"Longitude":7.62311},"BottomRight":{"Latitude":51.97217,"Longitude":7.62317}},"Address":{"Label":"48147 Münster, Deutschland","Country":"DEU","State":"Nordrhein-Westfalen","County":"Münster","City":"Münster","District":"Mitte","PostalCode":"48147","AdditionalData":[{"value":"Deutschland","key":"CountryName"},{"value":"Nordrhein-Westfalen","key":"StateName"},{"value":"Münster","key":"CountyName"}]},"MapReference":{"ReferenceId":"906536694","Spot":1.0,"SideOfStreet":"right","CountryId":"20147700","StateId":"20157369","CountyId":"20159093","CityId":"20159094","DistrictId":"25606237"}}},{"Relevance":1.0,"Distance":69.7,"MatchLevel":"houseNumber","MatchQuality":{"Country":1.0,"State":1.0,"County":1.0,"City":1.0,"District":1.0,"Street":[1.0],"HouseNumber":1.0,"PostalCode":1.0},"MatchType":"interpolated","Location":{"LocationId":"NT_4EKbnMhBEK2ON.U5oE3PlB_2gD","LocationType":"point","DisplayPosition":{"Latitude":51.97193,"Longitude":7.62346},"MapView":{"TopLeft":{"Latitude":51.9730542,"Longitude":7.6216352},"BottomRight":{"Latitude":51.9708058,"Longitude":7.6252848}},"Address":{"Label":"Coerdestraße 68, 48147 Münster, Deutschland","Country":"DEU","State":"Nordrhein-Westfalen","County":"Münster","City":"Münster","District":"Mitte","Street":"Coerdestraße","HouseNumber":"68","PostalCode":"48147","AdditionalData":[{"value":"Deutschland","key":"CountryName"},{"value":"Nordrhein-Westfalen","key":"StateName"},{"value":"Münster","key":"CountyName"}]},"MapReference":{"ReferenceId":"883765712","Spot":0.51,"SideOfStreet":"right","CountryId":"20147700","StateId":"20157369","CountyId":"20159093","CityId":"20159094","DistrictId":"25606237","AddressId":"249320370","RoadLinkId":"332012205"}}},{"Relevance":1.0,"Distance":72.1,"MatchLevel":"houseNumber","MatchQuality":{"Country":1.0,"State":1.0,"County":1.0,"City":1.0,"District":1.0,"Street":[1.0],"HouseNumber":1.0,"PostalCode":1.0},"MatchType":"interpolated","Location":{"LocationId":"NT_MF9Aq266eXvJGpq6VaZJ2C_1A","LocationType":"point","DisplayPosition":{"Latitude":51.97283,"Longitude":7.62304},"MapView":{"TopLeft":{"Latitude":51.9739542,"Longitude":7.6212152},"BottomRight":{"Latitude":51.9717058,"Longitude":7.6248648}},"Address":{"Label":"Wienburgstraße 5, 48147 Münster, Deutschland","Country":"DEU","State":"Nordrhein-Westfalen","County":"Münster","City":"Münster","District":"Mitte","Street":"Wienburgstraße","HouseNumber":"5","PostalCode":"48147","AdditionalData":[{"value":"Deutschland","key":"CountryName"},{"value":"Nordrhein-Westfalen","key":"StateName"},{"value":"Münster","key":"CountyName"}]},"MapReference":{"ReferenceId":"1216298918","Spot":0.91,"SideOfStreet":"left","CountryId":"20147700","StateId":"20157369","CountyId":"20159093","CityId":"20159094","DistrictId":"25606237","AddressId":"193237746","RoadLinkId":"532594830"}}},{"Relevance":1.0,"Distance":80.3,"MatchLevel":"street","MatchQuality":{"Country":1.0,"State":1.0,"County":1.0,"City":1.0,"District":1.0,"Street":[1.0],"PostalCode":1.0},"Location":{"LocationId":"NT_4EKbnMhBEK2ON.U5oE3PlB_l_906526119_R","LocationType":"point","DisplayPosition":{"Latitude":51.97213,"Longitude":7.62321},"MapView":{"TopLeft":{"Latitude":51.97217,"Longitude":7.62312},"BottomRight":{"Latitude":51.97213,"Longitude":7.62321}},"Address":{"Label":"Coerdestraße, 48147 Münster, Deutschland","Country":"DEU","State":"Nordrhein-Westfalen","County":"Münster","City":"Münster","District":"Mitte","Street":"Coerdestraße","PostalCode":"48147","AdditionalData":[{"value":"Deutschland","key":"CountryName"},{"value":"Nordrhein-Westfalen","key":"StateName"},{"value":"Münster","key":"CountyName"}]},"MapReference":{"ReferenceId":"906526119","Spot":0.0,"SideOfStreet":"right","CountryId":"20147700","StateId":"20157369","CountyId":"20159093","CityId":"20159094","DistrictId":"25606237"}}},{"Relevance":1.0,"Distance":81.8,"MatchLevel":"street","MatchQuality":{"Country":1.0,"State":1.0,"County":1.0,"City":1.0,"District":1.0,"Street":[1.0],"PostalCode":1.0},"Location":{"LocationId":"NT_4EKbnMhBEK2ON.U5oE3PlB_l_906511987_R","LocationType":"point","DisplayPosition":{"Latitude":51.97203,"Longitude":7.62337},"MapView":{"TopLeft":{"Latitude":51.97213,"Longitude":7.62321},"BottomRight":{"Latitude":51.97203,"Longitude":7.62337}},"Address":{"Label":"Coerdestraße, 48147 Münster, Deutschland","Country":"DEU","State":"Nordrhein-Westfalen","County":"Münster","City":"Münster","District":"Mitte","Street":"Coerdestraße","PostalCode":"48147","AdditionalData":[{"value":"Deutschland","key":"CountryName"},{"value":"Nordrhein-Westfalen","key":"StateName"},{"value":"Münster","key":"CountyName"}]},"MapReference":{"ReferenceId":"906511987","Spot":0.0,"SideOfStreet":"right","CountryId":"20147700","StateId":"20157369","CountyId":"20159093","CityId":"20159094","DistrictId":"25606237"}}},{"Relevance":1.0,"Distance":81.9,"MatchLevel":"street","MatchQuality":{"Country":1.0,"State":1.0,"County":1.0,"City":1.0,"District":1.0,"PostalCode":1.0},"Location":{"LocationId":"NT_GU633x-wxveTmHWAnuMxHD_l_906511983_L","LocationType":"point","DisplayPosition":{"Latitude":51.97217,"Longitude":7.62312},"MapView":{"TopLeft":{"Latitude":51.97217,"Longitude":7.62264},"BottomRight":{"Latitude":51.9719,"Longitude":7.62312}},"Address":{"Label":"48147 Münster, Deutschland","Country":"DEU","State":"Nordrhein-Westfalen","County":"Münster","City":"Münster","District":"Mitte","PostalCode":"48147","AdditionalData":[{"value":"Deutschland","key":"CountryName"},{"value":"Nordrhein-Westfalen","key":"StateName"},{"value":"Münster","key":"CountyName"}]},"MapReference":{"ReferenceId":"906511983","Spot":1.0,"SideOfStreet":"left","CountryId":"20147700","StateId":"20157369","CountyId":"20159093","CityId":"20159094","DistrictId":"25606237"}}}]}]}}